{
    "data": [
        {
            "name": "藜",
            "type": "和食・寿司",
            "area": "仙台市青葉区のお店",
            "address": " 仙台市青葉区 一番町3-8-1ラベルヴィビルB１F",
            "postal_code": "980-0811",
            "tel": "022-796-2582",
            "lat": "38.26125685",
            "lng": "140.87275243"
        },
        {
            "name": "あくび",
            "type": "和食・寿司",
            "area": "仙台市青葉区のお店",
            "address": " 仙台市青葉区 一番町2-3-37文化横丁内",
            "postal_code": "980-0811",
            "tel": "022-266-0604",
            "lat": "38.25904039",
            "lng": "140.87311365"
        },
        {
            "name": "明ぼ乃",
            "type": "和食・寿司",
            "area": "仙台市青葉区のお店",
            "address": " 仙台市青葉区 一番町2-3-28",
            "postal_code": "980-0811",
            "tel": "022-221-5808",
            "lat": "38.25863766",
            "lng": "140.87351085"
        },
        {
            "name": "味の牛たん喜助　駅前中央本店",
            "type": "和食・寿司",
            "area": "仙台市青葉区のお店",
            "address": " 仙台市青葉区 中央2-1-27エバーアイ3階",
            "postal_code": "980-0021",
            "tel": "022-265-2080",
            "lat": "38.26157098",
            "lng": "140.87849622"
        },
        {
            "name": "味の牛たん喜助　JR仙台駅店",
            "type": "和食・寿司",
            "area": "仙台市青葉区のお店",
            "address": " 仙台市青葉区 中央1-1-1仙台駅3階牛たん通り内",
            "postal_code": "980-0021",
            "tel": "022-221-5612",
            "lat": "38.26028515",
            "lng": "140.88224312"
        },
        {
            "name": "味の牛たん喜助　定禅寺店",
            "type": "和食・寿司",
            "area": "仙台市青葉区のお店",
            "address": " 仙台市青葉区 一番町4-10-14定禅寺ビル地下１階",
            "postal_code": "980-0811",
            "tel": "022-266-2118",
            "lat": "38.26576467",
            "lng": "140.86987468"
        },
        {
            "name": "味の牛たん喜助　南町通店",
            "type": "和食・寿司",
            "area": "仙台市青葉区のお店",
            "address": " 仙台市青葉区 中央3-6-12仙台南町通りビル2階",
            "postal_code": "980-0021",
            "tel": "022-748-7288",
            "lat": "38.25983503",
            "lng": "140.87888241"
        },
        {
            "name": "味の牛たん喜助エスパル店　エスパル仙台店",
            "type": "和食・寿司",
            "area": "仙台市青葉区のお店",
            "address": " 仙台市青葉区 中央1-1-1地下1階",
            "postal_code": "980-8477",
            "tel": "022-268-2560",
            "lat": "38.26028515",
            "lng": "140.88224312"
        },
        {
            "name": "炙屋 十兵衛　エスパル仙台店",
            "type": "和食・寿司",
            "area": "仙台市青葉区のお店",
            "address": " 仙台市青葉区 中央1-1-1",
            "postal_code": "980-8477",
            "tel": "022-715-5039",
            "lat": "38.26028515",
            "lng": "140.88224312"
        },
        {
            "name": "炙屋十兵衛二日町本店",
            "type": "和食・寿司",
            "area": "仙台市青葉区のお店",
            "address": " 仙台市青葉区 二日町18-11芳賀ビル1階",
            "postal_code": "980-0802",
            "tel": "022-222-2311",
            "lat": "38.27144458",
            "lng": "140.86717189"
        },
        {
            "name": "荒寿司",
            "type": "和食・寿司",
            "area": "仙台市青葉区のお店",
            "address": "宮城県仙台市青葉区国分町2-5-3ゴロク壱番館ビル1階",
            "postal_code": "980-0803",
            "tel": "022-398-3989",
            "lat": "38.26282325",
            "lng": "140.86934993"
        },
        {
            "name": "いけす料理馳走亭",
            "type": "和食・寿司",
            "area": "仙台市青葉区のお店",
            "address": " 仙台市青葉区 国分町2-10-10勝徳ビル",
            "postal_code": "980-0803",
            "tel": "022-225-0906",
            "lat": "38.26357042",
            "lng": "140.86984427"
        },
        {
            "name": "伊勢屋クリスロード店",
            "type": "和食・寿司",
            "area": "仙台市青葉区のお店",
            "address": " 仙台市青葉区 中央2-6-7大田やビル地下１階",
            "postal_code": "980-0021",
            "tel": "022-261-5561",
            "lat": "38.26180982",
            "lng": "140.87782127"
        },
        {
            "name": "一の木",
            "type": "和食・寿司",
            "area": "仙台市青葉区のお店",
            "address": " 仙台市青葉区 国分町2-1-27一の木ビル",
            "postal_code": "980-0803",
            "tel": "022-346-7180",
            "lat": "38.26282051",
            "lng": "140.87043592"
        },
        {
            "name": "いちまるに処　瓢庵",
            "type": "和食・寿司",
            "area": "仙台市青葉区のお店",
            "address": " 仙台市青葉区 一番町2-3-28",
            "postal_code": "980-0811",
            "tel": "022-721-9034",
            "lat": "38.25863766",
            "lng": "140.87351085"
        },
        {
            "name": "いち道",
            "type": "和食・寿司",
            "area": "仙台市青葉区のお店",
            "address": " 仙台市青葉区 国分町2-5-3ゴロク壱番館１F",
            "postal_code": "980-0803",
            "tel": "022-227-5581",
            "lat": "38.26282325",
            "lng": "140.86934993"
        },
        {
            "name": "一窯",
            "type": "和食・寿司",
            "area": "仙台市青葉区のお店",
            "address": " 仙台市青葉区 国分町2-14-3オリンピアビル1階",
            "postal_code": "980-0803",
            "tel": "022-797-7315",
            "lat": "38.26504246",
            "lng": "140.86865820"
        },
        {
            "name": "今人懐石yas",
            "type": "和食・寿司",
            "area": "仙台市青葉区のお店",
            "address": " 仙台市青葉区 春日町7-1MFPRコート晩翠通り　B1F",
            "postal_code": "980-0821",
            "tel": "022-265-3155",
            "lat": "38.26667275",
            "lng": "140.86594176"
        },
        {
            "name": "いわま亭",
            "type": "和食・寿司",
            "area": "仙台市青葉区のお店",
            "address": " 仙台市青葉区 八幡3-18-19",
            "postal_code": "980-0871",
            "tel": "022-261-9050",
            "lat": "38.26831625",
            "lng": "140.84453294"
        },
        {
            "name": "うどん酒場 七右衛門　エスパル仙台店",
            "type": "和食・寿司",
            "area": "仙台市青葉区のお店",
            "address": " 仙台市青葉区 中央1-1-1",
            "postal_code": "980-8477",
            "tel": "022-399-7728",
            "lat": "38.26028515",
            "lng": "140.88224312"
        },
        {
            "name": "うまい鮨勘 一番町支店",
            "type": "和食・寿司",
            "area": "仙台市青葉区のお店",
            "address": " 仙台市青葉区 一番町4-5-6江陽パルサビル",
            "postal_code": "980-0811",
            "tel": "022-268-1822",
            "lat": "38.26349548",
            "lng": "140.87129689"
        },
        {
            "name": "うまい鮨勘 国見ヶ丘支店",
            "type": "和食・寿司",
            "area": "仙台市青葉区のお店",
            "address": " 仙台市青葉区 国見ケ丘2-1-2",
            "postal_code": "989-3201",
            "tel": "022-277-0003",
            "lat": "38.29476827",
            "lng": "140.82566654"
        },
        {
            "name": "うまい鮨勘 総本店",
            "type": "和食・寿司",
            "area": "仙台市青葉区のお店",
            "address": " 仙台市青葉区 国分町2-1-15猪股ビル１階２階",
            "postal_code": "980-0803",
            "tel": "022-797-7674",
            "lat": "38.26327322",
            "lng": "140.86983318"
        },
        {
            "name": "うまい鮨勘 名掛丁支店",
            "type": "和食・寿司",
            "area": "仙台市青葉区のお店",
            "address": " 仙台市青葉区 中央1-7-7",
            "postal_code": "980-0021",
            "tel": "022-722-0300",
            "lat": "38.26217377",
            "lng": "140.87976269"
        },
        {
            "name": "うまい鮨勘 別館 鮨正",
            "type": "和食・寿司",
            "area": "仙台市青葉区のお店",
            "address": " 仙台市青葉区 一番町4-3-29宝屋ビル2F",
            "postal_code": "980-0811",
            "tel": "022-217-6610",
            "lat": "38.26287330",
            "lng": "140.87089698"
        },
        {
            "name": "うまいものあり　おおみ矢　稲荷小路店",
            "type": "和食・寿司",
            "area": "仙台市青葉区のお店",
            "address": " 仙台市青葉区 一番町4-3-12第5吉岡屋ビル1階",
            "postal_code": "980-0811",
            "tel": "022-262-8910",
            "lat": "38.26303161",
            "lng": "140.87055534"
        },
        {
            "name": "うまいものあり　おおみ矢　仙台駅前店",
            "type": "和食・寿司",
            "area": "仙台市青葉区のお店",
            "address": " 仙台市青葉区 中央2-2-38フォーシーズンビル5階",
            "postal_code": "980-0021",
            "tel": "022-393-5212",
            "lat": "38.26111264",
            "lng": "140.87748525"
        },
        {
            "name": "旨シ魚ト牛タン 千代芭",
            "type": "和食・寿司",
            "area": "仙台市青葉区のお店",
            "address": " 仙台市青葉区 国分町2-6-13相沢ビル1階",
            "postal_code": "980-0803",
            "tel": "022-266-2040",
            "lat": "38.26372316",
            "lng": "140.86924155"
        },
        {
            "name": "海の台所波奈　エスパル仙台店",
            "type": "和食・寿司",
            "area": "仙台市青葉区のお店",
            "address": " 仙台市青葉区 中央1-1-1",
            "postal_code": "980-8477",
            "tel": "022-227-8754",
            "lat": "38.26028515",
            "lng": "140.88224312"
        },
        {
            "name": "縁 YENISHI",
            "type": "和食・寿司",
            "area": "仙台市青葉区のお店",
            "address": " 仙台市青葉区 一番町3-8-2ラベルヴィビル3階",
            "postal_code": "980-0811",
            "tel": "022-266-0603",
            "lat": "38.26128184",
            "lng": "140.87241636"
        },
        {
            "name": "大かまど飯　寅福　エスパル仙台店",
            "type": "和食・寿司",
            "area": "仙台市青葉区のお店",
            "address": " 仙台市青葉区 中央1-1-1",
            "postal_code": "980-8477",
            "tel": "022-742-2850",
            "lat": "38.26028515",
            "lng": "140.88224312"
        },
        {
            "name": "大戸屋　エスパル仙台店",
            "type": "和食・寿司",
            "area": "仙台市青葉区のお店",
            "address": " 仙台市青葉区 中央1-1-1",
            "postal_code": "980-8477",
            "tel": "022-266-1138",
            "lat": "38.26028515",
            "lng": "140.88224312"
        },
        {
            "name": "大戸屋ごはん処仙台マーブルロード店",
            "type": "和食・寿司",
            "area": "仙台市青葉区のお店",
            "address": " 仙台市青葉区 一番町3-1-18しまぬきビルB1F",
            "postal_code": "980-0811",
            "tel": "022-263-3222",
            "lat": "38.26036253",
            "lng": "140.87376627"
        },
        {
            "name": "大戸屋ごはん処仙台ロフト店",
            "type": "和食・寿司",
            "area": "仙台市青葉区のお店",
            "address": " 仙台市青葉区 中央1-10-10仙台ロフト8F",
            "postal_code": "980-0021",
            "tel": "022-221-3811",
            "lat": "38.26014897",
            "lng": "140.88045166"
        },
        {
            "name": "おかざき春日町",
            "type": "和食・寿司",
            "area": "仙台市青葉区のお店",
            "address": " 仙台市青葉区 春日町10-28",
            "postal_code": "980-0821",
            "tel": "022-266-7282",
            "lat": "38.26713651",
            "lng": "140.86380588"
        },
        {
            "name": "おかざき西公園前",
            "type": "和食・寿司",
            "area": "仙台市青葉区のお店",
            "address": " 仙台市青葉区 立町19-16協陽ビル１階",
            "postal_code": "980-0822",
            "tel": "022-265-3688",
            "lat": "38.26319242",
            "lng": "140.86310061"
        },
        {
            "name": "奥州ろばた　センダイエキ天海　エスパル仙台店",
            "type": "和食・寿司",
            "area": "仙台市青葉区のお店",
            "address": " 仙台市青葉区 中央1-1-1",
            "postal_code": "980-8477",
            "tel": "022-385-6632",
            "lat": "38.26028515",
            "lng": "140.88224312"
        },
        {
            "name": "お寿司と旬彩料理 たちばな",
            "type": "和食・寿司",
            "area": "仙台市青葉区のお店",
            "address": " 仙台市青葉区 一番町3-3-25たちばなビル5F",
            "postal_code": "980-0811",
            "tel": "022-223-3706",
            "lat": "38.26029022",
            "lng": "140.87183037"
        },
        {
            "name": "おそば どうだんの里",
            "type": "和食・寿司",
            "area": "仙台市青葉区のお店",
            "address": " 仙台市青葉区 作並字棒目木10",
            "postal_code": "989-3431",
            "tel": "022-395-3883",
            "lat": "38.30580966",
            "lng": "140.66203613"
        },
        {
            "name": "おでん三吉",
            "type": "和食・寿司",
            "area": "仙台市青葉区のお店",
            "address": " 仙台市青葉区 一番町4-10-8",
            "postal_code": "980-0811",
            "tel": "022-222-3830",
            "lat": "38.26545914",
            "lng": "140.86978582"
        },
        {
            "name": "お料理　ほし",
            "type": "和食・寿司",
            "area": "仙台市青葉区のお店",
            "address": " 仙台市青葉区 国分町2-8-2八百重ビル３階",
            "postal_code": "980-0803",
            "tel": "022-263-3010",
            "lat": "38.26385642",
            "lng": "140.86764728"
        },
        {
            "name": "お料理　悠鶴",
            "type": "和食・寿司",
            "area": "仙台市青葉区のお店",
            "address": "宮城県仙台市青葉区国分町2-1-11102",
            "postal_code": "980-0803",
            "tel": "022-216-3217",
            "lat": "38.26304548",
            "lng": "140.87018038"
        },
        {
            "name": "海鮮すし処　下駄や",
            "type": "和食・寿司",
            "area": "仙台市青葉区のお店",
            "address": " 仙台市青葉区 国分町2-10-15",
            "postal_code": "980-0803",
            "tel": "022-262-5044",
            "lat": "38.26404815",
            "lng": "140.86973870"
        },
        {
            "name": "海鮮炭火焼ちそう亭別館",
            "type": "和食・寿司",
            "area": "仙台市青葉区のお店",
            "address": " 仙台市青葉区 国分町2-1-20うめはらビル",
            "postal_code": "980-0803",
            "tel": "022-263-0959",
            "lat": "38.26333434",
            "lng": "140.87021369"
        },
        {
            "name": "海鮮料理　絆",
            "type": "和食・寿司",
            "area": "仙台市青葉区のお店",
            "address": "宮城県仙台市青葉区国分町2-1-1第19フジビル7階",
            "postal_code": "980-0803",
            "tel": "022-712-2324",
            "lat": "38.26261220",
            "lng": "140.87051648"
        },
        {
            "name": "回転寿司　海鮮三崎港　仙台クリスロード店",
            "type": "和食・寿司",
            "area": "仙台市青葉区のお店",
            "address": " 仙台市青葉区 中央2-5-7",
            "postal_code": "980-0021",
            "tel": "022-796-6560",
            "lat": "38.26157089",
            "lng": "140.87645755"
        },
        {
            "name": "加賀の屋",
            "type": "和食・寿司",
            "area": "仙台市青葉区のお店",
            "address": " 仙台市青葉区 国分町3-2-5ゼロキュービル4階",
            "postal_code": "980-0803",
            "tel": "022-796-8835",
            "lat": "38.26598406",
            "lng": "140.86893589"
        },
        {
            "name": "かきや no kakiya",
            "type": "和食・寿司",
            "area": "仙台市青葉区のお店",
            "address": " 仙台市青葉区 立町26-16早坂ビル1F",
            "postal_code": "980-0822",
            "tel": "022-215-2218",
            "lat": "38.26471458",
            "lng": "140.86519474"
        },
        {
            "name": "隠れ菴　忍家　仙台名掛丁店",
            "type": "和食・寿司",
            "area": "仙台市青葉区のお店",
            "address": " 仙台市青葉区 中央1-8-38AKビル9F",
            "postal_code": "980-0021",
            "tel": "022-265-1666",
            "lat": "38.26198771",
            "lng": "140.88052651"
        },
        {
            "name": "割烹　天ぷら　三太郎",
            "type": "和食・寿司",
            "area": "仙台市青葉区のお店",
            "address": " 仙台市青葉区 立町1-20",
            "postal_code": "980-0822",
            "tel": "022-224-1671",
            "lat": "38.26270372",
            "lng": "140.86691965"
        },
        {
            "name": "活烏賊料理とよはし",
            "type": "和食・寿司",
            "area": "仙台市青葉区のお店",
            "address": " 仙台市青葉区 国分町2-1-10阿部フォートビル1F",
            "postal_code": "980-0803",
            "tel": "022-221-0878",
            "lat": "38.26277884",
            "lng": "140.87017206"
        },
        {
            "name": "かつグルメ　吉成店",
            "type": "和食・寿司",
            "area": "仙台市青葉区のお店",
            "address": " 仙台市青葉区 南吉成2-17-5",
            "postal_code": "989-3204",
            "tel": "022-719-2333",
            "lat": "38.28559148",
            "lng": "140.81807067"
        },
        {
            "name": "かつどんのかつどん家",
            "type": "和食・寿司",
            "area": "仙台市青葉区のお店",
            "address": " 仙台市青葉区 大手町6-8",
            "postal_code": "980-0805",
            "tel": "022-264-5211",
            "lat": "38.25735968",
            "lng": "140.86392025"
        },
        {
            "name": "家庭料理　橘",
            "type": "和食・寿司",
            "area": "仙台市青葉区のお店",
            "address": "宮城県仙台市青葉区春日町6-18AXビル2階",
            "postal_code": "980-0821",
            "tel": "022-721-6368",
            "lat": "38.26629780",
            "lng": "140.86620286"
        },
        {
            "name": "かに政宗　本町店",
            "type": "和食・寿司",
            "area": "仙台市青葉区のお店",
            "address": " 仙台市青葉区 本町2-5-18",
            "postal_code": "980-0014",
            "tel": "022-265-0880",
            "lat": "38.26402891",
            "lng": "140.87423540"
        },
        {
            "name": "（株）仙台三越　フードガーデン　鶏三和",
            "type": "和食・寿司",
            "area": "仙台市青葉区のお店",
            "address": " 仙台市青葉区 一番町4-8-15定禅寺通館　地下1階",
            "postal_code": "980-0811",
            "tel": "022-225-7111",
            "lat": "38.26512311",
            "lng": "140.87106625"
        },
        {
            "name": "（株）仙台三越　三越フードガーデン　青葉亭",
            "type": "和食・寿司",
            "area": "仙台市青葉区のお店",
            "address": " 仙台市青葉区 一番町4-8-15定禅寺通り館　地下1階",
            "postal_code": "980-0811",
            "tel": "022-225-7111",
            "lat": "38.26512311",
            "lng": "140.87106625"
        },
        {
            "name": "（株）仙台三越　三越フードガーデン　つな八",
            "type": "和食・寿司",
            "area": "仙台市青葉区のお店",
            "address": " 仙台市青葉区 一番町4-8-15定禅寺通り館　地下1階",
            "postal_code": "980-0811",
            "tel": "022-225-7111",
            "lat": "38.26512311",
            "lng": "140.87106625"
        },
        {
            "name": "かまど料理銀兵衛",
            "type": "和食・寿司",
            "area": "仙台市青葉区のお店",
            "address": " 仙台市青葉区 国分町2-12-30ニュー千鳥屋ビル1F",
            "postal_code": "980-0803",
            "tel": "022-265-3636",
            "lat": "38.26490915",
            "lng": "140.86886097"
        },
        {
            "name": "かわはぎ料理かつら",
            "type": "和食・寿司",
            "area": "仙台市青葉区のお店",
            "address": " 仙台市青葉区 国分町2-15-20与五郎ビル3F",
            "postal_code": "980-0803",
            "tel": "022-215-1947",
            "lat": "38.26537580",
            "lng": "140.86959141"
        },
        {
            "name": "喜久水庵　南吉成本店",
            "type": "和食・寿司",
            "area": "仙台市青葉区のお店",
            "address": " 仙台市青葉区 南吉成2-17-1",
            "postal_code": "989-3204",
            "tel": "022-303-4131",
            "lat": "38.28473602",
            "lng": "140.81691526"
        },
        {
            "name": "北前そば高田屋仙台駅前店",
            "type": "和食・寿司",
            "area": "仙台市青葉区のお店",
            "address": "仙台市青葉区中央3-1-14中央古久根ビル地下1階",
            "postal_code": "983-0817",
            "tel": "022-716-1650",
            "lat": "38.26022942",
            "lng": "140.87832133"
        },
        {
            "name": "キムカツ仙台店",
            "type": "和食・寿司",
            "area": "仙台市青葉区のお店",
            "address": " 仙台市青葉区 一番町3-1-1クラックス5階",
            "postal_code": "980-0811",
            "tel": "022-262-1129",
            "lat": "38.26049587",
            "lng": "140.87422732"
        },
        {
            "name": "京いろ  おりふし",
            "type": "和食・寿司",
            "area": "仙台市青葉区のお店",
            "address": " 仙台市青葉区 一番町4-3-22一番町センタービル地下一階",
            "postal_code": "980-0811",
            "tel": "022-216-2167",
            "lat": "38.26335936",
            "lng": "140.87066919"
        },
        {
            "name": "蕎と旬さがゑもん",
            "type": "和食・寿司",
            "area": "仙台市青葉区のお店",
            "address": " 仙台市青葉区 二日町11-17",
            "postal_code": "980-0802",
            "tel": "022-724-7781",
            "lat": "38.27069467",
            "lng": "140.86753855"
        },
        {
            "name": "郷土料理みやぎ乃",
            "type": "和食・寿司",
            "area": "仙台市青葉区のお店",
            "address": "宮城県仙台市青葉区中央1-1-1仙台ターミナルビル地下",
            "postal_code": "984-8477",
            "tel": "022-267-4087",
            "lat": "38.26028515",
            "lng": "140.88224312"
        },
        {
            "name": "郷土料理みやぎ乃　エスパル仙台店",
            "type": "和食・寿司",
            "area": "仙台市青葉区のお店",
            "address": " 仙台市青葉区 中央1-1-1",
            "postal_code": "980-8477",
            "tel": "022-267-4087",
            "lat": "38.26028515",
            "lng": "140.88224312"
        },
        {
            "name": "京のおぞよ　一舞庵",
            "type": "和食・寿司",
            "area": "仙台市青葉区のお店",
            "address": " 仙台市青葉区 一番町1-9-1ウェスティンホテル仙台37階",
            "postal_code": "980-0811",
            "tel": "022-713-8350",
            "lat": "38.25626354",
            "lng": "140.87617739"
        },
        {
            "name": "喜良久亭",
            "type": "和食・寿司",
            "area": "仙台市青葉区のお店",
            "address": " 仙台市青葉区 北目町3-8旭屋佐藤本店ビル　2階3階",
            "postal_code": "980-0023",
            "tel": "022-223-0555",
            "lat": "38.25517137",
            "lng": "140.87549420"
        },
        {
            "name": "魚貝料理　松平",
            "type": "和食・寿司",
            "area": "仙台市青葉区のお店",
            "address": " 仙台市青葉区 国分町2-12-16",
            "postal_code": "980-0803",
            "tel": "022-262-6440",
            "lat": "38.26454525",
            "lng": "140.86783888"
        },
        {
            "name": "魚菜や　和",
            "type": "和食・寿司",
            "area": "仙台市青葉区のお店",
            "address": " 仙台市青葉区 栗生4-13-11",
            "postal_code": "989-3122",
            "tel": "022-392-7365",
            "lat": "38.26831266",
            "lng": "140.79094846"
        },
        {
            "name": "銀灯",
            "type": "和食・寿司",
            "area": "仙台市青葉区のお店",
            "address": " 仙台市青葉区 国分町2-9-36成瀬カントリービル1F",
            "postal_code": "980-0803",
            "tel": "022-227-3478",
            "lat": "38.26405091",
            "lng": "140.86915821"
        },
        {
            "name": "気仙沼あさひ鮨仙台駅店",
            "type": "和食・寿司",
            "area": "仙台市青葉区のお店",
            "address": " 仙台市青葉区 中央1-1-1JR東日本仙台駅３階",
            "postal_code": "980-0021",
            "tel": "022-722-3326",
            "lat": "38.26028515",
            "lng": "140.88224312"
        },
        {
            "name": "こうめ",
            "type": "和食・寿司",
            "area": "仙台市青葉区のお店",
            "address": "宮城県仙台市青葉区立町26-17小野ビル203",
            "postal_code": "980-0822",
            "tel": "022-738-8174",
            "lat": "38.26467292",
            "lng": "140.86529750"
        },
        {
            "name": "古々がみそ一番町店",
            "type": "和食・寿司",
            "area": "仙台市青葉区のお店",
            "address": " 仙台市青葉区 一番町4-9-1かき徳ビル",
            "postal_code": "980-0811",
            "tel": "022-748-6624",
            "lat": "38.26477033",
            "lng": "140.87035525"
        },
        {
            "name": "心づくしいなせ",
            "type": "和食・寿司",
            "area": "仙台市青葉区のお店",
            "address": " 仙台市青葉区 中央3-6-22駅前のぞみビル１階",
            "postal_code": "980-0021",
            "tel": "022-224-6884",
            "lat": "38.25999889",
            "lng": "140.87842134"
        },
        {
            "name": "古傳小林",
            "type": "和食・寿司",
            "area": "仙台市青葉区のお店",
            "address": " 仙台市青葉区 中央二丁目1-5青葉21ビル地下1階",
            "postal_code": "980-0021",
            "tel": "022-395-8012",
            "lat": "38.26111824",
            "lng": "140.87834904"
        },
        {
            "name": "寿屋寿庵電力ビル店",
            "type": "和食・寿司",
            "area": "仙台市青葉区のお店",
            "address": " 仙台市青葉区 一番町3-7-1電力ビル地下1階",
            "postal_code": "980-0811",
            "tel": "022-265-1943",
            "lat": "38.26149018",
            "lng": "140.87299683"
        },
        {
            "name": "小料理京町",
            "type": "和食・寿司",
            "area": "仙台市青葉区のお店",
            "address": " 仙台市青葉区 国分町2-8-30",
            "postal_code": "980-0803",
            "tel": "022-225-8836",
            "lat": "38.26357312",
            "lng": "140.86774173"
        },
        {
            "name": "小料理Bar　路地とうや",
            "type": "和食・寿司",
            "area": "仙台市青葉区のお店",
            "address": "宮城県仙台市青葉区国分町2-1-26",
            "postal_code": "980-0803",
            "tel": "022-227-5223",
            "lat": "38.26293161",
            "lng": "140.87038314"
        },
        {
            "name": "菜時季大原",
            "type": "和食・寿司",
            "area": "仙台市青葉区のお店",
            "address": " 仙台市青葉区 中央3-1-21USビル19　6階",
            "postal_code": "980-0021",
            "tel": "022-264-4861",
            "lat": "38.26049885",
            "lng": "140.87850462"
        },
        {
            "name": "魚　陽月",
            "type": "和食・寿司",
            "area": "仙台市青葉区のお店",
            "address": " 仙台市青葉区 一番町2-7-3サンモールシティビル　地下1階",
            "postal_code": "980-0811",
            "tel": "022-224-8630",
            "lat": "38.25824598",
            "lng": "140.87249432"
        },
        {
            "name": "酒の穴　鳥心",
            "type": "和食・寿司",
            "area": "仙台市青葉区のお店",
            "address": " 仙台市青葉区 錦町1-2-18定禅寺HILL　１階",
            "postal_code": "980-0012",
            "tel": "022-222-6919",
            "lat": "38.26752038",
            "lng": "140.87655432"
        },
        {
            "name": "札幌かに本家　仙台店",
            "type": "和食・寿司",
            "area": "仙台市青葉区のお店",
            "address": " 仙台市青葉区 一番町4-2-5",
            "postal_code": "980-0811",
            "tel": "022-213-0505",
            "lat": "38.26274557",
            "lng": "140.87174411"
        },
        {
            "name": "さぬきうどん　まるさん",
            "type": "和食・寿司",
            "area": "仙台市青葉区のお店",
            "address": " 仙台市青葉区 川平3-47-22",
            "postal_code": "981-0954",
            "tel": "022-279-3303",
            "lat": "38.30650875",
            "lng": "140.83385375"
        },
        {
            "name": "三陸魚貝　伊達路",
            "type": "和食・寿司",
            "area": "仙台市青葉区のお店",
            "address": "宮城県仙台市青葉区中央2-4-8",
            "postal_code": "980-0021",
            "tel": "022-227-9333",
            "lat": "38.26142639",
            "lng": "140.87506050"
        },
        {
            "name": "三陸前  仙台駅ビル店",
            "type": "和食・寿司",
            "area": "仙台市青葉区のお店",
            "address": " 仙台市青葉区 中央1-1-1仙台駅3階",
            "postal_code": "980-0021",
            "tel": "022-217-3047",
            "lat": "38.26028515",
            "lng": "140.88224312"
        },
        {
            "name": "塩竈　しらはた",
            "type": "和食・寿司",
            "area": "仙台市青葉区のお店",
            "address": " 仙台市青葉区 中央1-1-1エスパル仙台東館２階伊達のこみち内",
            "postal_code": "980-8477",
            "tel": "022-369-3403",
            "lat": "38.26028515",
            "lng": "140.88224312"
        },
        {
            "name": "塩釜　しらはた　エスパル仙台店",
            "type": "和食・寿司",
            "area": "仙台市青葉区のお店",
            "address": " 仙台市青葉区 中央1-1-1",
            "postal_code": "980-8477",
            "tel": "022-369-3403",
            "lat": "38.26028515",
            "lng": "140.88224312"
        },
        {
            "name": "塩竈すし哲　エスパル仙台店",
            "type": "和食・寿司",
            "area": "仙台市青葉区のお店",
            "address": " 仙台市青葉区 中央1-1-1",
            "postal_code": "980-8477",
            "tel": "022-716-1075",
            "lat": "38.26028515",
            "lng": "140.88224312"
        },
        {
            "name": "自然・食彩・浪漫　おしか",
            "type": "和食・寿司",
            "area": "仙台市青葉区のお店",
            "address": " 仙台市青葉区 国分町3-6-1仙台パークビル地下1階",
            "postal_code": "980-0803",
            "tel": "022-212-8485",
            "lat": "38.26701174",
            "lng": "140.86901360"
        },
        {
            "name": "自然・食彩・浪漫　びわね",
            "type": "和食・寿司",
            "area": "仙台市青葉区のお店",
            "address": " 仙台市青葉区 一番町3-8-8一番町ステアビル1階",
            "postal_code": "980-0811",
            "tel": "022-721-1567",
            "lat": "38.26111795",
            "lng": "140.87209974"
        },
        {
            "name": "写楽  仙台国分町別館店",
            "type": "和食・寿司",
            "area": "仙台市青葉区のお店",
            "address": " 仙台市青葉区 国分町2-10-23丸伊プラザ1階",
            "postal_code": "980-0803",
            "tel": "022-265-0023",
            "lat": "38.26447311",
            "lng": "140.86967201"
        },
        {
            "name": "酒亭北の峯",
            "type": "和食・寿司",
            "area": "仙台市青葉区のお店",
            "address": " 仙台市青葉区 本町2丁目14-26保坂ビル１階",
            "postal_code": "980-0014",
            "tel": "022-265-7257",
            "lat": "38.26449551",
            "lng": "140.87385208"
        },
        {
            "name": "旬彩　くろ川",
            "type": "和食・寿司",
            "area": "仙台市青葉区のお店",
            "address": "宮城県仙台市青葉区本町2-4-14第２遠藤ビル1階",
            "postal_code": "980-0014",
            "tel": "022-211-0096",
            "lat": "38.26401499",
            "lng": "140.87354382"
        },
        {
            "name": "旬菜　雅",
            "type": "和食・寿司",
            "area": "仙台市青葉区のお店",
            "address": " 仙台市青葉区 中央4-1-3仙台プレイビル地下1階",
            "postal_code": "980-0021",
            "tel": "022-721-9080",
            "lat": "38.25859075",
            "lng": "140.88012125"
        },
        {
            "name": "旬房　街道青葉",
            "type": "和食・寿司",
            "area": "仙台市青葉区のお店",
            "address": "宮城県仙台市青葉区中央2丁目4-7エンドウスポーツビル2階",
            "postal_code": "980-0021",
            "tel": "022-222-0018",
            "lat": "38.26126808",
            "lng": "140.87517439"
        },
        {
            "name": "旬味旬鮮　せんな",
            "type": "和食・寿司",
            "area": "仙台市青葉区のお店",
            "address": " 仙台市青葉区 一番町3-8-1",
            "postal_code": "980-0811",
            "tel": "022-797-2244",
            "lat": "38.26125685",
            "lng": "140.87275243"
        },
        {
            "name": "松竹膳處",
            "type": "和食・寿司",
            "area": "仙台市青葉区のお店",
            "address": " 仙台市青葉区 大町2-10-231-A",
            "postal_code": "980-0804",
            "tel": "022-225-5591",
            "lat": "38.26055381",
            "lng": "140.86371734"
        },
        {
            "name": "庄村",
            "type": "和食・寿司",
            "area": "仙台市青葉区のお店",
            "address": " 仙台市青葉区 国分町2-6-19のっぽビル1階",
            "postal_code": "980-0803",
            "tel": "022-724-2050",
            "lat": "38.26356485",
            "lng": "140.86939988"
        },
        {
            "name": "食彩・ロマン　仙臺花寅",
            "type": "和食・寿司",
            "area": "仙台市青葉区のお店",
            "address": " 仙台市青葉区 一番町4-2-10仙台東映プラザ3階",
            "postal_code": "980-0811",
            "tel": "022-721-0301",
            "lat": "38.26275389",
            "lng": "140.87153580"
        },
        {
            "name": "新写楽　仙台国分町店",
            "type": "和食・寿司",
            "area": "仙台市青葉区のお店",
            "address": " 仙台市青葉区 国分町2-5-1ゴロクビル三番館1階",
            "postal_code": "980-0803",
            "tel": "022-261-4381",
            "lat": "38.26287325",
            "lng": "140.86964156"
        },
        {
            "name": "新富寿司",
            "type": "和食・寿司",
            "area": "仙台市青葉区のお店",
            "address": " 仙台市青葉区 東勝山2-7-27",
            "postal_code": "981-0923",
            "tel": "022-233-1134",
            "lat": "38.29588877",
            "lng": "140.86313472"
        },
        {
            "name": "Season　花蔵",
            "type": "和食・寿司",
            "area": "仙台市青葉区のお店",
            "address": " 仙台市青葉区 中央2-11-26ホテルドーミーイン仙台アネックス1階",
            "postal_code": "980-0021",
            "tel": "022-224-6123",
            "lat": "38.26270696",
            "lng": "140.87776843"
        },
        {
            "name": "重箱",
            "type": "和食・寿司",
            "area": "仙台市青葉区のお店",
            "address": " 仙台市青葉区 大町1-4-10B1",
            "postal_code": "980-0804",
            "tel": "022-264-2443",
            "lat": "38.26026515",
            "lng": "140.86951396"
        },
        {
            "name": "十割そば会　仙台吉成店",
            "type": "和食・寿司",
            "area": "仙台市青葉区のお店",
            "address": " 仙台市青葉区 吉成台2-1-10",
            "postal_code": "989-3205",
            "tel": "022-719-0377",
            "lat": "38.29300732",
            "lng": "140.82210588"
        },
        {
            "name": "寿松庵　本町店",
            "type": "和食・寿司",
            "area": "仙台市青葉区のお店",
            "address": " 仙台市青葉区 本町2-5-17",
            "postal_code": "980-0014",
            "tel": "022-265-5110",
            "lat": "38.26397890",
            "lng": "140.87407154"
        },
        {
            "name": "定禅寺なかむら",
            "type": "和食・寿司",
            "area": "仙台市青葉区のお店",
            "address": " 仙台市青葉区 国分町3-3-29ルナ国分町ビル２Ｆ",
            "postal_code": "980-0803",
            "tel": "022-302-7762",
            "lat": "38.26607292",
            "lng": "140.86848316"
        },
        {
            "name": "すけぞう",
            "type": "和食・寿司",
            "area": "仙台市青葉区のお店",
            "address": " 仙台市青葉区 一番町2-3-28",
            "postal_code": "980-0811",
            "tel": "022-227-5177",
            "lat": "38.25863766",
            "lng": "140.87351085"
        },
        {
            "name": "助六寿司",
            "type": "和食・寿司",
            "area": "仙台市青葉区のお店",
            "address": " 仙台市青葉区 国分町2-2-15",
            "postal_code": "980-0803",
            "tel": "022-222-0353",
            "lat": "38.26237048",
            "lng": "140.86853894"
        },
        {
            "name": "鮨　仙一",
            "type": "和食・寿司",
            "area": "仙台市青葉区のお店",
            "address": " 仙台市青葉区 中央3-9-12",
            "postal_code": "980-0021",
            "tel": "022-263-1180",
            "lat": "38.25843228",
            "lng": "140.87697438"
        },
        {
            "name": "鮨　よねくら",
            "type": "和食・寿司",
            "area": "仙台市青葉区のお店",
            "address": " 仙台市青葉区 立町14-4プラスワンビル101",
            "postal_code": "980-0822",
            "tel": "022-712-8508",
            "lat": "38.26296203",
            "lng": "140.86683909"
        },
        {
            "name": "鮨　和さび",
            "type": "和食・寿司",
            "area": "仙台市青葉区のお店",
            "address": " 仙台市青葉区 一番町2-5-15一番町ＭＫビル3F",
            "postal_code": "980-0811",
            "tel": "022-302-5144",
            "lat": "38.25890978",
            "lng": "140.87166659"
        },
        {
            "name": "すし居酒屋　しぶ谷",
            "type": "和食・寿司",
            "area": "仙台市青葉区のお店",
            "address": " 仙台市青葉区 三条町13-15",
            "postal_code": "981-0935",
            "tel": "022-347-3662",
            "lat": "38.28065399",
            "lng": "140.85267604"
        },
        {
            "name": "寿司勝",
            "type": "和食・寿司",
            "area": "仙台市青葉区のお店",
            "address": " 仙台市青葉区 中央4-2-30",
            "postal_code": "980-0021",
            "tel": "022-222-7225",
            "lat": "38.25810185",
            "lng": "140.87898807"
        },
        {
            "name": "すしざんまい仙台一番町店",
            "type": "和食・寿司",
            "area": "仙台市青葉区のお店",
            "address": " 仙台市青葉区 一番町4-5-7シエロ一番町４丁目ビル１階",
            "postal_code": "980-0811",
            "tel": "022-281-9098",
            "lat": "38.26360381",
            "lng": "140.87127466"
        },
        {
            "name": "鮨だい寅",
            "type": "和食・寿司",
            "area": "仙台市青葉区のお店",
            "address": " 仙台市青葉区 五橋1-6-10",
            "postal_code": "980-0022",
            "tel": "022-227-4804",
            "lat": "38.25290792",
            "lng": "140.88092157"
        },
        {
            "name": "すし哲仙台エスパル店",
            "type": "和食・寿司",
            "area": "仙台市青葉区のお店",
            "address": " 仙台市青葉区 中央1-1-1エスパル仙台",
            "postal_code": "980-8477",
            "tel": "022-716-1075",
            "lat": "38.26028515",
            "lng": "140.88224312"
        },
        {
            "name": "寿司田　エスパル仙台店",
            "type": "和食・寿司",
            "area": "仙台市青葉区のお店",
            "address": " 仙台市青葉区 中央1-1-1",
            "postal_code": "980-8477",
            "tel": "022-267-4086",
            "lat": "38.26028515",
            "lng": "140.88224312"
        },
        {
            "name": "寿司田  仙台駅ビル店",
            "type": "和食・寿司",
            "area": "仙台市青葉区のお店",
            "address": " 仙台市青葉区 中央1-1-1仙台エスパルB1",
            "postal_code": "980-0021",
            "tel": "022-267-4086",
            "lat": "38.26028515",
            "lng": "140.88224312"
        },
        {
            "name": "すし波奈　仙台パルコ店",
            "type": "和食・寿司",
            "area": "仙台市青葉区のお店",
            "address": " 仙台市青葉区 中央1-2仙台パルコ9階",
            "postal_code": "980-0021",
            "tel": "022-713-6787",
            "lat": "38.26184611",
            "lng": "140.88177360"
        },
        {
            "name": "寿司本",
            "type": "和食・寿司",
            "area": "仙台市青葉区のお店",
            "address": " 仙台市青葉区 一番町2-4-18",
            "postal_code": "980-0811",
            "tel": "022-222-4321",
            "lat": "38.25920703",
            "lng": "140.87282478"
        },
        {
            "name": "すし幸村",
            "type": "和食・寿司",
            "area": "仙台市青葉区のお店",
            "address": " 仙台市青葉区 国分町2-12-4セブンビレッジビル１階",
            "postal_code": "980-0803",
            "tel": "022-222-1050",
            "lat": "38.26457306",
            "lng": "140.86872489"
        },
        {
            "name": "仙台　ｕｍｅ",
            "type": "和食・寿司",
            "area": "仙台市青葉区のお店",
            "address": "宮城県仙台市青葉区国分町2-12-23小川原ビル1階",
            "postal_code": "980-0803",
            "tel": "022-748-6697",
            "lat": "38.26480636",
            "lng": "140.86837214"
        },
        {
            "name": "仙台　なだ万",
            "type": "和食・寿司",
            "area": "仙台市青葉区のお店",
            "address": "宮城県仙台市青葉区中央4-6-1中央4-6-1",
            "postal_code": "980-0021",
            "tel": "022-266-7977",
            "lat": "38.25681579",
            "lng": "140.87781051"
        },
        {
            "name": "仙台　ゆう治",
            "type": "和食・寿司",
            "area": "仙台市青葉区のお店",
            "address": " 仙台市青葉区 国分町2-2-11オパール仙台ビル２階",
            "postal_code": "980-0803",
            "tel": "022-217-3915",
            "lat": "38.26219827",
            "lng": "140.86858616"
        },
        {
            "name": "仙臺権太",
            "type": "和食・寿司",
            "area": "仙台市青葉区のお店",
            "address": " 仙台市青葉区 国分町2-14-25山国ビル３Ｆ",
            "postal_code": "980-0803",
            "tel": "022-265-6871",
            "lat": "38.26537577",
            "lng": "140.86866929"
        },
        {
            "name": "仙台地物屋炉だん",
            "type": "和食・寿司",
            "area": "仙台市青葉区のお店",
            "address": " 仙台市青葉区 国分町2-10-33USビル19　6階",
            "postal_code": "980-0803",
            "tel": "022-265-9542",
            "lat": "38.26393428",
            "lng": "140.87004422"
        },
        {
            "name": "仙台平禄　一番町店",
            "type": "和食・寿司",
            "area": "仙台市青葉区のお店",
            "address": " 仙台市青葉区 一番町4-5-25",
            "postal_code": "980-0811",
            "tel": "022-225-8685",
            "lat": "38.26465925",
            "lng": "140.87081076"
        },
        {
            "name": "仙台平禄　八幡町店",
            "type": "和食・寿司",
            "area": "仙台市青葉区のお店",
            "address": " 仙台市青葉区 八幡3-1-50レキシントンプラザ八幡内",
            "postal_code": "980-0871",
            "tel": "022-217-4511",
            "lat": "38.26927739",
            "lng": "140.84933796"
        },
        {
            "name": "仙台平禄　政岡通店",
            "type": "和食・寿司",
            "area": "仙台市青葉区のお店",
            "address": " 仙台市青葉区 中央1-8-9",
            "postal_code": "980-0021",
            "tel": "022-222-8335",
            "lat": "38.26160714",
            "lng": "140.87965442"
        },
        {
            "name": "仙台料理ほんま",
            "type": "和食・寿司",
            "area": "仙台市青葉区のお店",
            "address": " 仙台市青葉区 国分町2-9-17Ｊ.PRADAビル地階",
            "postal_code": "980-0803",
            "tel": "022-225-0125",
            "lat": "38.26397587",
            "lng": "140.86806667"
        },
        {
            "name": "仙令鮨　仙台駅店",
            "type": "和食・寿司",
            "area": "仙台市青葉区のお店",
            "address": " 仙台市青葉区 中央1-1-1JR仙台駅１階",
            "postal_code": "980-0021",
            "tel": "022-224-0170",
            "lat": "38.26028515",
            "lng": "140.88224312"
        },
        {
            "name": "全国各地の銘酒が揃う店 鈴～Rin～",
            "type": "和食・寿司",
            "area": "仙台市青葉区のお店",
            "address": " 仙台市青葉区 一番町3-8-14鈴喜ビル地下１階",
            "postal_code": "980-0811",
            "tel": "022-261-6051",
            "lat": "38.26136514",
            "lng": "140.87201917"
        },
        {
            "name": "総本家やまこう",
            "type": "和食・寿司",
            "area": "仙台市青葉区のお店",
            "address": " 仙台市青葉区 国分町2-5-3ゴロク壱番館２階",
            "postal_code": "980-0803",
            "tel": "022-215-0045",
            "lat": "38.26282325",
            "lng": "140.86934993"
        },
        {
            "name": "蕎麦酒房　きらく",
            "type": "和食・寿司",
            "area": "仙台市青葉区のお店",
            "address": "仙台市青葉区本町1-13-8シャンティー大谷1F",
            "postal_code": "980-9800",
            "tel": "022-261-7001",
            "lat": "38.26700386",
            "lng": "140.87855967"
        },
        {
            "name": "そば食堂やぶ信",
            "type": "和食・寿司",
            "area": "仙台市青葉区のお店",
            "address": " 仙台市青葉区 一番町3-6-13プラザおおまちビル地下1階",
            "postal_code": "980-0811",
            "tel": "022-265-6469",
            "lat": "38.26106800",
            "lng": "140.87311074"
        },
        {
            "name": "そば処丸松　国分町店",
            "type": "和食・寿司",
            "area": "仙台市青葉区のお店",
            "address": " 仙台市青葉区 国分町2-12-1",
            "postal_code": "980-0803",
            "tel": "022-225-1030",
            "lat": "38.26463141",
            "lng": "140.86909984"
        },
        {
            "name": "そば処丸松　中央店",
            "type": "和食・寿司",
            "area": "仙台市青葉区のお店",
            "address": " 仙台市青葉区 中央2-6-34成田9-2-9",
            "postal_code": "980-0021",
            "tel": "022-263-1388",
            "lat": "38.26211259",
            "lng": "140.87824898"
        },
        {
            "name": "多賀寿司",
            "type": "和食・寿司",
            "area": "仙台市青葉区のお店",
            "address": "宮城県仙台市青葉区中江1-27-18",
            "postal_code": "980-0001",
            "tel": "022-264-2424",
            "lat": "38.27315401",
            "lng": "140.89485182"
        },
        {
            "name": "谷風",
            "type": "和食・寿司",
            "area": "仙台市青葉区のお店",
            "address": " 仙台市青葉区 国分町2-1-23谷風ビル",
            "postal_code": "980-0803",
            "tel": "022-222-5824",
            "lat": "38.26314548",
            "lng": "140.87033035"
        },
        {
            "name": "たんや善治郎　北根店",
            "type": "和食・寿司",
            "area": "仙台市青葉区のお店",
            "address": " 仙台市青葉区 北根2-8-3",
            "postal_code": "981-0902",
            "tel": "022-341-5862",
            "lat": "38.29785893",
            "lng": "140.87574905"
        },
        {
            "name": "たんや善治郎　牛たん通り店",
            "type": "和食・寿司",
            "area": "仙台市青葉区のお店",
            "address": " 仙台市青葉区 中央1-1-1仙台駅3階牛たん通り",
            "postal_code": "980-0021",
            "tel": "022-722-5081",
            "lat": "38.26028515",
            "lng": "140.88224312"
        },
        {
            "name": "たんや善治郎　仙台駅駅前本店",
            "type": "和食・寿司",
            "area": "仙台市青葉区のお店",
            "address": " 仙台市青葉区 中央1-8-38AKビル3階",
            "postal_code": "980-0021",
            "tel": "022-723-1877",
            "lat": "38.26198771",
            "lng": "140.88052651"
        },
        {
            "name": "大観楼",
            "type": "和食・寿司",
            "area": "仙台市青葉区のお店",
            "address": "宮城県仙台市青葉区一番町3-9-5",
            "postal_code": "980-0811",
            "tel": "022-221-7575",
            "lat": "38.26100681",
            "lng": "140.87129983"
        },
        {
            "name": "だし茶漬けえん　エスパル仙台店",
            "type": "和食・寿司",
            "area": "仙台市青葉区のお店",
            "address": " 仙台市青葉区 中央1-1-1",
            "postal_code": "980-8477",
            "tel": "022-352-4596",
            "lat": "38.26028515",
            "lng": "140.88224312"
        },
        {
            "name": "DaTe　cafe　Order",
            "type": "和食・寿司",
            "area": "仙台市青葉区のお店",
            "address": " 仙台市青葉区 中央1-1-1JR仙台駅　２階",
            "postal_code": "980-0021",
            "tel": "022-302-5291",
            "lat": "38.26028515",
            "lng": "140.88224312"
        },
        {
            "name": "伊達の牛たん本舗1F　エスパル仙台店",
            "type": "和食・寿司",
            "area": "仙台市青葉区のお店",
            "address": " 仙台市青葉区 中央1-1-1",
            "postal_code": "980-8477",
            "tel": "022-716-5678",
            "lat": "38.26028515",
            "lng": "140.88224312"
        },
        {
            "name": "伊達の牛たん本舗仙台駅地階　エスパル仙台店",
            "type": "和食・寿司",
            "area": "仙台市青葉区のお店",
            "address": " 仙台市青葉区 中央1-1-1",
            "postal_code": "980-8477",
            "tel": "022-722-8356",
            "lat": "38.26028515",
            "lng": "140.88224312"
        },
        {
            "name": "月の暦",
            "type": "和食・寿司",
            "area": "仙台市青葉区のお店",
            "address": " 仙台市青葉区 国分町2-2-2東芝仙台ビルＢ１",
            "postal_code": "980-0803",
            "tel": "022-796-8136",
            "lat": "38.26246217",
            "lng": "140.86954437"
        },
        {
            "name": "てしごと是歩",
            "type": "和食・寿司",
            "area": "仙台市青葉区のお店",
            "address": " 仙台市青葉区 一番町4-4-21",
            "postal_code": "980-0811",
            "tel": "022-726-3233",
            "lat": "38.26455646",
            "lng": "140.87015528"
        },
        {
            "name": "手ぶちうどん吉平",
            "type": "和食・寿司",
            "area": "仙台市青葉区のお店",
            "address": " 仙台市青葉区 川平3-46-11",
            "postal_code": "981-0954",
            "tel": "022-719-4532",
            "lat": "38.30565330",
            "lng": "140.83454820"
        },
        {
            "name": "天繁イーストワン店",
            "type": "和食・寿司",
            "area": "仙台市青葉区のお店",
            "address": " 仙台市青葉区 一番町1-1-5ドミトリー仙台一番町１階",
            "postal_code": "980-0811",
            "tel": "022-262-2591",
            "lat": "38.25806836",
            "lng": "140.87554956"
        },
        {
            "name": "伝説のすた丼屋　仙台名掛丁店",
            "type": "和食・寿司",
            "area": "仙台市青葉区のお店",
            "address": " 仙台市青葉区 中央2-6-36中央レントビル1F",
            "postal_code": "980-0021",
            "tel": "022-226-8483",
            "lat": "38.26196816",
            "lng": "140.87834065"
        },
        {
            "name": "伝八寿司",
            "type": "和食・寿司",
            "area": "仙台市青葉区のお店",
            "address": " 仙台市青葉区 国分町2-2-23レモンシャトービル1F",
            "postal_code": "980-0803",
            "tel": "022-261-8733",
            "lat": "38.26258715",
            "lng": "140.86918885"
        },
        {
            "name": "桃水",
            "type": "和食・寿司",
            "area": "仙台市青葉区のお店",
            "address": " 仙台市青葉区 国分町2-7-7あんでるせんビル1階",
            "postal_code": "980-0803",
            "tel": "022-222-1862",
            "lat": "38.26322040",
            "lng": "140.86839723"
        },
        {
            "name": "友寿司",
            "type": "和食・寿司",
            "area": "仙台市青葉区のお店",
            "address": " 仙台市青葉区 宮町3-5-19",
            "postal_code": "980-0004",
            "tel": "022-223-1768",
            "lat": "38.27173149",
            "lng": "140.88383638"
        },
        {
            "name": "とらふぐ専門　玄品　仙台一番町",
            "type": "和食・寿司",
            "area": "仙台市青葉区のお店",
            "address": " 仙台市青葉区 一番町4-2-10仙台東映プラザ３階",
            "postal_code": "980-0811",
            "tel": "022-398-5029",
            "lat": "38.26275389",
            "lng": "140.87153580"
        },
        {
            "name": "鳥善鳥ふじ",
            "type": "和食・寿司",
            "area": "仙台市青葉区のお店",
            "address": " 仙台市青葉区 国分町2-10-35三笠ビル2階",
            "postal_code": "980-0803",
            "tel": "022-263-4851",
            "lat": "38.26378708",
            "lng": "140.87013867"
        },
        {
            "name": "とんかつ新宿さぼてん　エスパル仙台店",
            "type": "和食・寿司",
            "area": "仙台市青葉区のお店",
            "address": " 仙台市青葉区 中央1-1-1",
            "postal_code": "980-8477",
            "tel": "022-267-4083",
            "lat": "38.26028515",
            "lng": "140.88224312"
        },
        {
            "name": "とんかつ処岩松",
            "type": "和食・寿司",
            "area": "仙台市青葉区のお店",
            "address": " 仙台市青葉区 大町2-13-14とんかつ処岩松",
            "postal_code": "980-0804",
            "tel": "022-222-8366",
            "lat": "38.26112056",
            "lng": "140.86763633"
        },
        {
            "name": "とんかつと豚肉料理 平田牧場 仙台ファーストタワー店",
            "type": "和食・寿司",
            "area": "仙台市青葉区のお店",
            "address": " 仙台市青葉区 一番町3-1-1仙台ファーストタワーアトリウム棟2F",
            "postal_code": "980-0811",
            "tel": "022-399-8029",
            "lat": "38.26049587",
            "lng": "140.87422732"
        },
        {
            "name": "とんかつ福助",
            "type": "和食・寿司",
            "area": "仙台市青葉区のお店",
            "address": " 仙台市青葉区 台原1-7-40メガドンキホーテ二階",
            "postal_code": "981-0911",
            "tel": "022-275-4931",
            "lat": "38.28249106",
            "lng": "140.87315076"
        },
        {
            "name": "とんかつまつを",
            "type": "和食・寿司",
            "area": "仙台市青葉区のお店",
            "address": " 仙台市青葉区 一番町1-1-8青葉パークビル地階",
            "postal_code": "980-0811",
            "tel": "022-227-8539",
            "lat": "38.25792393",
            "lng": "140.87575232"
        },
        {
            "name": "どん亭",
            "type": "和食・寿司",
            "area": "仙台市青葉区のお店",
            "address": " 仙台市青葉区 大町2-14-14",
            "postal_code": "980-0804",
            "tel": "022-222-7807",
            "lat": "38.26112328",
            "lng": "140.86599206"
        },
        {
            "name": "にぎりの徳兵衛 仙台駅前店",
            "type": "和食・寿司",
            "area": "仙台市青葉区のお店",
            "address": " 仙台市青葉区 中央3-1-24荘銀ビル2Ｆ",
            "postal_code": "980-0021",
            "tel": "022-716-5633",
            "lat": "38.26049610",
            "lng": "140.87904901"
        },
        {
            "name": "日本酒と旨い魚　みつくら",
            "type": "和食・寿司",
            "area": "仙台市青葉区のお店",
            "address": " 仙台市青葉区 一番町4-5-44",
            "postal_code": "980-0811",
            "tel": "022-397-7418",
            "lat": "38.26362604",
            "lng": "140.87162740"
        },
        {
            "name": "日本料理　醇泉",
            "type": "和食・寿司",
            "area": "仙台市青葉区のお店",
            "address": " 仙台市青葉区 上杉2-1-50仙台勝山館1階",
            "postal_code": "980-0011",
            "tel": "022-213-9155",
            "lat": "38.27386130",
            "lng": "140.87285429"
        },
        {
            "name": "日本料理「隨縁亭」ホテルモントレ仙台",
            "type": "和食・寿司",
            "area": "仙台市青葉区のお店",
            "address": " 仙台市青葉区 中央4-1-8ホテルモントレ仙台",
            "postal_code": "980-0021",
            "tel": "022-265-5504",
            "lat": "38.25808802",
            "lng": "140.88041014"
        },
        {
            "name": "日本料理　華の縁",
            "type": "和食・寿司",
            "area": "仙台市青葉区のお店",
            "address": " 仙台市青葉区 中央3-5-30アエル2階",
            "postal_code": "980-0021",
            "tel": "022-796-3663",
            "lat": "38.25975999",
            "lng": "140.87782420"
        },
        {
            "name": "日本料理　花はん",
            "type": "和食・寿司",
            "area": "仙台市青葉区のお店",
            "address": " 仙台市青葉区 国分町2-14-18定禅寺パークビル地階",
            "postal_code": "980-0803",
            "tel": "022-215-8780",
            "lat": "38.26515631",
            "lng": "140.86783329"
        },
        {
            "name": "日本料理みず本",
            "type": "和食・寿司",
            "area": "仙台市青葉区のお店",
            "address": " 仙台市青葉区 大町2-5-12第三上村ビル1階",
            "postal_code": "980-0804",
            "tel": "022-226-7924",
            "lat": "38.25963178",
            "lng": "140.86692260"
        },
        {
            "name": "花の膳　荒巻中山店",
            "type": "和食・寿司",
            "area": "仙台市青葉区のお店",
            "address": " 仙台市青葉区 荒巻本沢2-4-5",
            "postal_code": "981-0966",
            "tel": "022-303-3553",
            "lat": "38.28852519",
            "lng": "140.85090357"
        },
        {
            "name": "花はん別館　椿",
            "type": "和食・寿司",
            "area": "仙台市青葉区のお店",
            "address": " 仙台市青葉区 国分町2-14-18定禅寺パークビル地階",
            "postal_code": "980-0803",
            "tel": "022-261-7077",
            "lat": "38.26515631",
            "lng": "140.86783329"
        },
        {
            "name": "花祭り朝市店",
            "type": "和食・寿司",
            "area": "仙台市青葉区のお店",
            "address": " 仙台市青葉区 中央3-8-5新仙台駅前ビルB1F",
            "postal_code": "980-0021",
            "tel": "022-397-6021",
            "lat": "38.25881011",
            "lng": "140.87864084"
        },
        {
            "name": "はやとみ",
            "type": "和食・寿司",
            "area": "仙台市青葉区のお店",
            "address": " 仙台市青葉区 大倉字上下7",
            "postal_code": "989-3213",
            "tel": "022-393-2146",
            "lat": "38.36324204",
            "lng": "140.66992672"
        },
        {
            "name": "Barn　金八",
            "type": "和食・寿司",
            "area": "仙台市青葉区のお店",
            "address": " 仙台市青葉区 一番町2-3-30",
            "postal_code": "980-0811",
            "tel": "022-266-5626",
            "lat": "38.25874042",
            "lng": "140.87334975"
        },
        {
            "name": "ひっつみ庵　エスパル仙台店",
            "type": "和食・寿司",
            "area": "仙台市青葉区のお店",
            "address": " 仙台市青葉区 中央1-1-1",
            "postal_code": "980-8477",
            "tel": "022-267-4089",
            "lat": "38.26028515",
            "lng": "140.88224312"
        },
        {
            "name": "ＢＩＳＵＩはんぞう",
            "type": "和食・寿司",
            "area": "仙台市青葉区のお店",
            "address": "宮城県仙台市青葉区国分町2-14-25ホテル定禅寺2階",
            "postal_code": "980-0803",
            "tel": "022-263-8571",
            "lat": "38.26537577",
            "lng": "140.86866929"
        },
        {
            "name": "美味求心  魚とや",
            "type": "和食・寿司",
            "area": "仙台市青葉区のお店",
            "address": " 仙台市青葉区 国分町2-9-10南條ビル1階",
            "postal_code": "980-0803",
            "tel": "022-261-5557",
            "lat": "38.26371201",
            "lng": "140.86823056"
        },
        {
            "name": "富貴寿司",
            "type": "和食・寿司",
            "area": "仙台市青葉区のお店",
            "address": " 仙台市青葉区 一番町4-4-6虎横ビル1階",
            "postal_code": "980-0811",
            "tel": "022-222-6157",
            "lat": "38.26365099",
            "lng": "140.87046364"
        },
        {
            "name": "福寿司",
            "type": "和食・寿司",
            "area": "仙台市青葉区のお店",
            "address": " 仙台市青葉区 一番町4-3-31",
            "postal_code": "980-0811",
            "tel": "022-222-0668",
            "lat": "38.26261777",
            "lng": "140.87092477"
        },
        {
            "name": "福来寿司",
            "type": "和食・寿司",
            "area": "仙台市青葉区のお店",
            "address": "宮城県仙台市青葉区旭ケ丘4-29-15",
            "postal_code": "981-0904",
            "tel": "022-272-5700",
            "lat": "38.30028422",
            "lng": "140.88518359"
        },
        {
            "name": "平禄寿司　愛子店",
            "type": "和食・寿司",
            "area": "仙台市青葉区のお店",
            "address": " 仙台市青葉区 栗生7-12-1",
            "postal_code": "989-3122",
            "tel": "022-391-0577",
            "lat": "38.26816776",
            "lng": "140.77666881"
        },
        {
            "name": "平禄寿司　クリスロード店",
            "type": "和食・寿司",
            "area": "仙台市青葉区のお店",
            "address": " 仙台市青葉区 中央2-2-26",
            "postal_code": "980-0021",
            "tel": "022-267-7766",
            "lat": "38.26127371",
            "lng": "140.87685475"
        },
        {
            "name": "平禄寿司　仙台青葉広瀬通店",
            "type": "和食・寿司",
            "area": "仙台市青葉区のお店",
            "address": " 仙台市青葉区 一番町4-2-3ひろせ庵ビル1F",
            "postal_code": "980-0811",
            "tel": "022-722-2635",
            "lat": "38.26283168",
            "lng": "140.87189687"
        },
        {
            "name": "別館すが井",
            "type": "和食・寿司",
            "area": "仙台市青葉区のお店",
            "address": " 仙台市青葉区 中央1-7-6西原ビル5階",
            "postal_code": "980-0021",
            "tel": "022-265-1963",
            "lat": "38.26220433",
            "lng": "140.87987379"
        },
        {
            "name": "ホテルメトロポリタン仙台　日本料理・鉄板焼「はや瀬」",
            "type": "和食・寿司",
            "area": "仙台市青葉区のお店",
            "address": " 仙台市青葉区 中央1-1-1",
            "postal_code": "980-8477",
            "tel": "022-268-2525",
            "lat": "38.26028515",
            "lng": "140.88224312"
        },
        {
            "name": "南三陸金華山　片倉うに屋",
            "type": "和食・寿司",
            "area": "仙台市青葉区のお店",
            "address": "宮城県仙台市青葉区上杉1-4-13アソルティ上杉1階",
            "postal_code": "980-0011",
            "tel": "022-302-7324",
            "lat": "38.26968937",
            "lng": "140.87092708"
        },
        {
            "name": "みのむし",
            "type": "和食・寿司",
            "area": "仙台市青葉区のお店",
            "address": "宮城県仙台市青葉区中央4-7-25ライオンズマンション中央1階",
            "postal_code": "980-0021",
            "tel": "022-266-0310",
            "lat": "38.25702415",
            "lng": "140.87890760"
        },
        {
            "name": "みょうがや",
            "type": "和食・寿司",
            "area": "仙台市青葉区のお店",
            "address": " 仙台市青葉区 国分町3-3-28",
            "postal_code": "980-0803",
            "tel": "022-214-2688",
            "lat": "38.26615625",
            "lng": "140.86860536"
        },
        {
            "name": "飯魚酒肴　松島　エスパル仙台店",
            "type": "和食・寿司",
            "area": "仙台市青葉区のお店",
            "address": " 仙台市青葉区 中央1-1-1",
            "postal_code": "980-8477",
            "tel": "022-267-4088",
            "lat": "38.26028515",
            "lng": "140.88224312"
        },
        {
            "name": "柳町銀乃",
            "type": "和食・寿司",
            "area": "仙台市青葉区のお店",
            "address": " 仙台市青葉区 一番町1-11-35フローリッシュ柳町1F",
            "postal_code": "980-0811",
            "tel": "022-393-7765",
            "lat": "38.25709062",
            "lng": "140.87459972"
        },
        {
            "name": "山形蕎麦と炙りの焔蔵　一番町店",
            "type": "和食・寿司",
            "area": "仙台市青葉区のお店",
            "address": " 仙台市青葉区 一番町3-1-16ＰＡＲＭ－ＣＩＴＹ131ビル　ＢＦ1",
            "postal_code": "980-0811",
            "tel": "022-399-9139",
            "lat": "38.26063749",
            "lng": "140.87341351"
        },
        {
            "name": "やま新寿司",
            "type": "和食・寿司",
            "area": "仙台市青葉区のお店",
            "address": " 仙台市青葉区 愛子東1-6-17",
            "postal_code": "989-3127",
            "tel": "022-392-3176",
            "lat": "38.27303660",
            "lng": "140.77788243"
        },
        {
            "name": "結月庵　仙台駅エスパル店",
            "type": "和食・寿司",
            "area": "仙台市青葉区のお店",
            "address": " 仙台市青葉区 中央1-1-1仙台駅エスパルB1F",
            "postal_code": "980-0021",
            "tel": "022-227-8593",
            "lat": "38.26028515",
            "lng": "140.88224312"
        },
        {
            "name": "有限会社勘助",
            "type": "和食・寿司",
            "area": "仙台市青葉区のお店",
            "address": " 仙台市青葉区 中央4-1-3",
            "postal_code": "980-0021",
            "tel": "022-266-6166",
            "lat": "38.25859075",
            "lng": "140.88012125"
        },
        {
            "name": "有限会社成巧寿司",
            "type": "和食・寿司",
            "area": "仙台市青葉区のお店",
            "address": " 仙台市青葉区 宮町4-7-30",
            "postal_code": "980-0004",
            "tel": "022-263-6281",
            "lat": "38.27604508",
            "lng": "140.88582186"
        },
        {
            "name": "与五郎寿司本店",
            "type": "和食・寿司",
            "area": "仙台市青葉区のお店",
            "address": " 仙台市青葉区 国分町2-15-20与五郎ビル1階",
            "postal_code": "980-0803",
            "tel": "022-215-4224",
            "lat": "38.26537580",
            "lng": "140.86959141"
        },
        {
            "name": "吉野家　仙台イービーンズ店",
            "type": "和食・寿司",
            "area": "仙台市青葉区のお店",
            "address": " 仙台市青葉区 中央4-1-1",
            "postal_code": "980-0021",
            "tel": "022-302-4114",
            "lat": "38.25862962",
            "lng": "140.87973240"
        },
        {
            "name": "吉野家　仙台駅西口店",
            "type": "和食・寿司",
            "area": "仙台市青葉区のお店",
            "address": " 仙台市青葉区 中央1-7-1第一志ら梅ビル１Ｆ",
            "postal_code": "980-0021",
            "tel": "022-217-9039",
            "lat": "38.26221547",
            "lng": "140.88049316"
        },
        {
            "name": "吉野家　仙台北目町通店",
            "type": "和食・寿司",
            "area": "仙台市青葉区のお店",
            "address": " 仙台市青葉区 中央4-9-13",
            "postal_code": "980-0021",
            "tel": "022-716-3818",
            "lat": "38.25689092",
            "lng": "140.88072686"
        },
        {
            "name": "吉野家　仙台定禅寺通り店",
            "type": "和食・寿司",
            "area": "仙台市青葉区のお店",
            "address": " 仙台市青葉区 国分町3-1-4",
            "postal_code": "980-0803",
            "tel": "022-722-1877",
            "lat": "38.26616185",
            "lng": "140.86974689"
        },
        {
            "name": "吉野家　仙台広瀬通り店",
            "type": "和食・寿司",
            "area": "仙台市青葉区のお店",
            "address": " 仙台市青葉区 本町2-1-8第一広瀬ビル１Ｆ",
            "postal_code": "980-0014",
            "tel": "022-714-8825",
            "lat": "38.26325410",
            "lng": "140.87693793"
        },
        {
            "name": "吉野家　仙台藤松店",
            "type": "和食・寿司",
            "area": "仙台市青葉区のお店",
            "address": " 仙台市青葉区 藤松2-10",
            "postal_code": "981-0921",
            "tel": "022-728-8320",
            "lat": "38.29641734",
            "lng": "140.87409386"
        },
        {
            "name": "夜ノ焼魚ちょな",
            "type": "和食・寿司",
            "area": "仙台市青葉区のお店",
            "address": " 仙台市青葉区 一番町4-1-1仙台セントラルビル地下1階",
            "postal_code": "980-0811",
            "tel": "022-395-7116",
            "lat": "38.26307337",
            "lng": "140.87289951"
        },
        {
            "name": "楽庵　うめ小路",
            "type": "和食・寿司",
            "area": "仙台市青葉区のお店",
            "address": " 仙台市青葉区 中央1-8-8ホリエビル１F",
            "postal_code": "980-0021",
            "tel": "022-714-6063",
            "lat": "38.26164326",
            "lng": "140.87974607"
        },
        {
            "name": "らら亭　定禅寺通り店",
            "type": "和食・寿司",
            "area": "仙台市青葉区のお店",
            "address": " 仙台市青葉区 国分町3-2-5",
            "postal_code": "980-0803",
            "tel": "022-797-5165",
            "lat": "38.26598406",
            "lng": "140.86893589"
        },
        {
            "name": "漁亭　浜や　仙台エスパル店",
            "type": "和食・寿司",
            "area": "仙台市青葉区のお店",
            "address": " 仙台市青葉区 中央1-1-1エスパル地下1階",
            "postal_code": "980-0021",
            "tel": "022-266-6651",
            "lat": "38.26028515",
            "lng": "140.88224312"
        },
        {
            "name": "露庵　うめ治",
            "type": "和食・寿司",
            "area": "仙台市青葉区のお店",
            "address": " 仙台市青葉区 中央1-6-23鹿島ビル１F",
            "postal_code": "980-0021",
            "tel": "022-722-3720",
            "lat": "38.26277367",
            "lng": "140.87866555"
        },
        {
            "name": "ワイン・寿司・天ぷら　魚が肴",
            "type": "和食・寿司",
            "area": "仙台市青葉区のお店",
            "address": " 仙台市青葉区 中央3-7-5仙台パルコ2　1階",
            "postal_code": "980-0021",
            "tel": "022-797-4035",
            "lat": "38.25897402",
            "lng": "140.87956017"
        },
        {
            "name": "ワインと肴と赤酢のお寿司　魚が肴",
            "type": "和食・寿司",
            "area": "仙台市青葉区のお店",
            "address": " 仙台市青葉区 一番町4-3-5都ビル1階",
            "postal_code": "980-0811",
            "tel": "022-211-0085",
            "lat": "38.26255665",
            "lng": "140.87073035"
        },
        {
            "name": "和菜しば田",
            "type": "和食・寿司",
            "area": "仙台市青葉区のお店",
            "address": " 仙台市青葉区 二日町10-28伊澤ビル1F",
            "postal_code": "980-0802",
            "tel": "022-264-1268",
            "lat": "38.27051133",
            "lng": "140.86713306"
        },
        {
            "name": "和食　波奈　仙台店",
            "type": "和食・寿司",
            "area": "仙台市青葉区のお店",
            "address": " 仙台市青葉区 中央2-1-1仙台東宝ビルB1階",
            "postal_code": "980-0021",
            "tel": "022-217-1787",
            "lat": "38.26116825",
            "lng": "140.87865456"
        },
        {
            "name": "和食十喜",
            "type": "和食・寿司",
            "area": "仙台市青葉区のお店",
            "address": " 仙台市青葉区 本町1-2-5第三志ら梅ビル1階",
            "postal_code": "980-0014",
            "tel": "022-224-5102",
            "lat": "38.26332638",
            "lng": "140.87827944"
        },
        {
            "name": "わしょくと天ぷら  ぜふ",
            "type": "和食・寿司",
            "area": "仙台市青葉区のお店",
            "address": " 仙台市青葉区 国分町2-1-20うめはらビル2階",
            "postal_code": "980-0803",
            "tel": "022-268-8485",
            "lat": "38.26333434",
            "lng": "140.87021369"
        },
        {
            "name": "和食処大ばん",
            "type": "和食・寿司",
            "area": "仙台市青葉区のお店",
            "address": " 仙台市青葉区 中央1-7-6西原ビル地下1階",
            "postal_code": "980-0021",
            "tel": "022-262-1746",
            "lat": "38.26220433",
            "lng": "140.87987379"
        },
        {
            "name": "和食処  割烹  茶々",
            "type": "和食・寿司",
            "area": "仙台市青葉区のお店",
            "address": " 仙台市青葉区 落合5-26-24",
            "postal_code": "989-3126",
            "tel": "022-391-8355",
            "lat": "38.27273964",
            "lng": "140.78439592"
        },
        {
            "name": "わしょく令寿",
            "type": "和食・寿司",
            "area": "仙台市青葉区のお店",
            "address": " 仙台市青葉区 国分町2-10-6虎横協和ビル1階",
            "postal_code": "980-0803",
            "tel": "022-721-0733",
            "lat": "38.26348432",
            "lng": "140.86989983"
        },
        {
            "name": "和風レストランまるまつ　愛子店",
            "type": "和食・寿司",
            "area": "仙台市青葉区のお店",
            "address": " 仙台市青葉区 栗生7-1-5",
            "postal_code": "989-3122",
            "tel": "022-391-8838",
            "lat": "38.26779562",
            "lng": "140.77759098"
        },
        {
            "name": "和風レストランまるまつ　一番町店",
            "type": "和食・寿司",
            "area": "仙台市青葉区のお店",
            "address": " 仙台市青葉区 一番町3-4-26よろづ園ビル２階",
            "postal_code": "980-0811",
            "tel": "022-714-3722",
            "lat": "38.26088183",
            "lng": "140.87158314"
        },
        {
            "name": "和風レストランまるまつ　南吉成店",
            "type": "和食・寿司",
            "area": "仙台市青葉区のお店",
            "address": " 仙台市青葉区 南吉成2-17-4",
            "postal_code": "989-3204",
            "tel": "022-719-3777",
            "lat": "38.28535817",
            "lng": "140.81779293"
        },
        {
            "name": "わらやき屋 仙台国分町店",
            "type": "和食・寿司",
            "area": "仙台市青葉区のお店",
            "address": " 仙台市青葉区 国分町2-1-3エーラクフレンディアビル1F",
            "postal_code": "980-0803",
            "tel": "022-797-8245",
            "lat": "38.26247053",
            "lng": "140.87023319"
        },
        {
            "name": "あじ酒房五幸",
            "type": "洋食",
            "area": "仙台市青葉区のお店",
            "address": "宮城県仙台市青葉区一番町2-8-9ホテルパールシティ仙台2階",
            "postal_code": "980-0811",
            "tel": "022-711-8630",
            "lat": "38.25847645",
            "lng": "140.87088892"
        },
        {
            "name": "アメリカングリル",
            "type": "洋食",
            "area": "仙台市青葉区のお店",
            "address": " 仙台市青葉区 一番町4-7-17",
            "postal_code": "980-0811",
            "tel": "022-223-2045",
            "lat": "38.26482872",
            "lng": "140.87168287"
        },
        {
            "name": "いきなりステーキ仙台店",
            "type": "洋食",
            "area": "仙台市青葉区のお店",
            "address": " 仙台市青葉区 中央1-8-25",
            "postal_code": "980-0021",
            "tel": "022-393-6629",
            "lat": "38.26176547",
            "lng": "140.87967385"
        },
        {
            "name": "いきなりステーキ仙台吉成台",
            "type": "洋食",
            "area": "仙台市青葉区のお店",
            "address": " 仙台市青葉区 吉成台2-42-180",
            "postal_code": "989-3206",
            "tel": "022-343-6992",
            "lat": "38.29486267",
            "lng": "140.82299178"
        },
        {
            "name": "欧風食堂HIROSE",
            "type": "洋食",
            "area": "仙台市青葉区のお店",
            "address": " 仙台市青葉区 広瀬町3-382Ｆ",
            "postal_code": "980-0873",
            "tel": "022-266-7388",
            "lat": "38.27007766",
            "lng": "140.85906189"
        },
        {
            "name": "お粥専門店上海邨",
            "type": "洋食",
            "area": "仙台市青葉区のお店",
            "address": "宮城県仙台市青葉区国分町2-9-16クレーネ日泉ビル101",
            "postal_code": "980-0803",
            "tel": "022-261-9818",
            "lat": "38.26389810",
            "lng": "140.86810556"
        },
        {
            "name": "ＯＭＳオムライスとパンケーキ",
            "type": "洋食",
            "area": "仙台市青葉区のお店",
            "address": "宮城県仙台市青葉区中央1-2仙台パルコ9階",
            "postal_code": "980-8484",
            "tel": "022-774-8217",
            "lat": "38.26184611",
            "lng": "140.88177360"
        },
        {
            "name": "カフェパリンカ ガレリア",
            "type": "洋食",
            "area": "仙台市青葉区のお店",
            "address": " 仙台市青葉区 霊屋下19-10-102第1伊藤ビル1階",
            "postal_code": "980-0814",
            "tel": "022-213-7654",
            "lat": "38.25351011",
            "lng": "140.86676183"
        },
        {
            "name": "（株）仙台三越　三越フードガーデン　スパゲッティ　マルハチ",
            "type": "洋食",
            "area": "仙台市青葉区のお店",
            "address": " 仙台市青葉区 一番町4-8-15定禅寺通り館　地下1階",
            "postal_code": "980-0811",
            "tel": "022-225-7111",
            "lat": "38.26512311",
            "lng": "140.87106625"
        },
        {
            "name": "鎌倉パスタ　仙台パルコ店",
            "type": "洋食",
            "area": "仙台市青葉区のお店",
            "address": " 仙台市青葉区 中央1-2-3",
            "postal_code": "980-8484",
            "tel": "022-216-5309",
            "lat": "38.26205442",
            "lng": "140.88165693"
        },
        {
            "name": "鎌倉パスタ　仙台マーブルロード店",
            "type": "洋食",
            "area": "仙台市青葉区のお店",
            "address": " 仙台市青葉区 一番町3-2-24",
            "postal_code": "980-0811",
            "tel": "022-212-6309",
            "lat": "38.26044860",
            "lng": "140.87301912"
        },
        {
            "name": "グリル赤井",
            "type": "洋食",
            "area": "仙台市青葉区のお店",
            "address": " 仙台市青葉区 本町1-12-12GMビル",
            "postal_code": "980-0014",
            "tel": "022-262-8942",
            "lat": "38.26650112",
            "lng": "140.87849861"
        },
        {
            "name": "グリルみのる",
            "type": "洋食",
            "area": "仙台市青葉区のお店",
            "address": " 仙台市青葉区中央1-1-1エスパル仙台　東館3階",
            "postal_code": "980-8487",
            "tel": "022-742-1711",
            "lat": "38.26028515",
            "lng": "140.88224312"
        },
        {
            "name": "すてーきはうす伊勢屋　エスパル仙台店",
            "type": "洋食",
            "area": "仙台市青葉区のお店",
            "address": " 仙台市青葉区 中央1-1-1",
            "postal_code": "980-8477",
            "tel": "022-262-0012",
            "lat": "38.26028515",
            "lng": "140.88224312"
        },
        {
            "name": "ステーキハウス仙",
            "type": "洋食",
            "area": "仙台市青葉区のお店",
            "address": " 仙台市青葉区 錦町1-4-9",
            "postal_code": "980-0012",
            "tel": "022-703-3657",
            "lat": "38.26827581",
            "lng": "140.87522942"
        },
        {
            "name": "すてーき広尾",
            "type": "洋食",
            "area": "仙台市青葉区のお店",
            "address": " 仙台市青葉区 中央2-11-28りんくすビル2階",
            "postal_code": "980-0021",
            "tel": "022-213-4129",
            "lat": "38.26276808",
            "lng": "140.87790730"
        },
        {
            "name": "スパゲッチパーラーマルハチ　三越店",
            "type": "洋食",
            "area": "仙台市青葉区のお店",
            "address": " 仙台市青葉区 一番町4-8-15仙台三越B1F",
            "postal_code": "980-0811",
            "tel": "080-4415-5035",
            "lat": "38.26512311",
            "lng": "140.87106625"
        },
        {
            "name": "仙臺アビルヴァン　和牛",
            "type": "洋食",
            "area": "仙台市青葉区のお店",
            "address": " 仙台市青葉区 本町3-6-3",
            "postal_code": "980-0014",
            "tel": "022-261-3232",
            "lat": "38.26917013",
            "lng": "140.87422393"
        },
        {
            "name": "DUMBO PIZZA FACTORY　エスパル仙台店",
            "type": "洋食",
            "area": "仙台市青葉区のお店",
            "address": " 仙台市青葉区 中央1-1-1",
            "postal_code": "980-8477",
            "tel": "022-290-5355",
            "lat": "38.26028515",
            "lng": "140.88224312"
        },
        {
            "name": "鉄板ダイニング誉",
            "type": "洋食",
            "area": "仙台市青葉区のお店",
            "address": " 仙台市青葉区 春日町1-5SKビル４Ｆ",
            "postal_code": "980-0821",
            "tel": "022-214-4777",
            "lat": "38.26548954",
            "lng": "140.86604737"
        },
        {
            "name": "鉄板松阪屋",
            "type": "洋食",
            "area": "仙台市青葉区のお店",
            "address": "仙台市青葉区国分町1-6-1ルナパーク1番町ビル３F",
            "postal_code": "980-0803",
            "tel": "022-721-1129",
            "lat": "38.26147898",
            "lng": "140.87083874"
        },
        {
            "name": "ニューヨーク　キッチン　エスパル仙台店",
            "type": "洋食",
            "area": "仙台市青葉区のお店",
            "address": " 仙台市青葉区 中央1-1-1",
            "postal_code": "980-8477",
            "tel": "022-716-3931",
            "lat": "38.26028515",
            "lng": "140.88224312"
        },
        {
            "name": "BAR RESTAURANTE MODERNO",
            "type": "洋食",
            "area": "仙台市青葉区のお店",
            "address": " 仙台市青葉区 中央2-11-11大友ビル2F",
            "postal_code": "980-0021",
            "tel": "022-266-9677",
            "lat": "38.26240695",
            "lng": "140.87702132"
        },
        {
            "name": "ＢＡＣＡＲＯ風見鶏",
            "type": "洋食",
            "area": "仙台市青葉区のお店",
            "address": " 仙台市青葉区 一番町1-8-32T&R;ビル 1F",
            "postal_code": "980-0811",
            "tel": "022-738-7548",
            "lat": "38.25721843",
            "lng": "140.87563016"
        },
        {
            "name": "陽だまり食堂",
            "type": "洋食",
            "area": "仙台市青葉区のお店",
            "address": " 仙台市青葉区 中央2-6-19豊栄堂ビル　B1階",
            "postal_code": "980-0021",
            "tel": "022-399-7721",
            "lat": "38.26215976",
            "lng": "140.87718243"
        },
        {
            "name": "BIKINI  TAPA +　エスパル仙台店",
            "type": "洋食",
            "area": "仙台市青葉区のお店",
            "address": " 仙台市青葉区 中央1-1-1エスパル仙台東館　2階",
            "postal_code": "980-8477",
            "tel": "022-742-3238",
            "lat": "38.26028515",
            "lng": "140.88224312"
        },
        {
            "name": "びすとろ　ジョバン",
            "type": "洋食",
            "area": "仙台市青葉区のお店",
            "address": " 仙台市青葉区 一番町2-3-3068",
            "postal_code": "980-0811",
            "tel": "022-226-8832",
            "lat": "38.25844601",
            "lng": "140.87351364"
        },
        {
            "name": "Piece of Chocolate 仙台",
            "type": "洋食",
            "area": "仙台市青葉区のお店",
            "address": " 仙台市青葉区 国分町2-11-8MSCビルB1F",
            "postal_code": "980-0803",
            "tel": "022-722-2322",
            "lat": "38.26469808",
            "lng": "140.86936925"
        },
        {
            "name": "ホテルメトロポリタン仙台　レストラン「セレニティ」",
            "type": "洋食",
            "area": "仙台市青葉区のお店",
            "address": " 仙台市青葉区 中央1-1-1",
            "postal_code": "980-8477",
            "tel": "022-268-2525",
            "lat": "38.26028515",
            "lng": "140.88224312"
        },
        {
            "name": "森のパルク",
            "type": "洋食",
            "area": "仙台市青葉区のお店",
            "address": " 仙台市青葉区 一番町3-4-1 藤崎一番町館地下１階",
            "postal_code": "980-0811",
            "tel": "022-712-6271",
            "lat": "38.26068185",
            "lng": "140.87171092"
        },
        {
            "name": "洋食浅草軒　エスパル仙台店",
            "type": "洋食",
            "area": "仙台市青葉区のお店",
            "address": " 仙台市青葉区 中央1-1-1",
            "postal_code": "980-8477",
            "tel": "022-716-7156",
            "lat": "38.26028515",
            "lng": "140.88224312"
        },
        {
            "name": "洋食屋　小伊万里",
            "type": "洋食",
            "area": "仙台市青葉区のお店",
            "address": " 仙台市青葉区 木町通1-8-18田村ビル",
            "postal_code": "980-0801",
            "tel": "022-265-6473",
            "lat": "38.27063052",
            "lng": "140.86203371"
        },
        {
            "name": "ラウンドダイニング",
            "type": "洋食",
            "area": "仙台市青葉区のお店",
            "address": " 仙台市青葉区 国分町2-10-7大内ビル地下1階",
            "postal_code": "980-0803",
            "tel": "022-267-5749",
            "lat": "38.26345654",
            "lng": "140.86976651"
        },
        {
            "name": "Love & Cheese!! EDEN仙台店",
            "type": "洋食",
            "area": "仙台市青葉区のお店",
            "address": " 仙台市青葉区 中央1-10-25EDEN内",
            "postal_code": "980-0021",
            "tel": "022-722-2377",
            "lat": "38.26061004",
            "lng": "140.88033219"
        },
        {
            "name": "「ｒａｎｐｕ」ｄｅｌｉｖｅｒｙ",
            "type": "洋食",
            "area": "仙台市青葉区のお店",
            "address": " 仙台市青葉区 錦町1-2-10第七旭コーポラスキクタ錦町ビル２０５",
            "postal_code": "980-0012",
            "tel": "022-395-7435",
            "lat": "38.26750095",
            "lng": "140.87672930"
        },
        {
            "name": "レコパン　ドゥ  カンパーニュ",
            "type": "洋食",
            "area": "仙台市青葉区のお店",
            "address": " 仙台市青葉区 作並字川崎17-1",
            "postal_code": "989-3431",
            "tel": "022-395-3110",
            "lat": "38.30990896",
            "lng": "140.65665855"
        },
        {
            "name": "レストラン トップ",
            "type": "洋食",
            "area": "仙台市青葉区のお店",
            "address": "仙台市青葉区大町2-15-1",
            "postal_code": "980-0802",
            "tel": "022-263-0330",
            "lat": "38.26089830",
            "lng": "140.86581709"
        },
        {
            "name": "レストラン・ハチ",
            "type": "洋食",
            "area": "仙台市青葉区のお店",
            "address": " 仙台市青葉区 中央1-1-1JR仙台駅　３階",
            "postal_code": "980-0021",
            "tel": "022-796-8225",
            "lat": "38.26028515",
            "lng": "140.88224312"
        },
        {
            "name": "レストラン　ハングリーハングリー",
            "type": "洋食",
            "area": "仙台市青葉区のお店",
            "address": " 仙台市青葉区 上愛子字雷神5-35",
            "postal_code": "989-3124",
            "tel": "022-392-3373",
            "lat": "38.27201362",
            "lng": "140.74679038"
        },
        {
            "name": "レストラン三の丸",
            "type": "洋食",
            "area": "仙台市青葉区のお店",
            "address": "宮城県仙台市青葉区川内26仙台市博物館2階",
            "postal_code": "980-0862",
            "tel": "022-221-2777",
            "lat": "38.25599575",
            "lng": "140.85666548"
        },
        {
            "name": "レストランぴぁ",
            "type": "洋食",
            "area": "仙台市青葉区のお店",
            "address": " 仙台市青葉区 本町3-8-1県庁18階",
            "postal_code": "980-8570",
            "tel": "022-398-9311",
            "lat": "38.26873673",
            "lng": "140.87218254"
        },
        {
            "name": "レッドロック仙台店",
            "type": "洋食",
            "area": "仙台市青葉区のお店",
            "address": " 仙台市青葉区 一番町1-11-19",
            "postal_code": "980-0811",
            "tel": "022-398-6180",
            "lat": "38.25648784",
            "lng": "140.87346377"
        },
        {
            "name": "大阪王将仙台南吉成店",
            "type": "中華料理",
            "area": "仙台市青葉区のお店",
            "address": " 仙台市青葉区 南吉成3-1-17南吉成タウンプラザ内",
            "postal_code": "989-3204",
            "tel": "022-277-8878",
            "lat": "38.28507486",
            "lng": "140.81605421"
        },
        {
            "name": "粥餐庁 仙台エスパル店",
            "type": "中華料理",
            "area": "仙台市青葉区のお店",
            "address": " 仙台市青葉区 中央1-1-1S-PAL（エスパル）B1F",
            "postal_code": "980-0021",
            "tel": "022-214-2003",
            "lat": "38.26028515",
            "lng": "140.88224312"
        },
        {
            "name": "広東飯店美香園",
            "type": "中華料理",
            "area": "仙台市青葉区のお店",
            "address": " 仙台市青葉区 国分町3-6-16",
            "postal_code": "980-0803",
            "tel": "022-262-0731",
            "lat": "38.26694784",
            "lng": "140.86861087"
        },
        {
            "name": "餃子の王将　イオン仙台店",
            "type": "中華料理",
            "area": "仙台市青葉区のお店",
            "address": " 仙台市青葉区 中央2-3-6",
            "postal_code": "980-0021",
            "tel": "022-266-3788",
            "lat": "38.26098480",
            "lng": "140.87587988"
        },
        {
            "name": "餃子の王将　仙台一番町店",
            "type": "中華料理",
            "area": "仙台市青葉区のお店",
            "address": "宮城県仙台市青葉区一番町4-4-31",
            "postal_code": "980-0811",
            "tel": "022-266-2088",
            "lat": "38.26406207",
            "lng": "140.87065804"
        },
        {
            "name": "謝朋殿　粥餐庁　エスパル仙台店",
            "type": "中華料理",
            "area": "仙台市青葉区のお店",
            "address": " 仙台市青葉区 中央1-1-1",
            "postal_code": "980-8477",
            "tel": "022-214-2003",
            "lat": "38.26028515",
            "lng": "140.88224312"
        },
        {
            "name": "謝朋殿 仙台一番町店",
            "type": "中華料理",
            "area": "仙台市青葉区のお店",
            "address": " 仙台市青葉区 一番町3-3-1クラックス5F",
            "postal_code": "980-0811",
            "tel": "022-221-5872",
            "lat": "38.25993748",
            "lng": "140.87189983"
        },
        {
            "name": "ジンホア仙台",
            "type": "中華料理",
            "area": "仙台市青葉区のお店",
            "address": "宮城県仙台市青葉区一番町3-3-26高留ビル地下1階",
            "postal_code": "980-0811",
            "tel": "022-395-5202",
            "lat": "38.26031245",
            "lng": "140.87189425"
        },
        {
            "name": "仙臺chineseｆｕｈｋｕ",
            "type": "中華料理",
            "area": "仙台市青葉区のお店",
            "address": "仙台市青葉区大町2-11-1山川ビル1階",
            "postal_code": "980-0804",
            "tel": "022-211-8233",
            "lat": "38.26050945",
            "lng": "140.86596154"
        },
        {
            "name": "大衆中華 ちんまや",
            "type": "中華料理",
            "area": "仙台市青葉区のお店",
            "address": " 仙台市青葉区 中央3-9-16黄龍ビル1階",
            "postal_code": "980-0021",
            "tel": "022-214-7396",
            "lat": "38.25862393",
            "lng": "140.87694937"
        },
        {
            "name": "泰陽楼　東三店",
            "type": "中華料理",
            "area": "仙台市青葉区のお店",
            "address": " 仙台市青葉区 中央3-8-24",
            "postal_code": "980-0021",
            "tel": "022-222-4996",
            "lat": "38.25897671",
            "lng": "140.87753817"
        },
        {
            "name": "台湾中国料理　燕来香",
            "type": "中華料理",
            "area": "仙台市青葉区のお店",
            "address": "宮城県仙台市青葉区花京院1-1-30ニューライフマンション花京院B１F",
            "postal_code": "980-0013",
            "tel": "022-262-7147",
            "lat": "38.26545965",
            "lng": "140.88082342"
        },
        {
            "name": "台湾屋台小皿料理　福星門",
            "type": "中華料理",
            "area": "仙台市青葉区のお店",
            "address": " 仙台市青葉区 一番町3-6-13プラザおおまちビル2階",
            "postal_code": "980-0811",
            "tel": "022-222-7330",
            "lat": "38.26106800",
            "lng": "140.87311074"
        },
        {
            "name": "台湾屋台料理　台味",
            "type": "中華料理",
            "area": "仙台市青葉区のお店",
            "address": " 仙台市青葉区 一番町4-7-7",
            "postal_code": "980-0811",
            "tel": "022-797-9388",
            "lat": "38.26469260",
            "lng": "140.87131347"
        },
        {
            "name": "Chinese Dining 和醸良酒　隆の恵",
            "type": "中華料理",
            "area": "仙台市青葉区のお店",
            "address": " 仙台市青葉区 五橋2-10-24",
            "postal_code": "980-0022",
            "tel": "022-724-7665",
            "lat": "38.24930541",
            "lng": "140.88027742"
        },
        {
            "name": "中華棒棒",
            "type": "中華料理",
            "area": "仙台市青葉区のお店",
            "address": "宮城県仙台市青葉区落合1-17-35",
            "postal_code": "989-3126",
            "tel": "022-797-9822",
            "lat": "38.27232049",
            "lng": "140.79163995"
        },
        {
            "name": "中嘉屋食堂　麺飯甜",
            "type": "中華料理",
            "area": "仙台市青葉区のお店",
            "address": " 仙台市青葉区 中央1-1-1JR仙台駅１階",
            "postal_code": "980-0021",
            "tel": "022-722-2801",
            "lat": "38.26028515",
            "lng": "140.88224312"
        },
        {
            "name": "中嘉屋食堂麺飯甜　台原店",
            "type": "中華料理",
            "area": "仙台市青葉区のお店",
            "address": " 仙台市青葉区 堤町3-19-1",
            "postal_code": "981-0912",
            "tel": "022-728-6701",
            "lat": "38.29122062",
            "lng": "140.87233347"
        },
        {
            "name": "中華れすとらん　とらの子",
            "type": "中華料理",
            "area": "仙台市青葉区のお店",
            "address": " 仙台市青葉区 中山5-19-13",
            "postal_code": "981-0952",
            "tel": "022-279-0703",
            "lat": "38.29322428",
            "lng": "140.84080693"
        },
        {
            "name": "中国飯店　龍天江",
            "type": "中華料理",
            "area": "仙台市青葉区のお店",
            "address": "宮城県仙台市青葉区本町2-3-1江陽グランドホテル13階",
            "postal_code": "980-0014",
            "tel": "022-267-5111",
            "lat": "38.26327342",
            "lng": "140.87440488"
        },
        {
            "name": "中国美点菜　彩華",
            "type": "中華料理",
            "area": "仙台市青葉区のお店",
            "address": " 仙台市青葉区 国分町2-15-1彩華ビル　2F-3F",
            "postal_code": "980-0803",
            "tel": "022-222-8300",
            "lat": "38.26522582",
            "lng": "140.86959419"
        },
        {
            "name": "中国北京料理 飛天",
            "type": "中華料理",
            "area": "仙台市青葉区のお店",
            "address": " 仙台市青葉区 一番町3-1-18しまぬきビル3階",
            "postal_code": "980-0811",
            "tel": "022-395-5191",
            "lat": "38.26036253",
            "lng": "140.87376627"
        },
        {
            "name": "中国料理「彩雲」ホテルモントレ仙台",
            "type": "中華料理",
            "area": "仙台市青葉区のお店",
            "address": " 仙台市青葉区 中央4-1-8ホテルモントレ仙台",
            "postal_code": "980-0021",
            "tel": "022-265-5545",
            "lat": "38.25808802",
            "lng": "140.88041014"
        },
        {
            "name": "中国料理　翠林",
            "type": "中華料理",
            "area": "仙台市青葉区のお店",
            "address": "宮城県仙台市青葉区中央4-6-1",
            "postal_code": "980-0021",
            "tel": "022-268-1102",
            "lat": "38.25681579",
            "lng": "140.87781051"
        },
        {
            "name": "中国料理　東龍門",
            "type": "中華料理",
            "area": "仙台市青葉区のお店",
            "address": " 仙台市青葉区 国分町3-3-7　東京エレクトロンホール宮城",
            "postal_code": "980-0803",
            "tel": "022-215-8181",
            "lat": "38.26604233",
            "lng": "140.86771659"
        },
        {
            "name": "中国料理　龍亭",
            "type": "中華料理",
            "area": "仙台市青葉区のお店",
            "address": " 仙台市青葉区 錦町1-2-10キクタビル105",
            "postal_code": "980-0012",
            "tel": "022-221-6377",
            "lat": "38.26750095",
            "lng": "140.87672930"
        },
        {
            "name": "中国料理　廬山",
            "type": "中華料理",
            "area": "仙台市青葉区のお店",
            "address": " 仙台市青葉区 一番町2-4-7文横ビル1階",
            "postal_code": "980-0811",
            "tel": "022-223-7649",
            "lat": "38.25927648",
            "lng": "140.87322195"
        },
        {
            "name": "中国料理廣聚隆",
            "type": "中華料理",
            "area": "仙台市青葉区のお店",
            "address": " 仙台市青葉区 堤町1-2-70",
            "postal_code": "981-0912",
            "tel": "022-797-9889",
            "lat": "38.28141888",
            "lng": "140.87203991"
        },
        {
            "name": "中国料理シーロン",
            "type": "中華料理",
            "area": "仙台市青葉区のお店",
            "address": " 仙台市青葉区 中央1-2-3マークワンビル一階",
            "postal_code": "980-0021",
            "tel": "022-212-4606",
            "lat": "38.26205442",
            "lng": "140.88165693"
        },
        {
            "name": "鼎’ｓ仙台パルコ2店",
            "type": "中華料理",
            "area": "仙台市青葉区のお店",
            "address": " 仙台市青葉区 中央3-7-5仙台パルコ２　１Ｆ",
            "postal_code": "980-0021",
            "tel": "022-397-6218",
            "lat": "38.25897402",
            "lng": "140.87956017"
        },
        {
            "name": "鼎’ｓ仙台パルコ２店",
            "type": "中華料理",
            "area": "仙台市青葉区のお店",
            "address": " 仙台市青葉区 中央3-7-5仙台パルコ2店",
            "postal_code": "980-0021",
            "tel": "022-397-6218",
            "lat": "38.25897402",
            "lng": "140.87956017"
        },
        {
            "name": "鼎泰豊　エスパル仙台店",
            "type": "中華料理",
            "area": "仙台市青葉区のお店",
            "address": " 仙台市青葉区 中央1-1-1エスパル仙台東館　3階",
            "postal_code": "980-8477",
            "tel": "022-781-7478",
            "lat": "38.26028515",
            "lng": "140.88224312"
        },
        {
            "name": "広東料理　桃花",
            "type": "中華料理",
            "area": "仙台市青葉区のお店",
            "address": " 仙台市青葉区 国分町2-8-12国分町Ｋビル1階",
            "postal_code": "980-0803",
            "tel": "022-217-3917",
            "lat": "38.26357867",
            "lng": "140.86756953"
        },
        {
            "name": "東洋軒本店",
            "type": "中華料理",
            "area": "仙台市青葉区のお店",
            "address": " 仙台市青葉区 国分町2-3-19",
            "postal_code": "980-0803",
            "tel": "022-261-5565",
            "lat": "38.26291208",
            "lng": "140.86805285"
        },
        {
            "name": "とんとんラーメン",
            "type": "中華料理",
            "area": "仙台市青葉区のお店",
            "address": " 仙台市青葉区 一番町4-3-3金富士ビル1F",
            "postal_code": "980-0811",
            "tel": "022-265-4963",
            "lat": "38.26253166",
            "lng": "140.87080812"
        },
        {
            "name": "紅虎餃子房　仙台パルコ",
            "type": "中華料理",
            "area": "仙台市青葉区のお店",
            "address": " 仙台市青葉区 中央1-2仙台パルコ9F",
            "postal_code": "980-0021",
            "tel": "022-774-8177",
            "lat": "38.26184611",
            "lng": "140.88177360"
        },
        {
            "name": "ホテルメトロポリタン仙台　中国料理「桃李」",
            "type": "中華料理",
            "area": "仙台市青葉区のお店",
            "address": " 仙台市青葉区 中央1-1-1",
            "postal_code": "980-8477",
            "tel": "022-268-2525",
            "lat": "38.26028515",
            "lng": "140.88224312"
        },
        {
            "name": "満州園",
            "type": "中華料理",
            "area": "仙台市青葉区のお店",
            "address": " 仙台市青葉区 木町通2-1-15",
            "postal_code": "980-0801",
            "tel": "022-725-3718",
            "lat": "38.27211118",
            "lng": "140.86718851"
        },
        {
            "name": "アッラグリッリア",
            "type": "フレンチ・イタリアン",
            "area": "仙台市青葉区のお店",
            "address": " 仙台市青葉区国分町3-9-2第五佐々木屋ビル地下一階",
            "postal_code": "980-0803",
            "tel": "022-726-4888",
            "lat": "38.26703948",
            "lng": "140.86807760"
        },
        {
            "name": "Ｌ’Ａｌｂｅｒｏ",
            "type": "フレンチ・イタリアン",
            "area": "仙台市青葉区のお店",
            "address": "宮城県仙台市青葉区上愛子字白沢23-1",
            "postal_code": "989-3124",
            "tel": "022-392-9570",
            "lat": "38.28551571",
            "lng": "140.69062182"
        },
        {
            "name": "イタリア厨房　SHUN　YOKOHAMA",
            "type": "フレンチ・イタリアン",
            "area": "仙台市青葉区のお店",
            "address": " 仙台市青葉区 中央1-1-1仙台ターミナルビル　地下1階",
            "postal_code": "980-8477",
            "tel": "022-221-8044",
            "lat": "38.26028515",
            "lng": "140.88224312"
        },
        {
            "name": "イタリア厨房SHUN 　エスパル仙台店",
            "type": "フレンチ・イタリアン",
            "area": "仙台市青葉区のお店",
            "address": " 仙台市青葉区 中央1-1-1",
            "postal_code": "980-8477",
            "tel": "022-221-8044",
            "lat": "38.26028515",
            "lng": "140.88224312"
        },
        {
            "name": "イタリア風伊酒屋 VINO(ヴィーノ)",
            "type": "フレンチ・イタリアン",
            "area": "仙台市青葉区のお店",
            "address": " 仙台市青葉区 国分町2-1-8カーパークビル 2F",
            "postal_code": "980-0803",
            "tel": "022-223-2389",
            "lat": "38.26255941",
            "lng": "140.87007486"
        },
        {
            "name": "イタリア料理カプリチョーザ　仙台中央通り店",
            "type": "フレンチ・イタリアン",
            "area": "仙台市青葉区のお店",
            "address": " 仙台市青葉区 中央2-6-7太田屋ビル２階",
            "postal_code": "980-0021",
            "tel": "022-211-8004",
            "lat": "38.26180982",
            "lng": "140.87782127"
        },
        {
            "name": "ITALIAN T's",
            "type": "フレンチ・イタリアン",
            "area": "仙台市青葉区のお店",
            "address": " 仙台市青葉区 旭ケ丘3-9-1旭ヶ丘グランツ2階",
            "postal_code": "981-0904",
            "tel": "022-301-3991",
            "lat": "38.29617383",
            "lng": "140.88831395"
        },
        {
            "name": "イタリアン酒房ときわ",
            "type": "フレンチ・イタリアン",
            "area": "仙台市青葉区のお店",
            "address": " 仙台市青葉区 国分町2-8-14第３太陽ビル１F",
            "postal_code": "980-0803",
            "tel": "022-797-2219",
            "lat": "38.26371476",
            "lng": "140.86753619"
        },
        {
            "name": "イタリコ　エスパル仙台店",
            "type": "フレンチ・イタリアン",
            "area": "仙台市青葉区のお店",
            "address": " 仙台市青葉区 中央1-1-1",
            "postal_code": "980-8477",
            "tel": "022-267-4307",
            "lat": "38.26028515",
            "lng": "140.88224312"
        },
        {
            "name": "イタリコ仙台駅店",
            "type": "フレンチ・イタリアン",
            "area": "仙台市青葉区のお店",
            "address": " 仙台市青葉区 中央1-1-1仙台エスパル地下１階",
            "postal_code": "980-0021",
            "tel": "022-267-4307",
            "lat": "38.26028515",
            "lng": "140.88224312"
        },
        {
            "name": "イル・ピッツァイオーロ",
            "type": "フレンチ・イタリアン",
            "area": "仙台市青葉区のお店",
            "address": " 仙台市青葉区 堤町1-9-21第13ジュリヤン1階",
            "postal_code": "981-0912",
            "tel": "022-725-3141",
            "lat": "38.28410459",
            "lng": "140.86995672"
        },
        {
            "name": "イルクオーレ",
            "type": "フレンチ・イタリアン",
            "area": "仙台市青葉区のお店",
            "address": " 仙台市青葉区 一番町1-15-7",
            "postal_code": "980-0811",
            "tel": "022-221-6171",
            "lat": "38.25621001",
            "lng": "140.87185841"
        },
        {
            "name": "eichi.",
            "type": "フレンチ・イタリアン",
            "area": "仙台市青葉区のお店",
            "address": " 仙台市青葉区 錦町1-10-11勾当台上杉通りビルB1",
            "postal_code": "980-0012",
            "tel": "022-393-5698",
            "lat": "38.26920628",
            "lng": "140.87504882"
        },
        {
            "name": "エスパルマドールマリスケリア　エスパル仙台店",
            "type": "フレンチ・イタリアン",
            "area": "仙台市青葉区のお店",
            "address": " 仙台市青葉区 中央1-1-1",
            "postal_code": "980-8477",
            "tel": "022-794-7162",
            "lat": "38.26028515",
            "lng": "140.88224312"
        },
        {
            "name": "大きなポッケ",
            "type": "フレンチ・イタリアン",
            "area": "仙台市青葉区のお店",
            "address": " 仙台市青葉区 落合3-12-25",
            "postal_code": "989-3126",
            "tel": "022-392-7042",
            "lat": "38.27638633",
            "lng": "140.78321810"
        },
        {
            "name": "カフェフレンド　きゃんぱす",
            "type": "フレンチ・イタリアン",
            "area": "仙台市青葉区のお店",
            "address": "宮城県仙台市青葉区一番町4-3-3金富士ビル2階",
            "postal_code": "980-0811",
            "tel": "022-265-9382",
            "lat": "38.26253166",
            "lng": "140.87080812"
        },
        {
            "name": "GARE dE Lyon ガレ・ド・リヨン",
            "type": "フレンチ・イタリアン",
            "area": "仙台市青葉区のお店",
            "address": "宮城県仙台市青葉区一番町1-11-10タカハシビル2階",
            "postal_code": "980-0811",
            "tel": "022-721-6303",
            "lat": "38.25672675",
            "lng": "140.87441366"
        },
        {
            "name": "CHIANTI－BUONO",
            "type": "フレンチ・イタリアン",
            "area": "仙台市青葉区のお店",
            "address": "宮城県仙台市青葉区一番町3-8-4大雅ビル二階",
            "postal_code": "980-0811",
            "tel": "022-215-8222",
            "lat": "38.26120406",
            "lng": "140.87236359"
        },
        {
            "name": "cuisine francaise HIRO",
            "type": "フレンチ・イタリアン",
            "area": "仙台市青葉区のお店",
            "address": " 仙台市青葉区 支倉町4-27TC支倉ビル2階",
            "postal_code": "980-0824",
            "tel": "022-721-3488",
            "lat": "38.27063046",
            "lng": "140.86064500"
        },
        {
            "name": "Graal",
            "type": "フレンチ・イタリアン",
            "area": "仙台市青葉区のお店",
            "address": " 仙台市青葉区 中央1-8-22サンスクエア庄司ビルB1F",
            "postal_code": "980-0021",
            "tel": "022-796-7898",
            "lat": "38.26172101",
            "lng": "140.87945443"
        },
        {
            "name": "ご褒美レストランアポロン",
            "type": "フレンチ・イタリアン",
            "area": "仙台市青葉区のお店",
            "address": " 仙台市青葉区 一番町2-11-12プレジデント一番町105",
            "postal_code": "980-0811",
            "tel": "022-797-6447",
            "lat": "38.25765148",
            "lng": "140.86948356"
        },
        {
            "name": "SALVATORE CUOMO & BAR 仙台",
            "type": "フレンチ・イタリアン",
            "area": "仙台市青葉区のお店",
            "address": " 仙台市青葉区 中央3-7-5仙台パルコ2　1F",
            "postal_code": "980-0021",
            "tel": "022-212-8265",
            "lat": "38.25897402",
            "lng": "140.87956017"
        },