{
    "data": [
        {
            "name": "しゃぶしゃぶ温野菜　高松木太店",
            "type": "すき焼き・しゃぶしゃぶ",
            "area": "高松地区",
            "address": "香川県高松市木太町２６９８－４",
            "tel": "087-831-0831",
            "lat": "34.33970458",
            "lng": "134.08208723"
        },
        {
            "name": "中野うどん学校　高松校",
            "type": "うどん｜懐石・会席・割烹・小料理｜その他和食｜天ぷら・揚げ物｜郷土料理｜丼もの｜カフェ・スイーツカフェ｜喫茶・軽食",
            "area": "高松地区",
            "address": "香川県高松市成合町８番地",
            "tel": "087-885-3200",
            "lat": "34.29553016",
            "lng": "134.01073605"
        },
        {
            "name": "しゃぶしゃぶ温野菜　高松レインボー通り店",
            "type": "すき焼き・しゃぶしゃぶ",
            "area": "高松地区",
            "address": "香川県高松市松縄町１００３－７　レインボータウン２Ｆ",
            "tel": "087-813-8031",
            "lat": "34.32066474",
            "lng": "134.06251793"
        },
        {
            "name": "宴の郷Ｌa’なら",
            "type": "居酒屋・バー",
            "area": "高松地区",
            "address": "香川県高松市伏石町２０８３－１４",
            "tel": "087-867-8980",
            "lat": "34.31256276",
            "lng": "134.05980217"
        },
        {
            "name": "宴の郷Ｌa’なら　別館　絆",
            "type": "居酒屋・バー",
            "area": "高松地区",
            "address": "香川県高松市伏石町2083-15",
            "tel": "087-867-8991",
            "lat": "34.31233223",
            "lng": "134.05976330"
        },
        {
            "name": "居酒屋　竹もと",
            "type": "焼鳥・串焼き｜居酒屋・バー",
            "area": "高松地区",
            "address": "香川県高松市寺井町1053－10",
            "tel": "086-886-4186",
            "lat": "34.27801845",
            "lng": "134.02715272"
        },
        {
            "name": "蒼海丼丸　津田店",
            "type": "寿司・海鮮料理・うなぎ｜丼もの",
            "area": "東讃地区",
            "address": "香川県さぬき市津田町津田1559-2",
            "tel": "0879-23-7077",
            "lat": "34.29483289",
            "lng": "134.24587946"
        },
        {
            "name": "野田屋",
            "type": "うどん｜定食・食堂",
            "area": "東讃地区",
            "address": "香川県さぬき市多和兼割87-5",
            "tel": "0879-56-2028",
            "lat": "34.19038474",
            "lng": "134.20650578"
        },
        {
            "name": "ミスタードーナツ　フジグラン丸亀ショップ",
            "type": "カフェ・スイーツカフェ",
            "area": "中讃地区",
            "address": "香川県丸亀市川西町南1280番地1　フジグラン丸亀内",
            "tel": "0877-28-2004",
            "lat": "34.24165003",
            "lng": "133.83517254"
        },
        {
            "name": "じゃんじゃか　十川店",
            "type": "焼肉・ホルモン・ジンギスカン",
            "area": "高松地区",
            "address": "香川県高松市十川東町55番地１　フジグラン十川敷地内",
            "tel": "087-848-4137",
            "lat": "34.27179024",
            "lng": "134.10867426"
        },
        {
            "name": "かつまや寿司",
            "type": "寿司・海鮮料理・うなぎ",
            "area": "西讃地区",
            "address": "香川県三豊市詫間町松崎2780-422",
            "tel": "0875-83-2156",
            "lat": "34.22139534",
            "lng": "133.68950273"
        },
        {
            "name": "花園亭",
            "type": "うどん｜懐石・会席・割烹・小料理｜郷土料理",
            "area": "高松地区",
            "address": "香川県高松市栗林町１丁目２０番３号",
            "tel": "087-831-5255",
            "lat": "34.32930264",
            "lng": "134.04511021"
        },
        {
            "name": "ほくろ屋",
            "type": "懐石・会席・割烹・小料理｜寿司・海鮮料理・うなぎ｜天ぷら・揚げ物",
            "area": "中讃地区",
            "address": "香川県丸亀市土器町東九丁目284番地",
            "tel": "0877-21-3715",
            "lat": "34.30074341",
            "lng": "133.80721469"
        },
        {
            "name": "Cafe Riju",
            "type": "カフェ・スイーツカフェ",
            "area": "高松地区",
            "address": "香川県高松市常磐町2-3-34",
            "tel": "080-9579-2065",
            "lat": "34.33811567",
            "lng": "134.05103445"
        },
        {
            "name": "小松屋",
            "type": "その他",
            "area": "中讃地区",
            "address": "香川県仲多度郡琴平町琴平町953-1",
            "tel": "0877-75-2054",
            "lat": "34.19121680",
            "lng": "133.82350820"
        },
        {
            "name": "Big KAHUNA",
            "type": "その他アジア・エスニック料理｜無国籍・多国籍",
            "area": "高松地区",
            "address": "香川県高松市高松町3006-3",
            "tel": "087-843-3444",
            "lat": "34.34008523",
            "lng": "134.11053991"
        },
        {
            "name": "まるやうどん二代目",
            "type": "うどん",
            "area": "中讃地区",
            "address": "香川県善通寺市下吉田町889-4",
            "tel": "0877-85-8822",
            "lat": "34.24718823",
            "lng": "133.76967275"
        },
        {
            "name": "IZAKAYA　時々jiji　観音寺本店",
            "type": "うどん｜ラーメン｜その他麺類｜その他和食｜寿司・海鮮料理・うなぎ｜天ぷら・揚げ物｜焼鳥・串焼き｜郷土料理｜丼もの｜ステーキ・ハンバーグ・鉄板焼き｜パスタ・ピザ｜焼肉・ホルモン・ジンギスカン｜カレー｜カフェ・スイーツカフェ｜居酒屋・バー",
            "area": "西讃地区",
            "address": "香川県観音寺市昭和町1丁目8-39",
            "tel": "0875-25-6511",
            "lat": "34.12126961",
            "lng": "133.65425906"
        },
        {
            "name": "天神前　すきしゃぶ亭",
            "type": "すき焼き・しゃぶしゃぶ",
            "area": "高松地区",
            "address": "香川県高松市天神前8-6",
            "tel": "087-837-4635",
            "lat": "34.33836005",
            "lng": "134.04586533"
        },
        {
            "name": "ラーメンとん太　寒川店",
            "type": "ラーメン｜その他",
            "area": "東讃地区",
            "address": "香川県さぬき市寒川町石田東甲816-7",
            "tel": "0879-43-1407",
            "lat": "34.26171106",
            "lng": "134.20721611"
        },
        {
            "name": "オリヴァス",
            "type": "スペイン料理・バル",
            "area": "小豆地区",
            "address": "香川県小豆郡小豆島町西村甲1941-1",
            "tel": "0879-82-2200",
            "lat": "34.47290005",
            "lng": "134.27370816"
        },
        {
            "name": "海食処　笑門家",
            "type": "その他和食",
            "area": "中讃地区",
            "address": "香川県仲多度郡多度津町東浜7-11",
            "tel": "0877-32-1331",
            "lat": "34.27357083",
            "lng": "133.74519960"
        },
        {
            "name": "道の駅レストラン　サン･オリーブ",
            "type": "ラーメン｜その他麺類｜丼もの",
            "area": "小豆地区",
            "address": "香川県小豆郡小豆島町西村甲1941-1",
            "tel": "0879-82-2200",
            "lat": "34.47290005",
            "lng": "134.27370816"
        },
        {
            "name": "地鶏鍋屋　だんだん",
            "type": "居酒屋・バー",
            "area": "西讃地区",
            "address": "香川県三豊市豊中町上高野118-2",
            "tel": "0875-62-3171",
            "lat": "34.13416229",
            "lng": "133.71662311"
        },
        {
            "name": "豊浜サービスエリア　（上り線）",
            "type": "うどん｜ラーメン｜そば｜その他和食｜寿司・海鮮料理・うなぎ｜天ぷら・揚げ物｜郷土料理｜丼もの｜ステーキ・ハンバーグ・鉄板焼き｜パスタ・ピザ｜洋食・欧風料理｜その他洋食・西洋料理｜餃子・肉まん｜カレー｜喫茶・軽食｜ファミレス",
            "area": "西讃地区",
            "address": "香川県観音寺市豊浜町箕浦甲2180-1",
            "tel": "0875-52-6585",
            "lat": "34.04633655",
            "lng": "133.61950846"
        },
        {
            "name": "小豆島どさん子　土庄店",
            "type": "ラーメン｜その他中華料理｜定食・食堂",
            "area": "小豆地区",
            "address": "香川県小豆郡土庄町渕崎甲1973-2",
            "tel": "0879-62-2854",
            "lat": "34.49035704",
            "lng": "134.18383999"
        },
        {
            "name": "お番菜cafe　TREEHOUSE",
            "type": "その他和食｜焼鳥・串焼き｜ステーキ・ハンバーグ・鉄板焼き｜居酒屋・バー",
            "area": "高松地区",
            "address": "香川県高松市春日町1564",
            "tel": "087-814-7660",
            "lat": "34.33446627",
            "lng": "134.08695082"
        },
        {
            "name": "Bar　Dion",
            "type": "居酒屋・バー",
            "area": "高松地区",
            "address": "香川県高松市瓦町1-2-4グルメ館地下1階",
            "tel": "087-822-8180",
            "lat": "34.34169030",
            "lng": "134.05112597"
        },
        {
            "name": "料理いろは",
            "type": "懐石・会席・割烹・小料理",
            "area": "東讃地区",
            "address": "香川県さぬき市長尾西５５７番地",
            "tel": "0879-52-2016",
            "lat": "34.26629614",
            "lng": "134.16968346"
        },
        {
            "name": "ぴかでり屋",
            "type": "郷土料理｜ステーキ・ハンバーグ・鉄板焼き｜居酒屋・バー",
            "area": "高松地区",
            "address": "香川県高松市福田町9-5",
            "tel": "087-822-0091",
            "lat": "34.34181252",
            "lng": "134.05370633"
        },
        {
            "name": "活魚料理　藤村",
            "type": "懐石・会席・割烹・小料理",
            "area": "中讃地区",
            "address": "香川県丸亀市城東町三丁目11番25号",
            "tel": "0877-24-3272",
            "lat": "34.28960023",
            "lng": "133.80474039"
        },
        {
            "name": "グリル洋食＆ワイン kitchen ROAD",
            "type": "ステーキ・ハンバーグ・鉄板焼き｜洋食・欧風料理｜スペイン料理・バル｜その他洋食・西洋料理｜居酒屋・バー",
            "area": "高松地区",
            "address": "香川県高松市亀井町12-20WAKIビル1F",
            "tel": "087-813-3330",
            "lat": "34.33885724",
            "lng": "134.04792630"
        },
        {
            "name": "COFFEE ROASTER K-ship",
            "type": "喫茶・軽食",
            "area": "東讃地区",
            "address": "香川県木田郡三木町池戸2903-1",
            "tel": "087-814-5457",
            "lat": "34.27420417",
            "lng": "134.12235319"
        },
        {
            "name": "居酒屋　林太郎",
            "type": "居酒屋・バー",
            "area": "高松地区",
            "address": "香川県高松市瓦町1-5-9",
            "tel": "087-851-0358",
            "lat": "34.34180974",
            "lng": "134.05307305"
        },
        {
            "name": "本格讃岐手打ちうどん　やまと製麺所",
            "type": "うどん",
            "area": "高松地区",
            "address": "香川県高松市木太町1671-1",
            "tel": "087-834-7833",
            "lat": "34.32360340",
            "lng": "134.07262785"
        },
        {
            "name": "森のジェラテリアMUCCA　三木町本店",
            "type": "カフェ・スイーツカフェ",
            "area": "東讃地区",
            "address": "香川県木田郡三木町上高岡1613",
            "tel": "087-899-1530",
            "lat": "34.23846342",
            "lng": "134.14901421"
        },
        {
            "name": "森のピッツェリアVACCA",
            "type": "パスタ・ピザ",
            "area": "東讃地区",
            "address": "香川県木田郡三木町上高岡1611",
            "tel": "087-899-8899",
            "lat": "34.23852729",
            "lng": "134.14872535"
        },
        {
            "name": "森のジェラテリアMUCCA　こんぴら店",
            "type": "カフェ・スイーツカフェ",
            "area": "中讃地区",
            "address": "香川県仲多度郡琴平町琴平町697-3",
            "tel": "0877-75-2460",
            "lat": "34.19121680",
            "lng": "133.82350820"
        },
        {
            "name": "骨付鳥　東",
            "type": "居酒屋・バー",
            "area": "高松地区",
            "address": "香川県高松市瓦町1-5-2",
            "tel": "087-813-2828",
            "lat": "34.34192917",
            "lng": "134.05313692"
        },
        {
            "name": "ステーキ＆ハンバーグ　山のや高松店",
            "type": "ステーキ・ハンバーグ・鉄板焼き",
            "area": "高松地区",
            "address": "香川県高松市林町2538番地1",
            "tel": "087-815-2255",
            "lat": "34.30560797",
            "lng": "134.06685733"
        },
        {
            "name": "中国料理　吉祥",
            "type": "中華料理・飲茶",
            "area": "中讃地区",
            "address": "香川県丸亀市城東町三丁目8番15号",
            "tel": "0877-21-5458",
            "lat": "34.28954470",
            "lng": "133.80740677"
        },
        {
            "name": "天勝本店",
            "type": "うどん｜懐石・会席・割烹・小料理｜その他和食｜寿司・海鮮料理・うなぎ｜天ぷら・揚げ物｜すき焼き・しゃぶしゃぶ｜郷土料理｜丼もの",
            "area": "高松地区",
            "address": "香川県高松市兵庫町7-8",
            "tel": "087-821-5380",
            "lat": "34.34643976",
            "lng": "134.04613727"
        },
        {
            "name": "喫茶　サンワ",
            "type": "喫茶・軽食",
            "area": "小豆地区",
            "address": "香川県小豆郡土庄町大部甲3246-32",
            "tel": "0879-67-2201",
            "lat": "34.54710012",
            "lng": "134.28178471"
        },
        {
            "name": "はなまるうどん　高松円座店",
            "type": "うどん",
            "area": "高松地区",
            "address": "香川県高松市円座町1037-1",
            "tel": "087-815-7870",
            "lat": "34.29108617",
            "lng": "134.00988089"
        },
        {
            "name": "はなまるうどん　田町店",
            "type": "うどん",
            "area": "高松地区",
            "address": "香川県高松市田町14-5",
            "tel": "087-812-5512",
            "lat": "34.33855172",
            "lng": "134.04920122"
        },
        {
            "name": "はなまるうどん　丸亀城西店",
            "type": "うどん",
            "area": "中讃地区",
            "address": "香川県丸亀市城西町二丁目1番7号",
            "tel": "0877-21-6188",
            "lat": "34.28303979",
            "lng": "133.79645260"
        },
        {
            "name": "はなまるうどん　高松中央インター店",
            "type": "うどん",
            "area": "高松地区",
            "address": "香川県高松市木太町9区571－3",
            "tel": "087-814-9870",
            "lat": "34.32011762",
            "lng": "134.06926172"
        },
        {
            "name": "はなまるうどん　イオンタウン観音寺店",
            "type": "うどん",
            "area": "西讃地区",
            "address": "香川県観音寺市昭和町1-3-18 ｲｵﾝﾀｳﾝ観音寺ｼｮｯﾋﾟﾝｸﾞｾﾝﾀｰ内",
            "tel": "0875-24-8704",
            "lat": "34.12258889",
            "lng": "133.65595054"
        },
        {
            "name": "はなまるうどん　木太店",
            "type": "うどん",
            "area": "高松地区",
            "address": "香川県高松市木太町1831-2",
            "tel": "087-812-3860",
            "lat": "34.32687249",
            "lng": "134.06871972"
        },
        {
            "name": "はなまるうどん　高松三条店",
            "type": "うどん",
            "area": "高松地区",
            "address": "香川県高松市三条町310－2",
            "tel": "087-815-0870",
            "lat": "34.31524293",
            "lng": "134.04628348"
        },
        {
            "name": "はなまるうどん　志度店",
            "type": "うどん",
            "area": "東讃地区",
            "address": "香川県さぬき市志度758",
            "tel": "087-814-2878",
            "lat": "34.32055709",
            "lng": "134.17759873"
        },
        {
            "name": "はなまるうどん　多肥店",
            "type": "うどん",
            "area": "高松地区",
            "address": "香川県高松市多肥下町433",
            "tel": "087-815-2625",
            "lat": "34.29824196",
            "lng": "134.05751737"
        },
        {
            "name": "れんげ料理店",
            "type": "その他和食｜居酒屋・バー",
            "area": "高松地区",
            "address": "香川県高松市田町1−11tsビル１f",
            "tel": "087-862-5611",
            "lat": "34.33841840",
            "lng": "134.04853739"
        },
        {
            "name": "こだわりとんかつ　山かつ高松店",
            "type": "その他洋食・西洋料理",
            "area": "高松地区",
            "address": "香川県高松市伏石町2167番地1",
            "tel": "087-868-7488",
            "lat": "34.30724938",
            "lng": "134.05728894"
        },
        {
            "name": "はなまるうどん　高松兵庫町店",
            "type": "うどん",
            "area": "高松地区",
            "address": "香川県高松市兵庫町10-1",
            "tel": "087-811-5870",
            "lat": "34.34617037",
            "lng": "134.04907874"
        },
        {
            "name": "こだわりとんかつ　山かつ屋島店",
            "type": "その他洋食・西洋料理",
            "area": "高松地区",
            "address": "香川県高松市春日町字片田1651-1",
            "tel": "087-841-0655",
            "lat": "34.33765486",
            "lng": "134.09207237"
        },
        {
            "name": "こだわりとんかつ　山かつ丸亀店",
            "type": "その他洋食・西洋料理",
            "area": "中讃地区",
            "address": "香川県丸亀市田村町字池の下961-1",
            "tel": "0877-22-8110",
            "lat": "34.26833590",
            "lng": "133.79730302"
        },
        {
            "name": "居酒屋　萬月",
            "type": "居酒屋・バー",
            "area": "西讃地区",
            "address": "香川県観音寺市観音寺町甲1213-12-2F",
            "tel": "0875-25-7053",
            "lat": "34.12680227",
            "lng": "133.65406750"
        },
        {
            "name": "まる笑",
            "type": "居酒屋・バー",
            "area": "中讃地区",
            "address": "香川県仲多度郡多度津町葛原永井47‐63",
            "tel": "0877-33-0440",
            "lat": "34.24960183",
            "lng": "133.76873948"
        },
        {
            "name": "大衆酒場　安兵衛",
            "type": "ラーメン｜焼鳥・串焼き｜居酒屋・バー",
            "area": "高松地区",
            "address": "香川県高松市西宝町1-17-41北海ビル1F",
            "tel": "087-837-5333",
            "lat": "34.34485076",
            "lng": "134.02462204"
        },
        {
            "name": "Hawaiian Moana Cafe",
            "type": "その他洋食・西洋料理｜カフェ・スイーツカフェ｜喫茶・軽食",
            "area": "高松地区",
            "address": "香川県高松市屋島西町2471番地11",
            "tel": "087-843-2103",
            "lat": "34.35173941",
            "lng": "134.09144702"
        },
        {
            "name": "根っこうどん",
            "type": "うどん",
            "area": "高松地区",
            "address": "香川県高松市三谷町270-1",
            "tel": "087-888-0448",
            "lat": "34.27735010",
            "lng": "134.07615910"
        },
        {
            "name": "こぶた食堂",
            "type": "カフェ・スイーツカフェ｜喫茶・軽食",
            "area": "西讃地区",
            "address": "香川県観音寺市三本松町2丁目9-33",
            "tel": "0875-23-7323",
            "lat": "34.12274990",
            "lng": "133.64183826"
        },
        {
            "name": "小豆島ラーメンhishio　エンジェルロード店",
            "type": "ラーメン",
            "area": "小豆地区",
            "address": "香川県小豆郡土庄町甲２４－１８",
            "tel": "0879-62-8720",
            "lat": "34.48122543",
            "lng": "134.18323974"
        },
        {
            "name": "お休み処　ことひき",
            "type": "カフェ・スイーツカフェ｜喫茶・軽食",
            "area": "西讃地区",
            "address": "香川県観音寺市有明町3-36",
            "tel": "0875-23-0055",
            "lat": "34.13077394",
            "lng": "133.64363809"
        },
        {
            "name": "カフェEST",
            "type": "喫茶・軽食",
            "area": "高松地区",
            "address": "香川県高松市香川町川東下871-10",
            "tel": "087-879-0604",
            "lat": "34.24619518",
            "lng": "134.02395714"
        },
        {
            "name": "あかね総本店",
            "type": "焼鳥・串焼き｜居酒屋・バー",
            "area": "高松地区",
            "address": "香川県高松市松縄町1003-7　レインボータウン1F",
            "tel": "087-814-3131",
            "lat": "34.32066474",
            "lng": "134.06251793"
        },
        {
            "name": "さぬき庵",
            "type": "うどん｜丼もの",
            "area": "小豆地区",
            "address": "香川県小豆郡小豆島町安田甲１４３－４２",
            "tel": "0879-82-5717",
            "lat": "34.47872354",
            "lng": "134.31523229"
        },
        {
            "name": "三河屋",
            "type": "居酒屋・バー",
            "area": "高松地区",
            "address": "香川県高松市百間町1-13",
            "tel": "087-822-3669",
            "lat": "34.34538436",
            "lng": "134.05163690"
        },
        {
            "name": "とりの助　観音寺店",
            "type": "ラーメン",
            "area": "西讃地区",
            "address": "香川県観音寺市吉岡町279",
            "tel": "0875-23-6869",
            "lat": "34.12579103",
            "lng": "133.68829779"
        },
        {
            "name": "ラーメン居酒屋　よーいドン",
            "type": "ラーメン｜天ぷら・揚げ物｜焼鳥・串焼き｜丼もの｜居酒屋・バー",
            "area": "高松地区",
            "address": "香川県高松市兵庫町4-7",
            "tel": "087-822-4011",
            "lat": "34.34675641",
            "lng": "134.04699277"
        },
        {
            "name": "とりの助　さぬき浜街道丸亀店",
            "type": "ラーメン",
            "area": "中讃地区",
            "address": "香川県丸亀市蓬莱町56-1　パブリックプラザ内",
            "tel": "0877-85-3215",
            "lat": "34.29453270",
            "lng": "133.78497568"
        },
        {
            "name": "グリルレストラン モカ",
            "type": "ステーキ・ハンバーグ・鉄板焼き｜洋食・欧風料理",
            "area": "西讃地区",
            "address": "香川県観音寺市植田町1683-5",
            "tel": "0875-25-4433",
            "lat": "34.12751317",
            "lng": "133.66939367"
        },
        {
            "name": "炭火之館　楽宴",
            "type": "焼肉・ホルモン・ジンギスカン",
            "area": "西讃地区",
            "address": "香川県観音寺市本大町1473-4",
            "tel": "0875-25-2955",
            "lat": "34.13365113",
            "lng": "133.69773022"
        },
        {
            "name": "ひろ濱うどん",
            "type": "うどん",
            "area": "中讃地区",
            "address": "香川県仲多度郡多度津町堀江2-6-34",
            "tel": "0877-32-4455",
            "lat": "34.27871753",
            "lng": "133.75496244"
        },
        {
            "name": "シーズクラブ",
            "type": "ステーキ・ハンバーグ・鉄板焼き｜パスタ・ピザ｜洋食・欧風料理｜イタリアン・バール｜カフェ・スイーツカフェ｜喫茶・軽食",
            "area": "中讃地区",
            "address": "香川県仲多度郡多度津町堀江5-2-8　2階",
            "tel": "0877-32-3083",
            "lat": "34.28140332",
            "lng": "133.75690941"
        },
        {
            "name": "旅館　竹屋敷　お食事処　はなみずき",
            "type": "うどん｜そば｜天ぷら・揚げ物｜喫茶・軽食",
            "area": "東讃地区",
            "address": "香川県さぬき市多和竹屋敷123-1",
            "tel": "0878-56-2288",
            "lat": "34.17609652",
            "lng": "134.18531078"
        },
        {
            "name": "元祖　野球鳥　おかむら",
            "type": "焼鳥・串焼き",
            "area": "高松地区",
            "address": "香川県高松市古馬場町13-20",
            "tel": "087-851-0290",
            "lat": "34.34208193",
            "lng": "134.05231198"
        },
        {
            "name": "居酒屋　だい橙",
            "type": "居酒屋・バー",
            "area": "高松地区",
            "address": "香川県高松市牟礼町大町1197-1",
            "tel": "087-818-9555",
            "lat": "34.33572703",
            "lng": "134.15053369"
        },
        {
            "name": "ホルモン　でん縁",
            "type": "焼肉・ホルモン・ジンギスカン",
            "area": "高松地区",
            "address": "香川県高松市松縄町1090-11",
            "tel": "087-868-3726",
            "lat": "34.31566524",
            "lng": "134.06173227"
        },
        {
            "name": "くいもんや　おか村",
            "type": "懐石・会席・割烹・小料理｜その他和食｜天ぷら・揚げ物｜居酒屋・バー",
            "area": "高松地区",
            "address": "香川県高松市瓦町1-11-11渡辺ビル1F",
            "tel": "087-842-1455",
            "lat": "34.34111813",
            "lng": "134.05012884"
        },
        {
            "name": "焼肉　道草",
            "type": "焼肉・ホルモン・ジンギスカン",
            "area": "小豆地区",
            "address": "香川県小豆郡小豆島町安田甲144-180",
            "tel": "0879-82-1006",
            "lat": "34.47854018",
            "lng": "134.31182979"
        },
        {
            "name": "味処　一亭",
            "type": "懐石・会席・割烹・小料理",
            "area": "西讃地区",
            "address": "香川県観音寺市観音寺町甲3099番地1",
            "tel": "0875-25-2158",
            "lat": "34.12995465",
            "lng": "133.65290931"
        },
        {
            "name": "原起苑",
            "type": "焼肉・ホルモン・ジンギスカン",
            "area": "西讃地区",
            "address": "香川県観音寺市流岡町1292番地1",
            "tel": "0875-24-0251",
            "lat": "34.12916293",
            "lng": "133.67372938"
        },
        {
            "name": "喫茶　オリーブの木",
            "type": "喫茶・軽食",
            "area": "西讃地区",
            "address": "香川県観音寺市植田町26-1",
            "tel": "0875-25-9008",
            "lat": "34.12527721",
            "lng": "133.68570076"
        },
        {
            "name": "お食事処　水仙",
            "type": "懐石・会席・割烹・小料理｜寿司・海鮮料理・うなぎ｜天ぷら・揚げ物",
            "area": "高松地区",
            "address": "香川県高松市牟礼町牟礼266-4",
            "tel": "087-845-6488",
            "lat": "34.33875177",
            "lng": "134.13760464"
        },
        {
            "name": "おかし工房Botan",
            "type": "カフェ・スイーツカフェ",
            "area": "西讃地区",
            "address": "香川県観音寺市粟井町4190-4",
            "tel": "0875-27-8478",
            "lat": "34.06770334",
            "lng": "133.72388834"
        },
        {
            "name": "昌来軒",
            "type": "居酒屋・バー",
            "area": "高松地区",
            "address": "香川県高松市西の丸町5−10",
            "tel": "087-821-7970",
            "lat": "34.34964776",
            "lng": "134.04608721"
        },
        {
            "name": "焼肉＆定食の店　カトウ",
            "type": "焼肉・ホルモン・ジンギスカン",
            "area": "西讃地区",
            "address": "観音寺市昭和町一丁目9-32-102",
            "tel": "0875-25-6717",
            "lat": "34.12130571",
            "lng": "133.65588109"
        },
        {
            "name": "磯の茶屋",
            "type": "懐石・会席・割烹・小料理｜洋食・欧風料理",
            "area": "西讃地区",
            "address": "香川県観音寺市坂本町5丁目18番40号",
            "tel": "0875-25-5151",
            "lat": "34.12231948",
            "lng": "133.65900573"
        },
        {
            "name": "洋菓子店　クルール",
            "type": "カフェ・スイーツカフェ",
            "area": "西讃地区",
            "address": "香川県観音寺市池之尻町526",
            "tel": "0875-23-6676",
            "lat": "34.11641993",
            "lng": "133.69706972"
        },
        {
            "name": "鮮馬刺し　さくら",
            "type": "その他和食",
            "area": "西讃地区",
            "address": "香川県観音寺市中田井町1018-7",
            "tel": "0875-27-9808",
            "lat": "34.12162762",
            "lng": "133.70203588"
        },
        {
            "name": "寿司・割烹　くろだ",
            "type": "懐石・会席・割烹・小料理｜寿司・海鮮料理・うなぎ｜天ぷら・揚げ物",
            "area": "西讃地区",
            "address": "香川県観音寺市観音寺町甲3013-1",
            "tel": "0875-25-2823",
            "lat": "34.12854374",
            "lng": "133.65072348"
        },
        {
            "name": "串かつ　翔",
            "type": "天ぷら・揚げ物｜焼鳥・串焼き",
            "area": "西讃地区",
            "address": "香川県観音寺市天神町1丁目6-37　福留ビル1F",
            "tel": "080-4998-5252",
            "lat": "34.12959353",
            "lng": "133.66143610"
        },
        {
            "name": "かなくま餅",
            "type": "うどん",
            "area": "西讃地区",
            "address": "香川県観音寺市植田町35番地2",
            "tel": "0875-25-3044",
            "lat": "34.12436066",
            "lng": "133.68608131"
        },
        {
            "name": "焼肉　せんりゅう",
            "type": "焼肉・ホルモン・ジンギスカン",
            "area": "西讃地区",
            "address": "香川県観音寺市植田町764-1",
            "tel": "0875-23-0810",
            "lat": "34.12239703",
            "lng": "133.68243160"
        },
        {
            "name": "お好み焼き ふろーら",
            "type": "お好み焼き・たこ焼き",
            "area": "西讃地区",
            "address": "香川県観音寺市柞田町甲2199番地13",
            "tel": "0875-25-6086",
            "lat": "34.11902821",
            "lng": "133.65642543"
        },
        {
            "name": "カマ喜ri",
            "type": "うどん",
            "area": "西讃地区",
            "address": "香川県観音寺市柞田町甲46-3",
            "tel": "0875-24-8288",
            "lat": "34.11278996",
            "lng": "133.66891873"
        },
        {
            "name": "北角 （ノースポイント）",
            "type": "居酒屋・バー",
            "area": "高松地区",
            "address": "香川県高松市西の丸町1-26大川バスビルBF",
            "tel": "050-3467-4925",
            "lat": "34.35102263",
            "lng": "134.04822591"
        },
        {
            "name": "瀬戸内季節料理　魚夏",
            "type": "懐石・会席・割烹・小料理｜寿司・海鮮料理・うなぎ｜天ぷら・揚げ物｜すき焼き・しゃぶしゃぶ｜丼もの",
            "area": "高松地区",
            "address": "香川県高松市高松町2593",
            "tel": "087-841-9667",
            "lat": "34.33767714",
            "lng": "134.10609318"
        },
        {
            "name": "ホルモン焼肉　絶好調",
            "type": "焼肉・ホルモン・ジンギスカン｜居酒屋・バー",
            "area": "中讃地区",
            "address": "香川県丸亀市土器町東一丁目807番地",
            "tel": "090-9777-0290",
            "lat": "34.29079181",
            "lng": "133.81541146"
        },
        {
            "name": "デルカフェ",
            "type": "ステーキ・ハンバーグ・鉄板焼き",
            "area": "高松地区",
            "address": "香川県高松市三条町106-6",
            "tel": "087-814-5451",
            "lat": "34.31178214",
            "lng": "134.04461163"
        },
        {
            "name": "めんや七福　別邸",
            "type": "うどん",
            "area": "中讃地区",
            "address": "香川県坂出市川津町3355-2",
            "tel": "090-1997-1975",
            "lat": "34.29512980",
            "lng": "133.85001126"
        },
        {
            "name": "めんや七福　高松店",
            "type": "うどん",
            "area": "高松地区",
            "address": "香川県高松市天神前6－10佐藤ビル１Ｆ",
            "tel": "087-802-1975",
            "lat": "34.33844337",
            "lng": "134.04458484"
        },
        {
            "name": "キッチンMa Ma",
            "type": "洋食・欧風料理",
            "area": "高松地区",
            "address": "香川県高松市福田町12-10 中條ビル1f",
            "tel": "087-821-1991",
            "lat": "34.34033768",
            "lng": "134.05397026"
        },
        {
            "name": "日本料理　澤",
            "type": "懐石・会席・割烹・小料理",
            "area": "高松地区",
            "address": "香川県高松市片原町6-1片原町ビル一階",
            "tel": "087-873-2131",
            "lat": "34.34533160",
            "lng": "134.05446170"
        },
        {
            "name": "カフェ　メモリー",
            "type": "喫茶・軽食",
            "area": "東讃地区",
            "address": "香川県東かがわ市湊１８２７番地３",
            "tel": "0879-25-3325",
            "lat": "34.24539389",
            "lng": "134.35956709"
        },
        {
            "name": "良酒屋　握Goo",
            "type": "その他麺類｜その他和食｜寿司・海鮮料理・うなぎ｜天ぷら・揚げ物｜すき焼き・しゃぶしゃぶ｜おでん｜郷土料理｜丼もの｜居酒屋・バー",
            "area": "高松地区",
            "address": "香川県高松市上天神町757握Goo",
            "tel": "087-868-3669",
            "lat": "34.30755743",
            "lng": "134.03645667"
        },
        {
            "name": "Kaina",
            "type": "その他麺類｜パスタ・ピザ｜イタリアン・バール｜喫茶・軽食",
            "area": "小豆地区",
            "address": "香川県小豆郡小豆島町堀越甲456-1",
            "tel": "0879-82-0022",
            "lat": "34.45822217",
            "lng": "134.30265043"
        },
        {
            "name": "Saints Breakfast and Burgers",
            "type": "ハンバーガー｜カフェ・スイーツカフェ｜定食・食堂",
            "area": "小豆地区",
            "address": "香川県小豆郡土庄町甲270-2",
            "tel": "0879-61-9201",
            "lat": "34.48122543",
            "lng": "134.18323974"
        },
        {
            "name": "うていや",
            "type": "焼肉・ホルモン・ジンギスカン｜居酒屋・バー",
            "area": "西讃地区",
            "address": "香川県観音寺市大野原町花稲485番地3",
            "tel": "0875-52-5343",
            "lat": "34.09020065",
            "lng": "133.63909174"
        },
        {
            "name": "海鮮うまいもんや　浜海道　多度津本店",
            "type": "寿司・海鮮料理・うなぎ",
            "area": "中讃地区",
            "address": "香川県仲多度郡多度津町堀江3-6-6",
            "tel": "0877-32-3131",
            "lat": "34.28013958",
            "lng": "133.75563734"
        },
        {
            "name": "海鮮うまいもんや　浜海道　春日本店",
            "type": "寿司・海鮮料理・うなぎ",
            "area": "高松地区",
            "address": "香川県高松市春日町1644-2",
            "tel": "087-844-8788",
            "lat": "34.33763263",
            "lng": "134.08990038"
        },
        {
            "name": "海鮮うまいもんや　浜海道　高松南店",
            "type": "寿司・海鮮料理・うなぎ",
            "area": "高松地区",
            "address": "香川県高松市一宮町1528-3",
            "tel": "087-815-6466",
            "lat": "34.29144190",
            "lng": "134.01935818"
        },
        {
            "name": "海鮮うまいもんや　浜海道　鍛冶屋町店",
            "type": "寿司・海鮮料理・うなぎ",
            "area": "高松地区",
            "address": "香川県高松市鍛冶屋町1-15",
            "tel": "087-821-3135",
            "lat": "34.34333733",
            "lng": "134.04882051"
        },
        {
            "name": "飯依比古",
            "type": "懐石・会席・割烹・小料理",
            "area": "高松地区",
            "address": "香川県高松市西宝町3-5-10",
            "tel": "087-861-5580",
            "lat": "34.34255099",
            "lng": "134.02516924"
        },
        {
            "name": "鮮魚鉄板バル　マレマレ　ワイン酒場",
            "type": "スペイン料理・バル",
            "area": "高松地区",
            "address": "香川県高松市鍛冶屋町1-15",
            "tel": "087-802-5580",
            "lat": "34.34333733",
            "lng": "134.04882051"
        },
        {
            "name": "魚ばぁさんの食堂　おくどさん　一宮店",
            "type": "定食・食堂",
            "area": "高松地区",
            "address": "香川県高松市一宮町1541-8",
            "tel": "087-886-3125",
            "lat": "34.29116692",
            "lng": "134.01862212"
        },
        {
            "name": "魚ばぁさんの食堂　おくどさん　屋島店",
            "type": "定食・食堂",
            "area": "高松地区",
            "address": "香川県高松市高松町3009-1",
            "tel": "087-841-3135",
            "lat": "34.33955751",
            "lng": "134.10977054"
        },
        {
            "name": "さぬき母めしカフェ",
            "type": "カフェ・スイーツカフェ｜喫茶・軽食｜定食・食堂",
            "area": "高松地区",
            "address": "香川県高松市香南町岡1270-13",
            "tel": "087-808-8280",
            "lat": "34.22261942",
            "lng": "134.01918216"
        },
        {
            "name": "中西うどん",
            "type": "うどん",
            "area": "高松地区",
            "address": "香川県高松市鹿角町899-3",
            "tel": "087-885-1568",
            "lat": "34.29821921",
            "lng": "134.02753255"
        },
        {
            "name": "魚ばぁさんの食堂　おくどさん　レインボー店",
            "type": "定食・食堂",
            "area": "高松地区",
            "address": "香川県高松市上福岡町2022-3",
            "tel": "087-831-3135",
            "lat": "34.32735853",
            "lng": "134.06405624"
        },
        {
            "name": "たわら屋　南新町店",
            "type": "天ぷら・揚げ物｜ステーキ・ハンバーグ・鉄板焼き",
            "area": "高松地区",
            "address": "香川県高松市南新町11-5",
            "tel": "087-861-5626",
            "lat": "34.34078760",
            "lng": "134.04953445"
        },
        {
            "name": "若だんな",
            "type": "寿司・海鮮料理・うなぎ｜天ぷら・揚げ物｜丼もの｜定食・食堂",
            "area": "西讃地区",
            "address": "香川県三豊市詫間町詫間680-38",
            "tel": "0875-83-5919",
            "lat": "34.22053724",
            "lng": "133.67793192"
        },
        {
            "name": "海鮮食堂　おくどさん　イオンタウン宇多津店",
            "type": "定食・食堂",
            "area": "中讃地区",
            "address": "香川県綾歌郡宇多津町浜二番丁16　イオンタウン宇多津1階",
            "tel": "0877-85-3212",
            "lat": "34.30832304",
            "lng": "133.81037237"
        },
        {
            "name": "おりじん",
            "type": "居酒屋・バー",
            "area": "高松地区",
            "address": "香川県高松市百間町1-6　YIビル１階",
            "tel": "087-822-2707",
            "lat": "34.34530936",
            "lng": "134.05183967"
        },
        {
            "name": "ハンドインハンド",
            "type": "カフェ・スイーツカフェ｜喫茶・軽食",
            "area": "西讃地区",
            "address": "香川県三豊市仁尾町仁尾乙203番地3",
            "tel": "090-6289-4690",
            "lat": "34.18929382",
            "lng": "133.64910858"
        },
        {
            "name": "ホテルパールガーデン内レストラン　瀬戸の花",
            "type": "懐石・会席・割烹・小料理｜その他和食｜寿司・海鮮料理・うなぎ｜天ぷら・揚げ物｜洋食・欧風料理｜フレンチ・ビストロ｜その他洋食・西洋料理｜喫茶・軽食",
            "area": "高松地区",
            "address": "香川県高松市福岡町2-2-1",
            "tel": "087-821-8500",
            "lat": "34.34677594",
            "lng": "134.06461084"
        },
        {
            "name": "Cafe　Ta蔵",
            "type": "ハンバーガー｜その他洋食・西洋料理｜カフェ・スイーツカフェ｜喫茶・軽食｜定食・食堂",
            "area": "西讃地区",
            "address": "香川県三豊市豊中町上高野259-2",
            "tel": "0875-62-6828",
            "lat": "34.13661478",
            "lng": "133.71577307"
        },
        {
            "name": "まごころ",
            "type": "うどん",
            "area": "中讃地区",
            "address": "香川県丸亀市蓬莱町55番地3",
            "tel": "0877-24-3330",
            "lat": "34.29586858",
            "lng": "133.78162600"
        },
        {
            "name": "味感　真寿美",
            "type": "懐石・会席・割烹・小料理｜天ぷら・揚げ物｜郷土料理｜丼もの｜ステーキ・ハンバーグ・鉄板焼き",
            "area": "中讃地区",
            "address": "香川県丸亀市今津町566番地5",
            "tel": "0877-25-5102",
            "lat": "34.27929282",
            "lng": "133.78015994"
        },
        {
            "name": "創作和食　わっはっは",
            "type": "その他和食｜居酒屋・バー",
            "area": "高松地区",
            "address": "香川県高松市丸亀町11-3 スミレビル2F",
            "tel": "087-822-8533",
            "lat": "34.34334845",
            "lng": "134.05008987"
        },
        {
            "name": "かき徳",
            "type": "寿司・海鮮料理・うなぎ",
            "area": "中讃地区",
            "address": "香川県善通寺市善通寺町六丁目6-1",
            "tel": "0877-62-0477",
            "lat": "34.22778216",
            "lng": "133.77699724"
        },
        {
            "name": "季節料理　どちらいか",
            "type": "寿司・海鮮料理・うなぎ",
            "area": "高松地区",
            "address": "香川県高松市鍛冶屋町1-8　なかむらビル１F",
            "tel": "087-851-9105",
            "lat": "34.34362897",
            "lng": "134.04907882"
        },
        {
            "name": "ホテル福屋　カフェレスト　桔梗",
            "type": "喫茶・軽食",
            "area": "高松地区",
            "address": "香川県高松市古新町5-8",
            "tel": "087-851-2365",
            "lat": "34.34622867",
            "lng": "134.04593729"
        },
        {
            "name": "丸亀ミロクブルワリー",
            "type": "その他",
            "area": "中讃地区",
            "address": "香川県丸亀市北平山町二丁目5番15号",
            "tel": "0877-43-7067",
            "lat": "34.29647990",
            "lng": "133.79661880"
        },
        {
            "name": "ログキッチン　アメリー",
            "type": "喫茶・軽食",
            "area": "西讃地区",
            "address": "香川県観音寺市南町2丁目3-7",
            "tel": "0875-88-9055",
            "lat": "34.12058080",
            "lng": "133.65043728"
        },
        {
            "name": "Patissier Yama",
            "type": "カフェ・スイーツカフェ",
            "area": "高松地区",
            "address": "香川県高松市福岡町1-7-17",
            "tel": "087-851-1165",
            "lat": "34.34435397",
            "lng": "134.06243889"
        },
        {
            "name": "さぬき温泉",
            "type": "定食・食堂",
            "area": "高松地区",
            "address": "香川県高松市塩江町安原上東2065-1",
            "tel": "087-893-0300",
            "lat": "34.15549528",
            "lng": "134.10351054"
        },
        {
            "name": "中華そば　浦島",
            "type": "ラーメン",
            "area": "西讃地区",
            "address": "香川県観音寺市栄町2-4-5",
            "tel": "0875-23-1347",
            "lat": "34.12278887",
            "lng": "133.64855143"
        },
        {
            "name": "魚七",
            "type": "懐石・会席・割烹・小料理",
            "area": "中讃地区",
            "address": "香川県善通寺市上吉田町二丁目5番26号",
            "tel": "0877-62-0006",
            "lat": "34.22976252",
            "lng": "133.78440761"
        },
        {
            "name": "ターコイズケバブ",
            "type": "その他アジア・エスニック料理",
            "area": "高松地区",
            "address": "香川県高松市南新町5-1",
            "tel": "087-880-4065",
            "lat": "34.33974882",
            "lng": "134.04908452"
        },
        {
            "name": "割烹　寿賀",
            "type": "懐石・会席・割烹・小料理｜ステーキ・ハンバーグ・鉄板焼き",
            "area": "西讃地区",
            "address": "香川県観音寺市昭和町1-7-11",
            "tel": "0875-24-0475",
            "lat": "34.12150013",
            "lng": "133.65405075"
        },
        {
            "name": "IRISHPUB THE CRAIC",
            "type": "洋食・欧風料理",
            "area": "高松地区",
            "address": "香川県高松市西の丸町7-8　２F",
            "tel": "080-5089-5735",
            "lat": "34.34957278",
            "lng": "134.04795930"
        },
        {
            "name": "焼肉きんぐ　イオンタウン宇多津店",
            "type": "焼肉・ホルモン・ジンギスカン",
            "area": "中讃地区",
            "address": "香川県綾歌郡宇多津町浜二番丁16",
            "tel": "0877-35-7863",
            "lat": "34.30832304",
            "lng": "133.81037237"
        },
        {
            "name": "食楽苑　金魚",
            "type": "焼肉・ホルモン・ジンギスカン",
            "area": "高松地区",
            "address": "香川県高松市瓦町1-2-4 グルメ館ビル7F",
            "tel": "087-822-3036",
            "lat": "34.34169030",
            "lng": "134.05112597"
        },
        {
            "name": "寺カフェ＆遍路グッズ　梧桐庵",
            "type": "うどん｜丼もの｜カレー｜カフェ・スイーツカフェ｜喫茶・軽食",
            "area": "西讃地区",
            "address": "香川県観音寺市八幡町1-2-7",
            "tel": "0875-24-6869",
            "lat": "34.13447071",
            "lng": "133.64785150"
        },
        {
            "name": "器屋茶房　がらん堂",
            "type": "喫茶・軽食",
            "area": "西讃地区",
            "address": "香川県観音寺市観音寺町甲1087-60",
            "tel": "0875-25-2432",
            "lat": "34.12831598",
            "lng": "133.65312597"
        },
        {
            "name": "さすらいのカンテキ高松クラフトビール酒場",
            "type": "焼肉・ホルモン・ジンギスカン",
            "area": "高松地区",
            "address": "香川県高松市西の丸町7-5",
            "tel": "050-5360-5714",
            "lat": "34.34963666",
            "lng": "134.04793708"
        },
        {
            "name": "生パスタ工房　アルボーレ　太田店",
            "type": "パスタ・ピザ",
            "area": "高松地区",
            "address": "香川県高松市太田下町3003-2",
            "tel": "087-867-3130",
            "lat": "34.30791593",
            "lng": "134.05258377"
        },
        {
            "name": "瀬戸内　海のもん　とといち",
            "type": "寿司・海鮮料理・うなぎ",
            "area": "高松地区",
            "address": "香川県高松市鍛冶屋町4-18",
            "tel": "087-811-0301",
            "lat": "34.34290960",
            "lng": "134.04899274"
        },
        {
            "name": "寿司処　福家",
            "type": "懐石・会席・割烹・小料理｜寿司・海鮮料理・うなぎ｜天ぷら・揚げ物",
            "area": "高松地区",
            "address": "香川県高松市古馬場町6-15",
            "tel": "087-823-9356",
            "lat": "34.34277074",
            "lng": "134.05224807"
        },
        {
            "name": "Quatre Quarts",
            "type": "カフェ・スイーツカフェ",
            "area": "高松地区",
            "address": "香川県高松市林町2007-1",
            "tel": "087-865-4727",
            "lat": "34.30875214",
            "lng": "134.07254532"
        },
        {
            "name": "炭火焼肉　行天",
            "type": "焼肉・ホルモン・ジンギスカン",
            "area": "西讃地区",
            "address": "香川県観音寺市観音寺町甲3046　2Ｆ",
            "tel": "0875-25-3264",
            "lat": "34.12896868",
            "lng": "133.65115120"
        },
        {
            "name": "骨付鳥　観音寺",
            "type": "その他和食｜郷土料理｜喫茶・軽食｜居酒屋・バー",
            "area": "西讃地区",
            "address": "香川県観音寺市観音寺町甲1235　1F",
            "tel": "0875-23-3210",
            "lat": "34.12552742",
            "lng": "133.65457297"
        },
        {
            "name": "天然温泉　きらら",
            "type": "ファミレス",
            "area": "高松地区",
            "address": "香川県高松市一宮町800-1",
            "tel": "087-815-6622",
            "lat": "34.28837301",
            "lng": "134.03061078"
        },
        {
            "name": "和食　輝てん",
            "type": "懐石・会席・割烹・小料理",
            "area": "高松地区",
            "address": "香川県高松市林町6-29",
            "tel": "087-814-5551",
            "lat": "34.29358140",
            "lng": "134.06306669"
        },
        {
            "name": "お食事処　久松",
            "type": "居酒屋・バー｜定食・食堂",
            "area": "西讃地区",
            "address": "香川県観音寺市村黒町238-1",
            "tel": "0875-25-6422",
            "lat": "34.13071546",
            "lng": "133.67869564"
        },
        {
            "name": "骨付き鳥　鳥生",
            "type": "居酒屋・バー",
            "area": "西讃地区",
            "address": "香川県三豊市詫間町詫間",
            "tel": "0875-83-7050",
            "lat": "34.22077896",
            "lng": "133.67203265"
        },
        {
            "name": "居酒屋　かんだ",
            "type": "居酒屋・バー",
            "area": "高松地区",
            "address": "香川県高松市瓦町1-11-14",
            "tel": "087-831-7898",
            "lat": "34.34093204",
            "lng": "134.05068158"
        },
        {
            "name": "cafe　COCORO",
            "type": "喫茶・軽食",
            "area": "西讃地区",
            "address": "香川県観音寺市柞田町1633-1",
            "tel": "0875-25-0567",
            "lat": "34.11223176",
            "lng": "133.65198699"
        },
        {
            "name": "AL VECCHIO DUOMO",
            "type": "イタリアン・バール",
            "area": "高松地区",
            "address": "香川県高松市片原町浜田ビル１F",
            "tel": "087-802-3130",
            "lat": "34.34580098",
            "lng": "134.05182021"
        },
        {
            "name": "スパッカナポリ",
            "type": "パスタ・ピザ｜イタリアン・バール",
            "area": "高松地区",
            "address": "香川県高松市瓦町1-13-4",
            "tel": "087-831-6362",
            "lat": "34.34091539",
            "lng": "134.05266200"
        },
        {
            "name": "本マグロと海鮮旨処　魚神",
            "type": "懐石・会席・割烹・小料理",
            "area": "高松地区",
            "address": "香川県高松市春日町字南免170-1",
            "tel": "087-841-0001",
            "lat": "34.33765486",
            "lng": "134.09207237"
        },
        {
            "name": "御馳の介",
            "type": "焼鳥・串焼き｜居酒屋・バー",
            "area": "高松地区",
            "address": "香川県高松市鍛冶屋町4-10",
            "tel": "087-821-1006",
            "lat": "34.34313457",
            "lng": "134.04865387"
        },
        {
            "name": "津々浦々",
            "type": "居酒屋・バー",
            "area": "高松地区",
            "address": "香川県高松市瓦町1-11-11",
            "tel": "090-3785-2708",
            "lat": "34.34111813",
            "lng": "134.05012884"
        },
        {
            "name": "虎徹",
            "type": "懐石・会席・割烹・小料理",
            "area": "高松地区",
            "address": "香川県高松市鍛冶屋町4-1 フェスタⅡビル4F",
            "tel": "087-823-7701",
            "lat": "34.34300681",
            "lng": "134.04930383"
        },
        {
            "name": "寿司割烹　千寿",
            "type": "寿司・海鮮料理・うなぎ",
            "area": "高松地区",
            "address": "香川県高松市六条町482-1",
            "tel": "090-5144-6590",
            "lat": "34.29378992",
            "lng": "134.08119738"
        },
        {
            "name": "オアシス",
            "type": "パスタ・ピザ｜その他洋食・西洋料理｜カフェ・スイーツカフェ｜喫茶・軽食",
            "area": "小豆地区",
            "address": "香川県小豆郡土庄町上庄１９５３－７",
            "tel": "0879-62-2495",
            "lat": "34.48581897",
            "lng": "134.19075319"
        },
        {
            "name": "麺処希信",
            "type": "ラーメン",
            "area": "高松地区",
            "address": "香川県高松市瀬戸内町5-15",
            "tel": "087-813-4807",
            "lat": "34.34835058",
            "lng": "134.03594626"
        },
        {
            "name": "池まる餃子",
            "type": "餃子・肉まん｜居酒屋・バー",
            "area": "高松地区",
            "address": "香川県高松市太田上町898-8馬渕ショップ１階西側",
            "tel": "087-865-8625",
            "lat": "34.30031100",
            "lng": "134.04360465"
        },
        {
            "name": "洋菓子店　ブラン",
            "type": "カフェ・スイーツカフェ｜喫茶・軽食",
            "area": "西讃地区",
            "address": "香川県観音寺市坂本町7-1-1",
            "tel": "0875-23-1108",
            "lat": "34.12796320",
            "lng": "133.66094170"
        },
        {
            "name": "まきや",
            "type": "懐石・会席・割烹・小料理｜その他和食",
            "area": "西讃地区",
            "address": "香川県観音寺市茂木町５丁目8-6",
            "tel": "0875-25-2050",
            "lat": "34.13349581",
            "lng": "133.65805590"
        },
        {
            "name": "しゃぶ亭まる",
            "type": "すき焼き・しゃぶしゃぶ",
            "area": "高松地区",
            "address": "香川県高松市下田井町594-2",
            "tel": "087-847-5443",
            "lat": "34.28907666",
            "lng": "134.09191544"
        },
        {
            "name": "すし松",
            "type": "懐石・会席・割烹・小料理｜寿司・海鮮料理・うなぎ",
            "area": "西讃地区",
            "address": "香川県観音寺市栄町2-1-10",
            "tel": "0875-25-2888",
            "lat": "34.12329714",
            "lng": "133.65135111"
        },
        {
            "name": "かに通　高松バイパス店",
            "type": "その他和食",
            "area": "高松地区",
            "address": "香川県高松市林町2535-26",
            "tel": "087-868-7744",
            "lat": "34.30608015",
            "lng": "134.06809047"
        },
        {
            "name": "さぬき料理　あみ屋",
            "type": "寿司・海鮮料理・うなぎ｜居酒屋・バー",
            "area": "西讃地区",
            "address": "香川県観音寺市瀬戸町一丁目16-20",
            "tel": "0875-23-7088",
            "lat": "34.12225544",
            "lng": "133.63684156"
        },
        {
            "name": "Cafe・Gallery銀色",
            "type": "カフェ・スイーツカフェ｜喫茶・軽食",
            "area": "高松地区",
            "address": "香川県高松市南新町12-3",
            "tel": "087-802-4680",
            "lat": "34.34119589",
            "lng": "134.04968998"
        },
        {
            "name": "やぎひげcafe",
            "type": "カフェ・スイーツカフェ｜喫茶・軽食",
            "area": "西讃地区",
            "address": "香川県観音寺市観音寺町甲2918-17",
            "tel": "0875-25-5717",
            "lat": "34.12732445",
            "lng": "133.64987635"
        },
        {
            "name": "味どころ　はちの木",
            "type": "懐石・会席・割烹・小料理",
            "area": "高松地区",
            "address": "香川県高松市屋島西町2492-33",
            "tel": "087-800-6651",
            "lat": "34.34842312",
            "lng": "134.08915011"
        },
        {
            "name": "自然派ワイン居酒屋　ガブマル食堂",
            "type": "居酒屋・バー",
            "area": "高松地区",
            "address": "香川県高松市御坊町9-5",
            "tel": "087-821-3008",
            "lat": "34.34322625",
            "lng": "134.05176753"
        },
        {
            "name": "焼肉　大黒天",
            "type": "焼肉・ホルモン・ジンギスカン",
            "area": "高松地区",
            "address": "香川県高松市御坊町9-2",
            "tel": "087-823-6678",
            "lat": "34.34326513",
            "lng": "134.05161754"
        },
        {
            "name": "とり鉄　高松古馬場店",
            "type": "焼鳥・串焼き",
            "area": "高松地区",
            "address": "香川県高松市古馬場町8-1　ヘンミビル１F",
            "tel": "050-5449-7114",
            "lat": "34.34282906",
            "lng": "134.05029543"
        },
        {
            "name": "378base　志らいはなれ",
            "type": "居酒屋・バー",
            "area": "西讃地区",
            "address": "香川県観音寺市吉岡町837番地8　1F",
            "tel": "0875-23-7900",
            "lat": "34.13502874",
            "lng": "133.68913640"
        },
        {
            "name": "UCCカフェプラザ　COM高松店",
            "type": "喫茶・軽食",
            "area": "高松地区",
            "address": "香川県高松市浜ノ町1-20ＣＯＭ高松2F",
            "tel": "087-811-6120",
            "lat": "34.35075043",
            "lng": "134.04685380"
        },
        {
            "name": "がん太鮨",
            "type": "寿司・海鮮料理・うなぎ",
            "area": "西讃地区",
            "address": "香川県観音寺市栄町2-7-4",
            "tel": "0875-24-1664",
            "lat": "34.12329992",
            "lng": "133.65046232"
        },
        {
            "name": "ブランチカフェ　ルクプル",
            "type": "カフェ・スイーツカフェ",
            "area": "高松地区",
            "address": "香川県高松市国分寺町福家甲645-1",
            "tel": "087-874-0422",
            "lat": "34.27159944",
            "lng": "133.97529636"
        },
        {
            "name": "白栄堂　柳町本店　カフェ",
            "type": "カフェ・スイーツカフェ",
            "area": "西讃地区",
            "address": "香川県観音寺市観音寺町甲1125-7",
            "tel": "0875-25-3888",
            "lat": "34.12945194",
            "lng": "133.65255380"
        },
        {
            "name": "骨付鳥　参蔵",
            "type": "焼鳥・串焼き",
            "area": "西讃地区",
            "address": "香川県観音寺市坂本町1丁目2-12",
            "tel": "0875-24-8425",
            "lat": "34.12689111",
            "lng": "133.66098891"
        },
        {
            "name": "洋風レストラン　エリエール　高松空港店",
            "type": "うどん｜ラーメン｜その他和食｜天ぷら・揚げ物｜焼鳥・串焼き｜お好み焼き・たこ焼き｜丼もの｜パスタ・ピザ｜洋食・欧風料理｜カレー｜カフェ・スイーツカフェ｜喫茶・軽食｜ファミレス｜定食・食堂",
            "area": "高松地区",
            "address": "香川県高松市香南町岡1312",
            "tel": "087-814-3483",
            "lat": "34.21901739",
            "lng": "134.02013237"
        },
        {
            "name": "居酒屋　しば",
            "type": "居酒屋・バー",
            "area": "西讃地区",
            "address": "香川県観音寺市大野原町大野原2946番地2",
            "tel": "0875-54-4301",
            "lat": "34.09824429",
            "lng": "133.65913660"
        },
        {
            "name": "和風彩館　季の屋　高松東バイパス店",
            "type": "懐石・会席・割烹・小料理｜その他和食｜寿司・海鮮料理・うなぎ｜天ぷら・揚げ物｜すき焼き・しゃぶしゃぶ｜郷土料理｜丼もの｜ステーキ・ハンバーグ・鉄板焼き",
            "area": "高松地区",
            "address": "香川県高松市伏石町2154-7",
            "tel": "087-867-3077",
            "lat": "34.30639397",
            "lng": "134.06323276"
        },
        {
            "name": "ハレハレコーヒー",
            "type": "カフェ・スイーツカフェ",
            "area": "西讃地区",
            "address": "香川県観音寺市流岡町1347-5　1F",
            "tel": "0875-25-3728",
            "lat": "34.13842005",
            "lng": "133.67062123"
        },
        {
            "name": "とっと家",
            "type": "焼鳥・串焼き",
            "area": "西讃地区",
            "address": "香川県観音寺市観音寺町甲2937-14",
            "tel": "0875-25-7002",
            "lat": "34.12694671",
            "lng": "133.65077901"
        },
        {
            "name": "大衆酒場　百崎商店",
            "type": "焼鳥・串焼き｜居酒屋・バー",
            "area": "高松地区",
            "address": "香川県高松市西の丸町2-9",
            "tel": "087-802-1256",
            "lat": "34.35046158",
            "lng": "134.04781207"
        },
        {
            "name": "番丁うどん",
            "type": "うどん",
            "area": "高松地区",
            "address": "香川県高松市番町4丁目14-26",
            "tel": "087-833-8076",
            "lat": "34.34060978",
            "lng": "134.04198492"
        },
        {
            "name": "中津万象園　味処　懐風亭",
            "type": "懐石・会席・割烹・小料理",
            "area": "中讃地区",
            "address": "香川県丸亀市中津町25番地1",
            "tel": "0877-23-2266",
            "lat": "34.28512804",
            "lng": "133.76969696"
        },
        {
            "name": "雅流酒房みるぽわ",
            "type": "居酒屋・バー",
            "area": "高松地区",
            "address": "香川県高松市古馬場町7-21 AKビル1F",
            "tel": "087-823-0860",
            "lat": "34.34310959",
            "lng": "134.05042318"
        },
        {
            "name": "百番松縄店",
            "type": "焼鳥・串焼き",
            "area": "高松地区",
            "address": "香川県高松市松縄町41-20",
            "tel": "087-868-7713",
            "lat": "34.32244513",
            "lng": "134.06405655"
        },
        {
            "name": "中國酒家",
            "type": "中華料理・飲茶｜餃子・肉まん｜その他中華料理",
            "area": "高松地区",
            "address": "香川県高松市常磐町2-2-1　グレートサクセスビル１階",
            "tel": "087-862-5586",
            "lat": "34.33822676",
            "lng": "134.05002896"
        },
        {
            "name": "CHOCOLAT CHOCOLAT COFFEE",
            "type": "カフェ・スイーツカフェ｜喫茶・軽食",
            "area": "東讃地区",
            "address": "香川県さぬき市志度1887-1",
            "tel": "087-813-6565",
            "lat": "34.32106556",
            "lng": "134.18468379"
        },
        {
            "name": "LA DIVENTARE",
            "type": "イタリアン・バール",
            "area": "高松地区",
            "address": "香川県高松市鍛冶屋町1-9",
            "tel": "087-822-2390",
            "lat": "34.34360119",
            "lng": "134.04901494"
        },
        {
            "name": "CHOCOLAT CHOCOLAT COFFEE　フジ志度店",
            "type": "カフェ・スイーツカフェ｜喫茶・軽食",
            "area": "東讃地区",
            "address": "香川県さぬき市志度2431-1",
            "tel": "087-814-6321",
            "lat": "34.31563543",
            "lng": "134.17116354"
        },
        {
            "name": "琴弾廻廊",
            "type": "懐石・会席・割烹・小料理｜その他和食｜郷土料理｜ステーキ・ハンバーグ・鉄板焼き｜喫茶・軽食｜定食・食堂",
            "area": "西讃地区",
            "address": "香川県観音寺市有明町６番６号",
            "tel": "0875-24-4567",
            "lat": "34.13045446",
            "lng": "133.63901631"
        },
        {
            "name": "和牛肉割烹　匠路",
            "type": "懐石・会席・割烹・小料理｜すき焼き・しゃぶしゃぶ｜ステーキ・ハンバーグ・鉄板焼き",
            "area": "高松地区",
            "address": "香川県高松市亀井町３－１",
            "tel": "087-897-4777",
            "lat": "34.34135699",
            "lng": "134.04910112"
        },
        {
            "name": "肉力JAPAN楽椿",
            "type": "焼肉・ホルモン・ジンギスカン",
            "area": "高松地区",
            "address": "香川県高松市磨屋町9−1 ダダビル２F",
            "tel": "087-826-2202",
            "lat": "34.34485662",
            "lng": "134.04878157"
        },
        {
            "name": "からあげ酒場　武田家",
            "type": "天ぷら・揚げ物｜居酒屋・バー｜定食・食堂｜その他",
            "area": "高松地区",
            "address": "香川県高松市一宮町933-2",
            "tel": "087-880-5721",
            "lat": "34.29356136",
            "lng": "134.02927174"
        },
        {
            "name": "創業1968年 伝説のホルモンと輝く神タンの焼肉正",
            "type": "焼肉・ホルモン・ジンギスカン",
            "area": "高松地区",
            "address": "香川県高松市多肥下町1519-16",
            "tel": "087-802-9123",
            "lat": "34.30268035",
            "lng": "134.05440632"
        },
        {
            "name": "umie",
            "type": "カフェ・スイーツカフェ",
            "area": "高松地区",
            "address": "香川県高松市北浜町3-2",
            "tel": "087-811-7455",
            "lat": "34.35116987",
            "lng": "134.05630584"
        },
        {
            "name": "さろんぶるー",
            "type": "その他洋食・西洋料理｜カフェ・スイーツカフェ｜居酒屋・バー",
            "area": "高松地区",
            "address": "香川県高松市北浜町5-5 5階",
            "tel": "087-813-0204",
            "lat": "34.35073381",
            "lng": "134.05708635"
        },
        {
            "name": "厨や　かぼちゃ",
            "type": "居酒屋・バー",
            "area": "高松地区",
            "address": "香川県高松市福田町14-14",
            "tel": "087-823-3025",
            "lat": "34.34047932",
            "lng": "134.05304532"
        },
        {
            "name": "グリル　プランチャ",
            "type": "ステーキ・ハンバーグ・鉄板焼き",
            "area": "高松地区",
            "address": "香川県高松市丸亀町11-3スミレビル2階",
            "tel": "087-822-8525",
            "lat": "34.34334845",
            "lng": "134.05008987"
        },
        {
            "name": "グリル　アターブル",
            "type": "ステーキ・ハンバーグ・鉄板焼き",
            "area": "高松地区",
            "address": "香川県高松市鍛冶屋町4-1フェスタ２ビル２階",
            "tel": "087-826-2627",
            "lat": "34.34300681",
            "lng": "134.04930383"
        },
        {
            "name": "味の樹",
            "type": "懐石・会席・割烹・小料理｜その他和食｜寿司・海鮮料理・うなぎ｜天ぷら・揚げ物｜すき焼き・しゃぶしゃぶ｜郷土料理",
            "area": "高松地区",
            "address": "香川県高松市大工町1-5",
            "tel": "087-851-0868",
            "lat": "34.34493995",
            "lng": "134.05109529"
        },
        {
            "name": "sima sima",
            "type": "喫茶・軽食｜無国籍・多国籍",
            "area": "高松地区",
            "address": "香川県高松市松福町2-11-2",
            "tel": "090-2824-9111",
            "lat": "34.34145430",
            "lng": "134.06716082"
        },
        {
            "name": "くまキッチン",
            "type": "喫茶・軽食｜定食・食堂",
            "area": "西讃地区",
            "address": "香川県観音寺市柞田町乙2364",
            "tel": "0875-24-9110",
            "lat": "34.10276879",
            "lng": "133.64386592"
        },
        {
            "name": "カフェ　しるく",
            "type": "カフェ・スイーツカフェ｜喫茶・軽食",
            "area": "高松地区",
            "address": "香川県高松市鶴市町168",
            "tel": "080-2991-0469",
            "lat": "34.32684934",
            "lng": "134.00352358"
        },
        {
            "name": "うわさの麵蔵",
            "type": "うどん",
            "area": "高松地区",
            "address": "香川県高松市御厩町1121-5",
            "tel": "087-885-2111",
            "lat": "34.30358740",
            "lng": "133.98531233"
        },
        {
            "name": "咄々々",
            "type": "カレー｜カフェ・スイーツカフェ｜喫茶・軽食",
            "area": "西讃地区",
            "address": "香川県三豊市豊中町岡本６１９－１",
            "tel": "0875-82-9191",
            "lat": "34.14826023",
            "lng": "133.67902593"
        },
        {
            "name": "HAKO珈琲",
            "type": "カレー｜カフェ・スイーツカフェ｜喫茶・軽食",
            "area": "西讃地区",
            "address": "香川県三豊市豊中町岡本６１９－１",
            "tel": "0875-82-9191",
            "lat": "34.14826023",
            "lng": "133.67902593"
        },
        {
            "name": "御料理　綾瀬",
            "type": "懐石・会席・割烹・小料理｜定食・食堂",
            "area": "中讃地区",
            "address": "香川県綾歌郡綾川町陶2185-1",
            "tel": "087-876-8070",
            "lat": "34.26214503",
            "lng": "133.94990177"
        },
        {
            "name": "喫茶＆御食事処　オレンジハウス",
            "type": "カフェ・スイーツカフェ｜喫茶・軽食",
            "area": "中讃地区",
            "address": "香川県綾歌郡綾川町北696-1",
            "tel": "087-876-3188",
            "lat": "34.23345911",
            "lng": "133.92234676"
        },
        {
            "name": "地中カフェ",
            "type": "カフェ・スイーツカフェ",
            "area": "高松地区",
            "address": "香川県香川郡直島町直島町3449-1",
            "tel": "087-892-2558",
            "lat": "34.45982790",
            "lng": "133.99569470"
        },
        {
            "name": "テラスレストラン　海の星　Etoile de la mer",
            "type": "フレンチ・ビストロ",
            "area": "高松地区",
            "address": "香川県香川郡直島町直島町364番地１",
            "tel": "087-892-2573",
            "lat": "34.45982790",
            "lng": "133.99569470"
        },
        {
            "name": "ミュージアムカフェ",
            "type": "カフェ・スイーツカフェ",
            "area": "高松地区",
            "address": "香川県香川郡直島町直島町364番地１",
            "tel": "087-892-2018",
            "lat": "34.45982790",
            "lng": "133.99569470"
        },
        {
            "name": "オーバル　Bar",
            "type": "居酒屋・バー",
            "area": "高松地区",
            "address": "香川県香川郡直島町直島町364番地１",
            "tel": "087-892-2018",
            "lat": "34.45982790",
            "lng": "133.99569470"
        },
        {
            "name": "日本料理　田",
            "type": "懐石・会席・割烹・小料理",
            "area": "高松地区",
            "address": "香川県高松市牟礼町牟礼23-4",
            "tel": "087-845-3989",
            "lat": "34.33865454",
            "lng": "134.13931559"
        },
        {
            "name": "海鮮居酒屋　神童ろ",
            "type": "寿司・海鮮料理・うなぎ｜郷土料理｜居酒屋・バー",
            "area": "高松地区",
            "address": "香川県高松市西の丸町５－８",
            "tel": "087-821-3330",
            "lat": "34.34958110",
            "lng": "134.04612610"
        },
        {
            "name": "さかな屋さんの居酒屋　北島商店酒場",
            "type": "寿司・海鮮料理・うなぎ｜郷土料理｜居酒屋・バー",
            "area": "高松地区",
            "address": "香川県高松市兵庫町４－９",
            "tel": "087-802-1757",
            "lat": "34.34675640",
            "lng": "134.04689000"
        },
        {
            "name": "寿し　海鮮酒場　酔灯屋",
            "type": "寿司・海鮮料理・うなぎ｜郷土料理｜居酒屋・バー",
            "area": "高松地区",
            "address": "香川県高松市西の丸町１３－７　３Ｆ",
            "tel": "087-822-1688",
            "lat": "34.34891728",
            "lng": "134.04636221"
        },
        {
            "name": "道の駅　小豆島ふるさと村",
            "type": "喫茶・軽食",
            "area": "小豆地区",
            "address": "香川県小豆郡小豆島町室生2084-1",
            "tel": "0879-75-2266",
            "lat": "34.47103852",
            "lng": "134.23607054"
        },
        {
            "name": "びっくりドンキー　高松林店",
            "type": "ステーキ・ハンバーグ・鉄板焼き｜洋食・欧風料理｜イタリアン・バール｜ファミレス",
            "area": "高松地区",
            "address": "香川県高松市林町2531-11",
            "tel": "087-865-1003",
            "lat": "34.30638011",
            "lng": "134.06642679"
        },
        {
            "name": "ミュージアムレストラン　日本料理　一扇",
            "type": "懐石・会席・割烹・小料理",
            "area": "高松地区",
            "address": "香川県香川郡直島町364-1",
            "tel": "087-892-2030",
            "lat": "34.45982790",
            "lng": "133.99569470"
        },
        {
            "name": "子子子",
            "type": "焼鳥・串焼き｜居酒屋・バー",
            "area": "高松地区",
            "address": "香川県高松市栗林町2丁目1-21",
            "tel": "087-834-6954",
            "lat": "34.33181074",
            "lng": "134.04793496"
        },
        {
            "name": "讃岐珈琲バル　瀬し香　レインボー店",
            "type": "洋食・欧風料理｜スペイン料理・バル｜カフェ・スイーツカフェ｜喫茶・軽食",
            "area": "高松地区",
            "address": "香川県高松市多肥下町1507-8",
            "tel": "087-868-6558",
            "lat": "34.30481074",
            "lng": "134.05782521"
        },
        {
            "name": "やきとり大吉　レインボー今里町",
            "type": "焼鳥・串焼き",
            "area": "高松地区",
            "address": "香川県高松市今里町2丁目15−19",
            "tel": "087-834-6160",
            "lat": "34.32446715",
            "lng": "134.06344537"
        },
        {
            "name": "Cafe　めのもっそ",
            "type": "喫茶・軽食",
            "area": "高松地区",
            "address": "香川県高松市香川町大野1484-1",
            "tel": "080-2997-1075",
            "lat": "34.26217038",
            "lng": "134.02462283"
        },
        {
            "name": "Shioya ダイナー",
            "type": "その他洋食・西洋料理",
            "area": "高松地区",
            "address": "香川県香川郡直島町直島町2227",
            "tel": "087-892-3290",
            "lat": "34.45982790",
            "lng": "133.99569470"
        },
        {
            "name": "山楽",
            "type": "ラーメン｜その他中華料理｜居酒屋・バー｜定食・食堂",
            "area": "東讃地区",
            "address": "香川県木田郡三木町池戸3317-1",
            "tel": "087-898-8338",
            "lat": "34.27811180",
            "lng": "134.11877873"
        },
        {
            "name": "焼肉牛星　高松空港通り店",
            "type": "焼肉・ホルモン・ジンギスカン",
            "area": "高松地区",
            "address": "香川県高松市鹿角町413-3",
            "tel": "087-899-7746",
            "lat": "34.29902762",
            "lng": "134.03449358"
        },
        {
            "name": "Cafe Le CoeuR",
            "type": "喫茶・軽食",
            "area": "高松地区",
            "address": "香川県高松市磨屋町10-5 O2ビル 2階",
            "tel": "087-822-7550",
            "lat": "34.34488162",
            "lng": "134.04907322"
        },
        {
            "name": "イルローザ　東かがわ店",
            "type": "カフェ・スイーツカフェ｜喫茶・軽食",
            "area": "東讃地区",
            "address": "香川県東かがわ市白鳥１１７",
            "tel": "0879-26-3433",
            "lat": "34.24404120",
            "lng": "134.35612021"
        },
        {
            "name": "ふたみ",
            "type": "カフェ・スイーツカフェ｜喫茶・軽食",
            "area": "高松地区",
            "address": "香川県高松市木太町1874-1みよしの住宅第1ビル1F",
            "tel": "087-880-0909",
            "lat": "34.32716969",
            "lng": "134.06983349"
        },
        {
            "name": "金の豚",
            "type": "焼肉・ホルモン・ジンギスカン｜韓国料理",
            "area": "中讃地区",
            "address": "香川県仲多度郡琴平町榎井560-1",
            "tel": "0877-89-1234",
            "lat": "34.19677716",
            "lng": "133.82199706"
        },
        {
            "name": "オステリア　エンネ",
            "type": "イタリアン・バール",
            "area": "高松地区",
            "address": "香川県高松市古馬場町1-11 北島ビル1階",
            "tel": "087-821-5433",
            "lat": "34.34325680",
            "lng": "134.05114257"
        },
        {
            "name": "吟の蔵",
            "type": "居酒屋・バー",
            "area": "東讃地区",
            "address": "香川県さぬき市志度1904-10",
            "tel": "087-894-2332",
            "lat": "34.31989069",
            "lng": "134.18340895"
        },
        {
            "name": "おばんざい笑家",
            "type": "懐石・会席・割烹・小料理｜その他和食｜寿司・海鮮料理・うなぎ｜天ぷら・揚げ物｜焼鳥・串焼き｜おでん｜郷土料理｜丼もの",
            "area": "中讃地区",
            "address": "香川県丸亀市土器町西5-257",
            "tel": "087-743-7357",
            "lat": "34.28309543",
            "lng": "133.81432578"
        },
        {
            "name": "てっぱんやき　さんて",
            "type": "お好み焼き・たこ焼き｜ステーキ・ハンバーグ・鉄板焼き｜フレンチ・ビストロ｜イタリアン・バール｜その他洋食・西洋料理｜居酒屋・バー",
            "area": "西讃地区",
            "address": "香川県三豊市詫間町詫間680-38",
            "tel": "090-2827-2983",
            "lat": "34.22053724",
            "lng": "133.67793192"
        },
        {
            "name": "焼肉　ことぶき",
            "type": "焼肉・ホルモン・ジンギスカン",
            "area": "高松地区",
            "address": "香川県高松市太田下町1387-1",
            "tel": "087-866-8929",
            "lat": "34.29981946",
            "lng": "134.04845182"
        },
        {
            "name": "澪たこ",
            "type": "お好み焼き・たこ焼き",
            "area": "高松地区",
            "address": "香川県高松市瓦町一丁目１２番８ASUKAビル２階",
            "tel": "087-831-6968",
            "lat": "34.34100148",
            "lng": "134.05152041"
        },
        {
            "name": "かつ福　高松春日店",
            "type": "丼もの",
            "area": "高松地区",
            "address": "香川県高松市春日町1670-1",
            "tel": "087-802-9014",
            "lat": "34.33528010",
            "lng": "134.09090592"
        },
        {
            "name": "珈琲 萌木",
            "type": "カフェ・スイーツカフェ",
            "area": "高松地区",
            "address": "香川県高松市郷東町117平成タクシー2階",
            "tel": "080-6384-0353",
            "lat": "34.34315910",
            "lng": "134.01698095"
        },
        {
            "name": "大正そば",
            "type": "ラーメン",
            "area": "高松地区",
            "address": "香川県高松市川島東町523-4",
            "tel": "087-848-6027",
            "lat": "34.27572011",
            "lng": "134.10049480"
        },
        {
            "name": "Setouchi Kitchen 父母ヶ浜",
            "type": "パスタ・ピザ｜フレンチ・ビストロ｜イタリアン・バール｜スペイン料理・バル｜カフェ・スイーツカフェ",
            "area": "西讃地区",
            "address": "香川県三豊市仁尾町仁尾乙271-3",
            "tel": "0875-23-7316",
            "lat": "34.19116305",
            "lng": "133.64920573"
        },
        {
            "name": "串かつ　べんべ",
            "type": "天ぷら・揚げ物｜居酒屋・バー",
            "area": "東讃地区",
            "address": "香川県さぬき市志度1053",
            "tel": "087-894-2281",
            "lat": "34.32179042",
            "lng": "134.18334512"
        },
        {
            "name": "onseん",
            "type": "パスタ・ピザ｜居酒屋・バー",
            "area": "高松地区",
            "address": "香川県高松市瓦町1-9-9瓦町ビル6階東側",
            "tel": "087-837-7726",
            "lat": "34.34116258",
            "lng": "134.05163428"
        },
        {
            "name": "gardeん",
            "type": "パスタ・ピザ｜カフェ・スイーツカフェ",
            "area": "高松地区",
            "address": "香川県高松市瓦町1-9-9瓦町ビル6階西側",
            "tel": "087-873-2015",
            "lat": "34.34116258",
            "lng": "134.05163428"
        },
        {
            "name": "お好み焼き　海っ子",
            "type": "お好み焼き・たこ焼き",
            "area": "高松地区",
            "address": "香川県香川郡直島町積浦4777-8",
            "tel": "087-892-2358",
            "lat": "34.44965705",
            "lng": "134.00397448"
        },
        {
            "name": "串打ち家　だいこく",
            "type": "焼鳥・串焼き｜居酒屋・バー",
            "area": "東讃地区",
            "address": "香川県木田郡三木町池戸3243-1",
            "tel": "087-891-1425",
            "lat": "34.27608719",
            "lng": "134.12199773"
        },
        {
            "name": "かすが町市場",
            "type": "うどん｜ラーメン｜そば",
            "area": "高松地区",
            "address": "香川県高松市春日町４５３－１",
            "tel": "087-843-9414",
            "lat": "34.32298413",
            "lng": "134.09098696"
        },
        {
            "name": "セルフうどん　キリン",
            "type": "うどん｜ラーメン｜そば",
            "area": "高松地区",
            "address": "香川県高松市新田町甲４－１",
            "tel": "087-841-0083",
            "lat": "34.33557455",
            "lng": "134.09736910"
        },
        {
            "name": "セルフうどん　天狗",
            "type": "うどん｜ラーメン｜そば",
            "area": "高松地区",
            "address": "香川県高松市小村町１６８－１",
            "tel": "087-848-6984",
            "lat": "34.28244977",
            "lng": "134.09887008"
        },
        {
            "name": "セルフうどん　とんぼ",
            "type": "うどん｜ラーメン｜そば",
            "area": "高松地区",
            "address": "香川県高松市牟礼町牟礼２８７－１",
            "tel": "087-845-4510",
            "lat": "34.33799074",
            "lng": "134.13876284"
        },
        {
            "name": "セルフうどん　エコぽん太",
            "type": "うどん｜ラーメン｜そば",
            "area": "高松地区",
            "address": "香川県高松市松島町２－９－５",
            "tel": "087-834-6608",
            "lat": "34.33802966",
            "lng": "134.06686655"
        },
        {
            "name": "セルフうどん　元気",
            "type": "うどん｜ラーメン｜そば",
            "area": "東讃地区",
            "address": "香川県さぬき市長尾東９２０－５",
            "tel": "0879-52-1117",
            "lat": "34.26522142",
            "lng": "134.17782162"
        },
        {
            "name": "セルフうどん　さくらんぼ",
            "type": "うどん｜ラーメン｜そば",
            "area": "高松地区",
            "address": "香川県高松市木太町１３２１",
            "tel": "087-865-3901",
            "lat": "34.32049538",
            "lng": "134.07260302"
        },
        {
            "name": "セルフうどん　富士山",
            "type": "うどん｜ラーメン｜そば",
            "area": "東讃地区",
            "address": "香川県さぬき市志度２４３１",
            "tel": "087-814-2230",
            "lat": "34.31612428",
            "lng": "134.17290773"
        },
        {
            "name": "なかむら",
            "type": "うどん",
            "area": "中讃地区",
            "address": "香川県丸亀市飯山町西坂元1373-3",
            "tel": "0877-98-4818",
            "lat": "34.26040899",
            "lng": "133.83574693"
        },
        {
            "name": "天婦羅天銀本店",
            "type": "天ぷら・揚げ物",
            "area": "高松地区",
            "address": "香川県高松市大工町2-17",
            "tel": "087-821-7439",
            "lat": "34.34468166",
            "lng": "134.05282295"
        },
        {
            "name": "天山閣　春日店",
            "type": "焼肉・ホルモン・ジンギスカン",
            "area": "高松地区",
            "address": "香川県高松市春日町川尻1026-1",
            "tel": "087-843-2929",
            "lat": "34.33765486",
            "lng": "134.09207237"
        },
        {
            "name": "天山閣　上吉田店",
            "type": "焼肉・ホルモン・ジンギスカン",
            "area": "中讃地区",
            "address": "香川県善通寺市上吉田町412-1",
            "tel": "0877-64-1129",
            "lat": "34.23448974",
            "lng": "133.78821280"
        },
        {
            "name": "天山閣　丸亀田村店",
            "type": "焼肉・ホルモン・ジンギスカン",
            "area": "中讃地区",
            "address": "香川県丸亀市田村町510番地",
            "tel": "0877-58-1729",
            "lat": "34.26712492",
            "lng": "133.79144530"
        },
        {
            "name": "天山閣　郷東店",
            "type": "焼肉・ホルモン・ジンギスカン",
            "area": "高松地区",
            "address": "香川県高松市郷東町2-13",
            "tel": "087-842-5455",
            "lat": "34.34435618",
            "lng": "134.01593104"
        },
        {
            "name": "九州炉端 弁慶 高松店",
            "type": "居酒屋・バー",
            "area": "高松地区",
            "address": "香川県高松市丸亀町12-7",
            "tel": "087-823-1020",
            "lat": "34.34379285",
            "lng": "134.05023984"
        },
        {
            "name": "瓦町個室　藁焼き×日本酒　龍馬",
            "type": "居酒屋・バー",
            "area": "高松地区",
            "address": "香川県高松市今新町1-14 3F",
            "tel": "087-851-1811",
            "lat": "34.34428169",
            "lng": "134.05159250"
        },
        {
            "name": "高松個室　肉割烹　牛若丸",
            "type": "居酒屋・バー",
            "area": "高松地区",
            "address": "香川県高松市今新町1-14 2F",
            "tel": "087-811-7771",
            "lat": "34.34428169",
            "lng": "134.05159250"
        },
        {
            "name": "萬燈珈琲店",
            "type": "パスタ・ピザ｜カフェ・スイーツカフェ",
            "area": "高松地区",
            "address": "香川県高松市国分寺町新居932-1",
            "tel": "087-899-7077",
            "lat": "34.29760765",
            "lng": "133.96846736"
        },
        {
            "name": "bistro de mieux en mieux",
            "type": "フレンチ・ビストロ",
            "area": "高松地区",
            "address": "香川県高松市古馬場町1-2nakamura第一ビル1階",
            "tel": "087-802-5707",
            "lat": "34.34332068",
            "lng": "134.05050373"
        },
        {
            "name": "炭火焼肉　味道源",
            "type": "焼肉・ホルモン・ジンギスカン",
            "area": "東讃地区",
            "address": "香川県東かがわ市三本松680-69",
            "tel": "0879-25-3336",
            "lat": "34.25160634",
            "lng": "134.33695821"
        },
        {
            "name": "東かがわ料理店　魚源",
            "type": "懐石・会席・割烹・小料理｜寿司・海鮮料理・うなぎ｜郷土料理｜居酒屋・バー",
            "area": "東讃地区",
            "address": "香川県東かがわ市三本松1176-1",
            "tel": "0879-26-9119",
            "lat": "34.25127295",
            "lng": "134.33359190"
        },
        {
            "name": "キャトル・ペーシュ",
            "type": "フレンチ・ビストロ",
            "area": "高松地区",
            "address": "香川県高松市郷東町784-5",
            "tel": "087-816-7777",
            "lat": "34.33960389",
            "lng": "134.01694759"
        },
        {
            "name": "三馬力　本店",
            "type": "居酒屋・バー",
            "area": "高松地区",
            "address": "香川県高松市新田町甲435-1",
            "tel": "087-844-3323",
            "lat": "34.32946130",
            "lng": "134.10517966"
        },
        {
            "name": "三馬力　多肥店（こはる食堂）",
            "type": "居酒屋・バー｜定食・食堂",
            "area": "高松地区",
            "address": "香川県高松市多肥上町711-8",
            "tel": "087-888-3788",
            "lat": "34.28823734",
            "lng": "134.05147658"
        },
        {
            "name": "安西製麺所",
            "type": "うどん｜ラーメン",
            "area": "高松地区",
            "address": "香川県高松市屋島西町2105-8西村ジョイ屋島店内",
            "tel": "087-843-6488",
            "lat": "34.34517071",
            "lng": "134.08800030"
        },
        {
            "name": "麦香うどん",
            "type": "うどん",
            "area": "中讃地区",
            "address": "香川県丸亀市綾歌町岡田上1898-3",
            "tel": "0877-86-2910",
            "lat": "34.21651145",
            "lng": "133.85776873"
        },
        {
            "name": "焼肉　やしま",
            "type": "焼肉・ホルモン・ジンギスカン",
            "area": "高松地区",
            "address": "香川県高松市高松町2292",
            "tel": "087-841-3778",
            "lat": "34.34199328",
            "lng": "134.11784771"
        },
        {
            "name": "ひな鶴",
            "type": "そば｜懐石・会席・割烹・小料理｜すき焼き・しゃぶしゃぶ",
            "area": "中讃地区",
            "address": "香川県善通寺市金蔵寺町816番地",
            "tel": "0877-62-1800",
            "lat": "34.24771323",
            "lng": "133.78031339"
        },
        {
            "name": "『肉山』高松",
            "type": "焼肉・ホルモン・ジンギスカン",
            "area": "高松地区",
            "address": "香川県高松市亀井町11-1　川田ビル１階",
            "tel": "087-832-2929",
            "lat": "34.33882391",
            "lng": "134.04846238"
        },
        {
            "name": "サーティワンアイスクリーム　ゆめタウン高松店",
            "type": "カフェ・スイーツカフェ",
            "area": "高松地区",
            "address": "高松市三条町608-1",
            "tel": "087-865-0758",
            "lat": "34.31699271",
            "lng": "134.04136675"
        },
        {
            "name": "ミスタードーナツ　ゆめタウン高松店",
            "type": "カフェ・スイーツカフェ",
            "area": "高松地区",
            "address": "香川県高松市三条町608-1",
            "tel": "087-869-7609",
            "lat": "34.31699271",
            "lng": "134.04136675"
        },
        {
            "name": "いしがまやハンバーグ　ゆめタウン高松店",
            "type": "ステーキ・ハンバーグ・鉄板焼き",
            "area": "高松地区",
            "address": "香川県高松市三条町608-1",
            "tel": "087-813-8335",
            "lat": "34.31699271",
            "lng": "134.04136675"
        },
        {
            "name": "お好み一番地　ゆめタウン高松店",
            "type": "お好み焼き・たこ焼き",
            "area": "高松地区",
            "address": "香川県高松市三条町608-1",
            "tel": "087-865-0291",
            "lat": "34.31699271",
            "lng": "134.04136675"
        },
        {
            "name": "焼肉松坂　国道店",
            "type": "焼肉・ホルモン・ジンギスカン",
            "area": "中讃地区",
            "address": "香川県善通寺市弘田町903-1",
            "tel": "0877-62-1129",
            "lat": "34.24026389",
            "lng": "133.75886281"
        },
        {
            "name": "酒どころ宴",
            "type": "居酒屋・バー",
            "area": "高松地区",
            "address": "香川県高松市古新町7-1　菊池ビル１階",
            "tel": "087-823-4808",
            "lat": "34.34572041",
            "lng": "134.04767608"
        },
        {
            "name": "焼肉五苑　観音寺",
            "type": "焼肉・ホルモン・ジンギスカン",
            "area": "西讃地区",
            "address": "香川県観音寺市吉岡町畔田11-1",
            "tel": "0875-25-7740",
            "lat": "34.13286235",
            "lng": "133.68959475"
        },
        {
            "name": "カレーハウスCoCo壱番屋　高松屋島店",
            "type": "カレー",
            "area": "高松地区",
            "address": "香川県高松市高松町3010-2",
            "tel": "087-843-7040",
            "lat": "34.33963804",
            "lng": "134.11204260"
        },
        {
            "name": "炭火焼肉　樹里庵",
            "type": "焼肉・ホルモン・ジンギスカン",
            "area": "中讃地区",
            "address": "香川県善通寺市善通寺町二丁目5番18号",
            "tel": "0877-62-2229",
            "lat": "34.22650453",
            "lng": "133.77864709"
        },
        {
            "name": "焼肉　寅八",
            "type": "焼肉・ホルモン・ジンギスカン",
            "area": "中讃地区",
            "address": "香川県丸亀市川西町北189番地1",
            "tel": "0877-35-9618",
            "lat": "34.25898691",
            "lng": "133.82630614"
        },
        {
            "name": "カレーハウスCoCo壱番屋　高松六条店",
            "type": "カレー",
            "area": "高松地区",
            "address": "香川県高松市六条町358-5",
            "tel": "087-847-1553",
            "lat": "34.30249176",
            "lng": "134.08317751"
        },
        {
            "name": "桃山亭　観音寺",
            "type": "うどん",
            "area": "西讃地区",
            "address": "香川県観音寺市流岡町971-1",
            "tel": "0875-23-1149",
            "lat": "34.13201248",
            "lng": "133.68444793"
        },
        {
            "name": "美食空間　朴",
            "type": "居酒屋・バー",
            "area": "中讃地区",
            "address": "香川県丸亀市郡家町654-3",
            "tel": "0877-28-9828",
            "lat": "34.24829084",
            "lng": "133.81074954"
        },
        {
            "name": "すし冨",
            "type": "懐石・会席・割烹・小料理｜寿司・海鮮料理・うなぎ",
            "area": "東讃地区",
            "address": "香川県木田郡三木町氷上301番地1",
            "tel": "087-898-2040",
            "lat": "34.26863619",
            "lng": "134.13362373"
        },
        {
            "name": "カレーハウスCoCo壱番屋　丸亀田村店",
            "type": "カレー",
            "area": "中讃地区",
            "address": "香川県丸亀市田村町528番地1",
            "tel": "0877-23-0533",
            "lat": "34.26772763",
            "lng": "133.79367284"
        },
        {
            "name": "桃山亭　丸亀本店",
            "type": "うどん",
            "area": "中讃地区",
            "address": "香川県丸亀市中府町一丁目5番1号",
            "tel": "0877-58-2771",
            "lat": "34.27746820",
            "lng": "133.79627781"
        },
        {
            "name": "ぶどうの木",
            "type": "喫茶・軽食",
            "area": "高松地区",
            "address": "香川県高松市百間町2-1",
            "tel": "087-822-2042",
            "lat": "34.34536491",
            "lng": "134.05202021"
        },
        {
            "name": "博多一番どり　高松中央",
            "type": "焼鳥・串焼き｜居酒屋・バー",
            "area": "高松地区",
            "address": "香川県高松市林町2531-8",
            "tel": "087-864-3270",
            "lat": "34.30673562",
            "lng": "134.06564076"
        },
        {
            "name": "OKONOMI ICHIBANCHI　ゆめタウン丸亀店",
            "type": "お好み焼き・たこ焼き",
            "area": "中讃地区",
            "address": "香川県丸亀市新田町150番地　ゆめタウン丸亀店3階",
            "tel": "0877-58-2235",
            "lat": "34.27356303",
            "lng": "133.78542626"
        },
        {
            "name": "ざいごうどん本家　わら家",
            "type": "うどん",
            "area": "高松地区",
            "address": "香川県高松市屋島中町91",
            "tel": "087-843-3115",
            "lat": "34.34397650",
            "lng": "134.10864550"
        },
        {
            "name": "割烹　よしや",
            "type": "懐石・会席・割烹・小料理",
            "area": "西讃地区",
            "address": "香川県観音寺市観音寺町甲3045",
            "tel": "0875-25-0048",
            "lat": "34.12895201",
            "lng": "133.65122619"
        },
        {
            "name": "カフェ　DUCE",
            "type": "カフェ・スイーツカフェ",
            "area": "高松地区",
            "address": "香川県高松市牟礼町牟礼3720",
            "tel": "087-845-5854",
            "lat": "34.35518048",
            "lng": "134.12358631"
        },
        {
            "name": "サーティワンアイスクリーム　ゆめタウン丸亀店",
            "type": "カフェ・スイーツカフェ",
            "area": "中讃地区",
            "address": "香川県丸亀市新田町150番地　ゆめタウン丸亀店3階",
            "tel": "0877-58-2236",
            "lat": "34.27356303",
            "lng": "133.78542626"
        },
        {
            "name": "古馬場精肉店",
            "type": "焼肉・ホルモン・ジンギスカン",
            "area": "高松地区",
            "address": "香川県高松市古馬場町9-22",
            "tel": "087-851-0313",
            "lat": "34.34235412",
            "lng": "134.05231197"
        },
        {
            "name": "おいでまい　丸亀本店",
            "type": "焼鳥・串焼き｜居酒屋・バー",
            "area": "中讃地区",
            "address": "香川県丸亀市田村町1236-1",
            "tel": "0877-58-1860",
            "lat": "34.27138832",
            "lng": "133.79362829"
        },
        {
            "name": "洋食やまねこ",
            "type": "ステーキ・ハンバーグ・鉄板焼き｜洋食・欧風料理",
            "area": "西讃地区",
            "address": "香川県観音寺市本大町1054番地1",
            "tel": "0875-27-6422",
            "lat": "34.12632151",
            "lng": "133.70957403"
        },
        {
            "name": "さらさ",
            "type": "居酒屋・バー",
            "area": "高松地区",
            "address": "香川県高松市古馬場町9-8",
            "tel": "087-821-6922",
            "lat": "34.34251799",
            "lng": "134.05148980"
        },
        {
            "name": "オークラホテル丸亀　レ・セゾン",
            "type": "フレンチ・ビストロ",
            "area": "中讃地区",
            "address": "香川県丸亀市富士見町三丁目3番50号　オークラホテル丸亀1階",
            "tel": "0877-23-8299",
            "lat": "34.30680640",
            "lng": "133.79520475"
        },
        {
            "name": "やきとり　鳥新",
            "type": "焼鳥・串焼き",
            "area": "高松地区",
            "address": "香川県高松市古馬場町13-3",
            "tel": "087-822-5678",
            "lat": "34.34210970",
            "lng": "134.05145648"
        },
        {
            "name": "オークラホテル丸亀　四季亭",
            "type": "懐石・会席・割烹・小料理",
            "area": "中讃地区",
            "address": "香川県丸亀市富士見町三丁目3番50号　オークラホテル丸亀1階",
            "tel": "0877-23-0144",
            "lat": "34.30680640",
            "lng": "133.79520475"
        },
        {
            "name": "はや田",
            "type": "寿司・海鮮料理・うなぎ",
            "area": "高松地区",
            "address": "香川県高松市百間町1-14",
            "tel": "087-851-1315",
            "lat": "34.34537047",
            "lng": "134.05168134"
        },
        {
            "name": "オークラホテル丸亀　グリーンラウンジ",
            "type": "喫茶・軽食",
            "area": "中讃地区",
            "address": "香川県丸亀市富士見町三丁目3番50号　オークラホテル丸亀1階",
            "tel": "0877-23-8299",
            "lat": "34.30680640",
            "lng": "133.79520475"
        },
        {
            "name": "情熱ホルモン　丸亀中府酒場",
            "type": "焼肉・ホルモン・ジンギスカン",
            "area": "中讃地区",
            "address": "香川県丸亀市中府町1-5-1",
            "tel": "0877-58-3590",
            "lat": "34.27746820",
            "lng": "133.79627781"
        },
        {
            "name": "みよし屋",
            "type": "焼鳥・串焼き",
            "area": "高松地区",
            "address": "香川県高松市田町1-4",
            "tel": "087-862-1619",
            "lat": "34.33836008",
            "lng": "134.04889570"
        },
        {
            "name": "魚料理　かぼちゃ",
            "type": "寿司・海鮮料理・うなぎ",
            "area": "中讃地区",
            "address": "香川県丸亀市富士見町五丁目12番5号",
            "tel": "0877-24-3324",
            "lat": "34.30822007",
            "lng": "133.79274110"
        },
        {
            "name": "しゃぶしゃぶ温野菜　丸亀田村",
            "type": "すき焼き・しゃぶしゃぶ",
            "area": "中讃地区",
            "address": "香川県丸亀市田村町1267",
            "tel": "0877-35-8480",
            "lat": "34.26967462",
            "lng": "133.79247291"
        },
        {
            "name": "骨付鳥　鍋  花音",
            "type": "居酒屋・バー",
            "area": "中讃地区",
            "address": "香川県丸亀市土器町東七丁目804番地　詫間ビル2階",
            "tel": "0877-22-4722",
            "lat": "34.29459692",
            "lng": "133.80721771"
        },
        {
            "name": "ミケイラ",
            "type": "イタリアン・バール｜カフェ・スイーツカフェ",
            "area": "高松地区",
            "address": "香川県高松市サンポート8-40",
            "tel": "087-811-5357",
            "lat": "34.35613597",
            "lng": "134.04761197"
        },
        {
            "name": "にせんべろ　毛遊び",
            "type": "居酒屋・バー",
            "area": "中讃地区",
            "address": "香川県丸亀市浜町25番地1　秋山店舗ビル2階",
            "tel": "080-6388-4718",
            "lat": "34.29157487",
            "lng": "133.79388870"
        },
        {
            "name": "ミライザカ　高松南新町店",
            "type": "居酒屋・バー",
            "area": "高松地区",
            "address": "香川県高松市南新町12-5 タカラヤビル1・2F",
            "tel": "087-832-2955",
            "lat": "34.34108480",
            "lng": "134.04967332"
        },
        {
            "name": "遊食房屋　丸亀店",
            "type": "居酒屋・バー",
            "area": "中讃地区",
            "address": "香川県丸亀市西平山町277番地1",
            "tel": "0877-35-8566",
            "lat": "34.29581884",
            "lng": "133.79552172"
        },
        {
            "name": "セルフ釜あげうどん　岡じま　丸亀店",
            "type": "うどん",
            "area": "中讃地区",
            "address": "香川県丸亀市塩屋町三丁目11番24号",
            "tel": "0877-85-7225",
            "lat": "34.28660575",
            "lng": "133.77661844"
        },
        {
            "name": "三代目鳥メロ　高松南新町店",
            "type": "居酒屋・バー",
            "area": "高松地区",
            "address": "香川県高松市南新町12-5 タカラヤビル3F",
            "tel": "087-832-2966",
            "lat": "34.34108480",
            "lng": "134.04967332"
        },
        {
            "name": "囲味庵",
            "type": "居酒屋・バー",
            "area": "中讃地区",
            "address": "香川県丸亀市山北町652番地1",
            "tel": "0877-43-7588",
            "lat": "34.27764877",
            "lng": "133.80415479"
        },
        {
            "name": "しゃぶしゃぶ温野菜　観音寺",
            "type": "すき焼き・しゃぶしゃぶ",
            "area": "西讃地区",
            "address": "香川県観音寺市吉岡町932-1",
            "tel": "0875-23-6670",
            "lat": "34.13225410",
            "lng": "133.68691163"
        },
        {
            "name": "コリアンテーブルマダン",
            "type": "韓国料理",
            "area": "高松地区",
            "address": "香川県高松市瓦町2-12-8　１F",
            "tel": "087-802-2244",
            "lat": "34.33940720",
            "lng": "134.05101495"
        },
        {
            "name": "ラーメン屋　太箪",
            "type": "ラーメン",
            "area": "中讃地区",
            "address": "香川県丸亀市田村町613番地1",
            "tel": "0877-24-1033",
            "lat": "34.26679163",
            "lng": "133.79393395"
        },
        {
            "name": "ナチュール",
            "type": "カフェ・スイーツカフェ",
            "area": "高松地区",
            "address": "香川県高松市南新町13-5",
            "tel": "087-831-5232",
            "lat": "34.34143476",
            "lng": "134.04979274"
        },
        {
            "name": "izakayadining　月夜の舞",
            "type": "居酒屋・バー",
            "area": "西讃地区",
            "address": "香川県観音寺市村黒町756-12",
            "tel": "0875-24-8280",
            "lat": "34.13304582",
            "lng": "133.66468021"
        },
        {
            "name": "赤から　丸亀店",
            "type": "焼肉・ホルモン・ジンギスカン｜居酒屋・バー",
            "area": "中讃地区",
            "address": "香川県丸亀市土器町東一丁目62番地",
            "tel": "0877-85-7933",
            "lat": "34.28494523",
            "lng": "133.81887803"
        },
        {
            "name": "季節の外ごはん　Okibi",
            "type": "ステーキ・ハンバーグ・鉄板焼き｜その他洋食・西洋料理｜カレー｜カフェ・スイーツカフェ｜喫茶・軽食",
            "area": "西讃地区",
            "address": "香川県観音寺市柞田町乙2260-1",
            "tel": "0875-24-9686",
            "lat": "34.11156794",
            "lng": "133.65172591"
        },
        {
            "name": "小豆島オリーブ園　オリーブパレス　RestleA",
            "type": "その他麺類｜その他和食｜パスタ・ピザ",
            "area": "小豆地区",
            "address": "香川県小豆郡小豆島町西村甲２１７１番地",
            "tel": "0879-82-4260",
            "lat": "34.47132791",
            "lng": "134.27068619"
        },
        {
            "name": "びっくりドンキー　高松春日店",
            "type": "ステーキ・ハンバーグ・鉄板焼き｜パスタ・ピザ",
            "area": "高松地区",
            "address": "香川県高松市春日町1074-1",
            "tel": "087-870-0801",
            "lat": "34.33765486",
            "lng": "134.09207237"
        },
        {
            "name": "いきいきうどん　善通寺店",
            "type": "うどん",
            "area": "中讃地区",
            "address": "香川県善通寺市与北町3242番地1",
            "tel": "0877-56-5636",
            "lat": "34.23696167",
            "lng": "133.79221798"
        },
        {
            "name": "ふみやお好み焼　鍛冶屋町店",
            "type": "お好み焼き・たこ焼き",
            "area": "高松地区",
            "address": "香川県高松市鍛冶屋町4-5",
            "tel": "087-821-8299",
            "lat": "34.34307625",
            "lng": "134.04908717"
        },
        {
            "name": "だいや",
            "type": "懐石・会席・割烹・小料理",
            "area": "高松地区",
            "address": "香川県高松市円座町1063",
            "tel": "087-885-1101",
            "lat": "34.28990850",
            "lng": "134.00914493"
        },
        {
            "name": "やきとり　すぎ",
            "type": "焼鳥・串焼き",
            "area": "西讃地区",
            "address": "香川県観音寺市植田町1726-1番地1F-1",
            "tel": "0875-23-3886",
            "lat": "34.12786868",
            "lng": "133.67028247"
        },
        {
            "name": "お好み焼き　〇家",
            "type": "お好み焼き・たこ焼き",
            "area": "西讃地区",
            "address": "香川県観音寺市観音寺町甲3329-3",
            "tel": "0875-24-4056",
            "lat": "34.13101839",
            "lng": "133.65300929"
        },
        {
            "name": "カフェ　ミモカ",
            "type": "喫茶・軽食",
            "area": "中讃地区",
            "address": "香川県丸亀市浜町80番地1　丸亀市猪熊弦一郎現代美術館3階",
            "tel": "0877-35-9613",
            "lat": "34.29118045",
            "lng": "133.79213335"
        },
        {
            "name": "中華そば　源平",
            "type": "ラーメン",
            "area": "西讃地区",
            "address": "香川県観音寺市観音寺町甲2993",
            "tel": "0875-25-3431",
            "lat": "34.12759941",
            "lng": "133.65093734"
        },
        {
            "name": "カレーハウスCoCo壱番屋　香川国分寺店",
            "type": "カレー",
            "area": "高松地区",
            "address": "香川県高松市国分寺町新居1558",
            "tel": "087-864-9139",
            "lat": "34.30004632",
            "lng": "133.96407599"
        },
        {
            "name": "韓国居酒屋　明洞　古馬場町",
            "type": "韓国料理",
            "area": "高松地区",
            "address": "香川県高松市古馬場町7-13",
            "tel": "087-811-0939",
            "lat": "34.34298183",
            "lng": "134.05129257"
        },
        {
            "name": "リール",
            "type": "洋食・欧風料理",
            "area": "西讃地区",
            "address": "香川県観音寺市柞田町丙1060-1",
            "tel": "0875-82-9520",
            "lat": "34.10483526",
            "lng": "133.66580527"
        },
        {
            "name": "コメダ珈琲店　丸亀土器店",
            "type": "喫茶・軽食",
            "area": "中讃地区",
            "address": "香川県丸亀市土器町東四丁目815番地",
            "tel": "0877-35-8660",
            "lat": "34.29262494",
            "lng": "133.81443093"
        },
        {
            "name": "居酒屋　一心",
            "type": "ラーメン｜居酒屋・バー",
            "area": "西讃地区",
            "address": "香川県三豊市豊中町比地大1080-1",
            "tel": "0875-23-6850",
            "lat": "34.16769889",
            "lng": "133.69034955"
        },
        {
            "name": "カレーハウスCoCo壱番屋　高松茜町店",
            "type": "カレー",
            "area": "高松地区",
            "address": "香川県高松市茜町21-7",
            "tel": "087-863-6631",
            "lat": "34.34807540",
            "lng": "134.02340825"
        },
        {
            "name": "コメダ珈琲店　丸亀飯山店",
            "type": "喫茶・軽食",
            "area": "中讃地区",
            "address": "香川県丸亀市飯山町川原85番地5",
            "tel": "0877-23-3300",
            "lat": "34.26575281",
            "lng": "133.85097334"
        },
        {
            "name": "骨付鳥　じゅじゅ庵",
            "type": "居酒屋・バー｜その他",
            "area": "西讃地区",
            "address": "香川県観音寺市村黒町379-1",
            "tel": "0875-25-8801",
            "lat": "34.12946845",
            "lng": "133.67312387"
        },
        {
            "name": "カレーハウスCoCo壱番屋　観音寺本大町店",
            "type": "カレー",
            "area": "西讃地区",
            "address": "香川県観音寺市本大町1629番地1",
            "tel": "0875-57-5519",
            "lat": "34.13473989",
            "lng": "133.69418602"
        },
        {
            "name": "カレーハウスCoCo壱番屋　高松勅使店",
            "type": "カレー",
            "area": "高松地区",
            "address": "香川県高松市勅使町554-3",
            "tel": "087-868-8839",
            "lat": "34.30894861",
            "lng": "134.01857620"
        },
        {
            "name": "カレーハウスCoCo壱番屋　善通寺インター店",
            "type": "カレー",
            "area": "中讃地区",
            "address": "香川県善通寺市与北町3284-2",
            "tel": "0877-64-2303",
            "lat": "34.23710887",
            "lng": "133.79374007"
        },
        {
            "name": "オーキドホテル　アネモス",
            "type": "その他洋食・西洋料理｜その他",
            "area": "小豆地区",
            "address": "香川県小豆郡土庄町甲５１６５－２１６",
            "tel": "0879-62-5001",
            "lat": "34.48122543",
            "lng": "134.18323974"
        },
        {
            "name": "王将食堂",
            "type": "定食・食堂",
            "area": "東讃地区",
            "address": "香川県さぬき市鴨庄2573-3",
            "tel": "087-895-2325",
            "lat": "34.32353954",
            "lng": "134.20906477"
        },
        {
            "name": "道とん堀　高松レインボーロード店",
            "type": "お好み焼き・たこ焼き",
            "area": "高松地区",
            "address": "香川県高松市松縄町573-2",
            "tel": "087-816-8618",
            "lat": "34.31888714",
            "lng": "134.06252917"
        },
        {
            "name": "大渚亭　本店",
            "type": "懐石・会席・割烹・小料理｜その他和食｜寿司・海鮮料理・うなぎ｜天ぷら・揚げ物｜すき焼き・しゃぶしゃぶ｜丼もの｜定食・食堂",
            "area": "高松地区",
            "address": "香川県高松市高松町3005-4",
            "tel": "087-841-7111",
            "lat": "34.34022408",
            "lng": "134.11261476"
        },
        {
            "name": "浜味家",
            "type": "居酒屋・バー",
            "area": "中讃地区",
            "address": "香川県丸亀市福島町81番地　みなとビル1階",
            "tel": "0877-21-7615",
            "lat": "34.29375515",
            "lng": "133.79269987"
        },
        {
            "name": "大衆酒場　もとむら",
            "type": "居酒屋・バー",
            "area": "中讃地区",
            "address": "香川県丸亀市城東町三丁目8番16号",
            "tel": "0877-24-8635",
            "lat": "34.28961970",
            "lng": "133.80753176"
        },
        {
            "name": "スビマハル　観音寺店",
            "type": "カレー",
            "area": "西讃地区",
            "address": "香川県観音寺市吉岡町192-1",
            "tel": "0875-82-9353",
            "lat": "34.12871011",
            "lng": "133.68999204"
        },
        {
            "name": "大渚亭　別館",
            "type": "懐石・会席・割烹・小料理｜その他和食｜寿司・海鮮料理・うなぎ｜天ぷら・揚げ物｜すき焼き・しゃぶしゃぶ｜丼もの｜定食・食堂",
            "area": "高松地区",
            "address": "香川県高松市松縄町1089-7",
            "tel": "087-868-4612",
            "lat": "34.31703733",
            "lng": "134.06214879"
        },
        {
            "name": "珈琲倶楽部",
            "type": "喫茶・軽食",
            "area": "中讃地区",
            "address": "香川県丸亀市今津町259番地10",
            "tel": "0877-24-5925",
            "lat": "34.27610988",
            "lng": "133.78069054"
        },
        {
            "name": "お好み焼＆もんじゃ焼　おかげさん",
            "type": "お好み焼き・たこ焼き",
            "area": "中讃地区",
            "address": "香川県仲多度郡多度津町南鴨668-6",
            "tel": "0877-32-1233",
            "lat": "34.26460555",
            "lng": "133.76540342"
        },
        {
            "name": "季聞屋",
            "type": "お好み焼き・たこ焼き｜ステーキ・ハンバーグ・鉄板焼き",
            "area": "中讃地区",
            "address": "香川県丸亀市港町307番地",
            "tel": "0877-89-0620",
            "lat": "34.29636042",
            "lng": "133.79381355"
        },
        {
            "name": "道とん堀　丸亀パブリックプラザ店",
            "type": "お好み焼き・たこ焼き",
            "area": "中讃地区",
            "address": "香川県丸亀市蓬莱町56番地1　パブリックプラザ丸亀内",
            "tel": "0877-35-9008",
            "lat": "34.29453270",
            "lng": "133.78497568"
        },
        {
            "name": "和風料理　紅屋",
            "type": "懐石・会席・割烹・小料理｜その他和食｜寿司・海鮮料理・うなぎ",
            "area": "西讃地区",
            "address": "香川県観音寺市大野原町大野原1900-11",
            "tel": "0875-54-2226",
            "lat": "34.08762319",
            "lng": "133.66499197"
        },