{
    "data": [
        {
            "name": "台湾料理　四季旺　里庄店",
            "type": [
                "chinese"
            ],
            "address": "岡山県浅口郡里庄町里見3724-1",
            "tel": "086-564-6381",
            "regular_holiday": null,
            "lat": 34.5176047,
            "lng": 133.570128
        },
        {
            "name": "カフェ　ブルーマウンテン",
            "type": [
                "cafe"
            ],
            "address": "岡山県岡山市北区本町６−３６ 第一セントラルビル（1号館）地下１階",
            "tel": "086-222-0703",
            "regular_holiday": null,
            "lat": 34.66440464975818,
            "lng": 133.91938263046205
        },
        {
            "name": "和食小ぐり",
            "type": [
                "japanese"
            ],
            "address": "岡山県岡山市北区表町２丁目６−２７",
            "tel": "086-222-5996",
            "regular_holiday": null,
            "lat": 34.65966270270205,
            "lng": 133.929645717144
        },
        {
            "name": "居酒屋モンブラン",
            "type": [
                "izakaya"
            ],
            "address": "岡山県岡山市北区本町５−７ タマヤ宝石店",
            "tel": "086-226-3400",
            "regular_holiday": null,
            "lat": 34.66492759689622,
            "lng": 133.92094238257704
        },
        {
            "name": "ＣＨＩＣＫ",
            "type": [
                "diningbar"
            ],
            "address": "岡山県真庭市久世２６７１",
            "tel": "0867-42-0909",
            "regular_holiday": null,
            "lat": 35.078288201370086,
            "lng": 133.74796628952026
        },
        {
            "name": "ナマステ・ガネーシャ 津山店",
            "type": [
                "curry"
            ],
            "address": "岡山県津山市小田中１８５７−２",
            "tel": "086-823-0004",
            "regular_holiday": null,
            "lat": 35.06307191277844,
            "lng": 133.98620814085007
        },
        {
            "name": "Ｔｒａｔｔｏｒｉａ　Ｓｏｌｅ",
            "type": [
                "itarian"
            ],
            "address": "岡山県岡山市北区表町３丁目９−４２",
            "tel": "086-222-4077",
            "regular_holiday": null,
            "lat": 34.65871236083895,
            "lng": 133.92982877790928
        },
        {
            "name": "SUBWAYイオンモール岡山",
            "type": [
                "sandwich"
            ],
            "address": "岡山県岡山市北区下石井１丁目２−１",
            "tel": "086-206-7321",
            "regular_holiday": null,
            "lat": 34.661960760413166,
            "lng": 133.91869863859029
        },
        {
            "name": "スパイス王国 Group of Namaste Ganesha 十日市店",
            "type": [
                "curry"
            ],
            "address": "岡山県岡山市北区十日市西町１−１４",
            "tel": "086-224-2739",
            "regular_holiday": null,
            "lat": 34.63811655390214,
            "lng": 133.92602138221264
        },
        {
            "name": "ナマステ・ガネーシャ 水島店",
            "type": [
                "curry"
            ],
            "address": "岡山県倉敷市中畝２丁目１２−３６",
            "tel": "086-455-6444",
            "regular_holiday": null,
            "lat": 34.52675304447308,
            "lng": 133.74715626239777
        },
        {
            "name": "魚浅",
            "type": [
                "japanese"
            ],
            "address": "岡山県岡山市北区御津金川２９０−６",
            "tel": "086-724-0106",
            "regular_holiday": null,
            "lat": 34.79320206562033,
            "lng": 133.93423229455948
        },
        {
            "name": "ナマステ・ガネーシャ 上道店",
            "type": [
                "curry"
            ],
            "address": "岡山県岡山市東区上道北方７３０",
            "tel": "086-279-9090",
            "regular_holiday": null,
            "lat": 34.699080975933185,
            "lng": 134.0201810002327
        },
        {
            "name": "ベーカリーマーケット津山店",
            "type": [
                "cafe"
            ],
            "address": "岡山県津山市国分寺２５−１",
            "tel": "0868-20-1331",
            "regular_holiday": null,
            "lat": 35.05847782088479,
            "lng": 134.041308760643
        },
        {
            "name": "寿し茶屋　とっとんめ",
            "type": [
                "sushi"
            ],
            "address": "岡山県岡山市南区若葉町２０−２７",
            "tel": "086-264-2251",
            "regular_holiday": null,
            "lat": 34.61174484467976,
            "lng": 133.94409075379372
        },
        {
            "name": "ナマステ・ガネーシャ 倉敷店",
            "type": [
                "curry"
            ],
            "address": "岡山県倉敷市新田２８８４−６",
            "tel": "086-434-1166",
            "regular_holiday": null,
            "lat": 34.58120272232733,
            "lng": 133.77672761678696
        },
        {
            "name": "割烹　子元",
            "type": [
                "japanese"
            ],
            "address": "岡山県倉敷市玉島阿賀崎１丁目４−８",
            "tel": "086-522-3008",
            "regular_holiday": null,
            "lat": 34.54773050175565,
            "lng": 133.67537632584572
        },
        {
            "name": "創作ダイニング菜乃屋",
            "type": [
                "japanese"
            ],
            "address": "岡山県倉敷市西中新田２９８−２",
            "tel": "086-422-8778",
            "regular_holiday": "不定休",
            "lat": 34.5825994751104,
            "lng": 133.760427162051
        },
        {
            "name": "ナマステガネーシャ津山国分寺店",
            "type": [
                "curry"
            ],
            "address": "岡山県津山市国分寺11-1",
            "tel": "086-826-0007",
            "regular_holiday": null,
            "lat": 35.0586812,
            "lng": 134.0393087
        },
        {
            "name": "カジュアルレストラン　プリモピアット",
            "type": [
                "restaurant"
            ],
            "address": "岡山県岡山市東区可知５丁目１４０−２３",
            "tel": "086-237-0300",
            "regular_holiday": null,
            "lat": 34.658795647183695,
            "lng": 134.00864750146866
        },
        {
            "name": "ダイニング＆バー　ダナドゥア",
            "type": [
                "diningbar"
            ],
            "address": "岡山県倉敷市鶴形１丁目２−２８",
            "tel": "086-421-3270",
            "regular_holiday": null,
            "lat": 34.60126954168469,
            "lng": 133.76909606158733
        },
        {
            "name": "あぶり酒屋 ◯△□",
            "type": [
                "japanese"
            ],
            "address": "岡山県岡山市北区奉還町1-5-17 万町ビル1Ｆ",
            "tel": "086-254-7440",
            "regular_holiday": null,
            "lat": 34.6694164,
            "lng": 133.9183311
        },
        {
            "name": "焼肉　大将軍",
            "type": [
                "yakiniku"
            ],
            "address": "岡山県倉敷市児島味野２丁目２−３９",
            "tel": "086-472-6265",
            "regular_holiday": null,
            "lat": 34.46823549871661,
            "lng": 133.80278393626213
        },
        {
            "name": "桜草",
            "type": [
                "japanese"
            ],
            "address": "岡山県倉敷市本町３−１１",
            "tel": "086-426-5010",
            "regular_holiday": null,
            "lat": 34.59632118485317,
            "lng": 133.7723308056593
        },
        {
            "name": "城下カフェ",
            "type": [
                "cafe"
            ],
            "address": "岡山県岡山市北区表町１丁目１−７",
            "tel": "086-231-1800",
            "regular_holiday": null,
            "lat": 34.66524208721676,
            "lng": 133.92888732254505
        },
        {
            "name": "ぶっかけふるいちＪＲ岡山駅新幹線上りホーム店",
            "type": [
                "sobaudon"
            ],
            "address": "岡山県岡山市北区駅元町1-1　岡山駅構内",
            "tel": "086-212-0050",
            "regular_holiday": null,
            "lat": 34.6661378,
            "lng": 133.917669
        },
        {
            "name": "我がや",
            "type": [
                "izakaya"
            ],
            "address": "岡山県総社市駅前２丁目２−１０",
            "tel": "0866-90-1388",
            "regular_holiday": "日曜",
            "lat": 34.6727314176043,
            "lng": 133.739804327488
        },
        {
            "name": "焼鳥おかいち",
            "type": [
                "izakaya"
            ],
            "address": "岡山県岡山市北区柳町1-3-10",
            "tel": "086-238-7122",
            "regular_holiday": "日曜日",
            "lat": 34.6600957,
            "lng": 133.9214143
        },
        {
            "name": "吉野家　５３号線国体町店",
            "type": [
                "restaurant"
            ],
            "address": "岡山県岡山市北区南方５丁目１−２",
            "tel": "086-256-6487",
            "regular_holiday": null,
            "lat": 34.675193152713675,
            "lng": 133.9207649230957
        },
        {
            "name": "かつや倉敷浜ノ茶屋店",
            "type": [
                "restaurant"
            ],
            "address": "岡山県倉敷市浜ノ茶屋２５０",
            "tel": "086-441-2789",
            "regular_holiday": "無",
            "lat": 34.6138739622497,
            "lng": 133.769690841436
        },
        {
            "name": "かつや東岡山店",
            "type": [
                "restaurant"
            ],
            "address": "岡山県岡山市中区下４７０−３",
            "tel": "086-206-1737",
            "regular_holiday": null,
            "lat": 34.68281281789598,
            "lng": 133.99371430277824
        },
        {
            "name": "豚龍ラーメン",
            "type": [
                "ramen"
            ],
            "address": "岡山県倉敷市阿知１丁目７−２",
            "tel": "086-425-6425",
            "regular_holiday": null,
            "lat": 34.60096817779748,
            "lng": 133.7654060125351
        },
        {
            "name": "いろりや　月天",
            "type": [
                "izakaya"
            ],
            "address": "岡山県岡山市北区本町2-13　竹広ビル４F",
            "tel": "086-234-3086",
            "regular_holiday": null,
            "lat": 34.6650944,
            "lng": 133.9212953
        },
        {
            "name": "Bar　今宵月のもとに",
            "type": [
                "diningbar"
            ],
            "address": "岡山県倉敷市阿知２丁目２−７",
            "tel": "086-476-4770",
            "regular_holiday": null,
            "lat": 34.60070090298393,
            "lng": 133.76757969196242
        },
        {
            "name": "中華飯店　桃園",
            "type": [
                "chinese"
            ],
            "address": "岡山県美作市竹田３７",
            "tel": "0868-75-2184",
            "regular_holiday": null,
            "lat": 35.00842609989493,
            "lng": 134.2452907562256
        },
        {
            "name": "焼肉　韓龍",
            "type": [
                "yakiniku"
            ],
            "address": "岡山県美作市湯郷１８４−１２",
            "tel": "0868-72-8929",
            "regular_holiday": "木曜日",
            "lat": 34.9947925837532,
            "lng": 134.138100296259
        },
        {
            "name": "日本料理三粋",
            "type": [
                "japanese"
            ],
            "address": "岡山県岡山市北区田町1-2-27　ソーラービル一階",
            "tel": "086-231-1200",
            "regular_holiday": "日曜、祝日*不定休あり",
            "lat": 34.6621972,
            "lng": 133.9244332
        },
        {
            "name": "津山城下町 KITAYAMA",
            "type": [
                "izakaya"
            ],
            "address": "岡山県岡山市北区幸町8-8",
            "tel": "086-233-0911",
            "regular_holiday": null,
            "lat": 34.6607508,
            "lng": 133.9196966
        },
        {
            "name": "個室居酒屋 元祖 料理王国",
            "type": [
                "izakaya"
            ],
            "address": "岡山県津山市美濃町７",
            "tel": "0868-24-8319",
            "regular_holiday": null,
            "lat": 35.060839117609426,
            "lng": 133.99971440434456
        },
        {
            "name": "焼肉牛長岡山本店",
            "type": [
                "yakiniku"
            ],
            "address": "岡山県岡山市南区妹尾２９００",
            "tel": "086-281-4341",
            "regular_holiday": null,
            "lat": 34.61967936566101,
            "lng": 133.85757744312286
        },
        {
            "name": "ひるぜん塩釜キャンピングヴィレッジ",
            "type": [
                "restaurant"
            ],
            "address": "岡山県真庭市蒜山下福田27-50",
            "tel": "0867-66-3959",
            "regular_holiday": null,
            "lat": 35.300815,
            "lng": 133.6796106
        },
        {
            "name": "めんくい",
            "type": [
                "sobaudon"
            ],
            "address": "岡山県玉野市宇野１丁目１１−１",
            "tel": "0863-31-2732",
            "regular_holiday": null,
            "lat": 34.49272976957848,
            "lng": 133.94786136338735
        },
        {
            "name": "Cafe  Mulberry",
            "type": [
                "cafe"
            ],
            "address": "岡山県備前市日生町日生３４００",
            "tel": "090-7349-9879",
            "regular_holiday": "火曜、水曜、木曜      不定休あり",
            "lat": 34.7016703758409,
            "lng": 134.285701587796
        },
        {
            "name": "タリーズコーヒーイオンモール岡山店",
            "type": [
                "restaurant"
            ],
            "address": "岡山県岡山市北区下石井1-2-1　イオンモール岡山6F",
            "tel": "086-206-7017",
            "regular_holiday": null,
            "lat": 34.6621946,
            "lng": 133.9186721
        },
        {
            "name": "ミスターバークGarden",
            "type": [
                "restaurant"
            ],
            "address": "岡山県岡山市南区下中野１４０８−５",
            "tel": "086-246-2089",
            "regular_holiday": "なし",
            "lat": 34.6387548712554,
            "lng": 133.910194337368
        },
        {
            "name": "城下町肉処～櫓～",
            "type": [
                "yakiniku"
            ],
            "address": "岡山県津山市堺町１０−２",
            "tel": "0868-35-2941",
            "regular_holiday": null,
            "lat": 35.058686399356354,
            "lng": 134.00163352489471
        },
        {
            "name": "キューティパイ倶楽部",
            "type": [
                "cafe"
            ],
            "address": "岡山県岡山市北区いずみ町２−１−４",
            "tel": "086-255-3939",
            "regular_holiday": null,
            "lat": 34.67776289670112,
            "lng": 133.9185869693756
        },
        {
            "name": "居酒屋とも",
            "type": [
                "yakiniku"
            ],
            "address": "岡山県倉敷市鶴形1-4-3-107",
            "tel": "086-441-107",
            "regular_holiday": null,
            "lat": 34.6011157,
            "lng": 133.7703239
        },
        {
            "name": "amboel（アムボエル）",
            "type": [
                "restaurant"
            ],
            "address": "岡山県岡山市中区国富１丁目１５−６",
            "tel": "086-901-0604",
            "regular_holiday": null,
            "lat": 34.664546063514294,
            "lng": 133.945405036211
        },
        {
            "name": "サーティワンアイスクリーム連島店",
            "type": [
                "ice"
            ],
            "address": "岡山県倉敷市亀島1-32-11",
            "tel": "086-444-6631",
            "regular_holiday": null,
            "lat": 34.5399809,
            "lng": 133.7282565
        },
        {
            "name": "麺場　田所商店　イオンモール岡山店",
            "type": [
                "ramen"
            ],
            "address": "岡山県岡山市北区下石井1-2-1　7階",
            "tel": "086-206-3457",
            "regular_holiday": null,
            "lat": 34.6619759,
            "lng": 133.9184094
        },
        {
            "name": "セルフうどん たぬき屋",
            "type": [
                "sobaudon"
            ],
            "address": "岡山県岡山市北区東古松２丁目２−１",
            "tel": "086-233-4470",
            "regular_holiday": null,
            "lat": 34.64894631877816,
            "lng": 133.91616493463516
        },
        {
            "name": "せんや笠岡店",
            "type": [
                "sushi"
            ],
            "address": "岡山県笠岡市笠岡１０６−６",
            "tel": "0865-63-6112",
            "regular_holiday": "水曜日",
            "lat": 34.4991915605851,
            "lng": 133.518762812018
        },
        {
            "name": "相席屋岡山本町店",
            "type": [
                "izakaya"
            ],
            "address": "岡山県岡山市北区本町８−１５",
            "tel": "086-221-4448",
            "regular_holiday": null,
            "lat": 34.66443686116665,
            "lng": 133.92243593931198
        },
        {
            "name": "リストランテ　　オー・ガスタ",
            "type": [
                "itarian"
            ],
            "address": "岡山県岡山市北区柳町２丁目５−２３",
            "tel": "086-201-1862",
            "regular_holiday": null,
            "lat": 34.65745533358988,
            "lng": 133.92055973410606
        },
        {
            "name": "きびきび亭",
            "type": [
                "restaurant"
            ],
            "address": "岡山県総社市岡谷２２−１",
            "tel": "0866-94-2555",
            "regular_holiday": "水曜日(水曜日が祝日の場合営業)",
            "lat": 34.6614563536436,
            "lng": 133.775319457054
        },
        {
            "name": "えびめしや青江店",
            "type": [
                "restaurant"
            ],
            "address": "岡山県岡山市南区新保１０４−９",
            "tel": "086-801-2802",
            "regular_holiday": null,
            "lat": 34.6301291720258,
            "lng": 133.91556546092033
        },
        {
            "name": "函館市場岡山新屋敷店",
            "type": [
                "sushi"
            ],
            "address": "岡山県岡山市北区新屋敷町2-10-17",
            "tel": "086-805-1309",
            "regular_holiday": null,
            "lat": 34.6562241,
            "lng": 133.9062999
        },
        {
            "name": "もみじ亭　田町店",
            "type": [
                "japanese"
            ],
            "address": "岡山県津山市田町５６",
            "tel": "0868-22-2644",
            "regular_holiday": null,
            "lat": 35.06469323068338,
            "lng": 133.999345600605
        },
        {
            "name": "八剣伝　西古松店",
            "type": [
                "izakaya"
            ],
            "address": "岡山県岡山市北区西古松２丁目２６−１６",
            "tel": "086-246-4266",
            "regular_holiday": null,
            "lat": 34.64652683225639,
            "lng": 133.90500962734222
        },
        {
            "name": "とりでい倉敷堀南店",
            "type": [
                "restaurant"
            ],
            "address": "岡山県倉敷市堀南７９４−１",
            "tel": "086-435-1311",
            "regular_holiday": null,
            "lat": 34.57003227229786,
            "lng": 133.76010328531265
        },
        {
            "name": "炭火焼肉　邯鄲（かんたん）",
            "type": [
                "restaurant"
            ],
            "address": "岡山県岡山市南区新保１０４−９",
            "tel": "086-803-3323",
            "regular_holiday": "火曜日",
            "lat": 34.630096319339124,
            "lng": 133.91552418824668
        },
        {
            "name": "お料理作東",
            "type": [
                "japanese"
            ],
            "address": "岡山県岡山市北区平和町7-11　グレイス岡山1F",
            "tel": "086-234-5330",
            "regular_holiday": null,
            "lat": 34.6632948,
            "lng": 133.9241095
        },
        {
            "name": "ミッシェル",
            "type": [
                "cafe"
            ],
            "address": "岡山県倉敷市玉島３丁目１−５",
            "tel": "086-526-6637",
            "regular_holiday": null,
            "lat": 34.542338192064506,
            "lng": 133.67226094007492
        },
        {
            "name": "手打そば峠",
            "type": [
                "sobaudon"
            ],
            "address": "岡山県岡山市北区中山下1-9−59",
            "tel": "086-226-8270",
            "regular_holiday": null,
            "lat": 34.6633094,
            "lng": 133.9274182
        },
        {
            "name": "花柚",
            "type": [
                "japanese"
            ],
            "address": "岡山県倉敷市中央２丁目１２−３",
            "tel": "086-421-1171",
            "regular_holiday": null,
            "lat": 34.593965299124235,
            "lng": 133.76874804496765
        },
        {
            "name": "そば　河原邸",
            "type": [
                "sobaudon"
            ],
            "address": "岡山県岡山市北区御津紙工２２４８",
            "tel": "086-897-7222",
            "regular_holiday": "月曜日から木曜日",
            "lat": 34.82508047447643,
            "lng": 133.85635376655895
        },
        {
            "name": "和風ダイニング和華",
            "type": [
                "izakaya"
            ],
            "address": "岡山県倉敷市阿知３丁目８−３",
            "tel": "086-422-2201",
            "regular_holiday": null,
            "lat": 34.59983225793223,
            "lng": 133.76669749617577
        },
        {
            "name": "多美寿し",
            "type": [
                "sushi"
            ],
            "address": "岡山県津山市小田中２１５",
            "tel": "0868-23-4788",
            "regular_holiday": null,
            "lat": 35.065257994998014,
            "lng": 133.99800181388855
        },
        {
            "name": "てんぷら  京",
            "type": [
                "japanese"
            ],
            "address": "岡山県倉敷市幸町３－16  三和ビル１F  C",
            "tel": "086-421-6664",
            "regular_holiday": null,
            "lat": 34.6027911,
            "lng": 133.7738196
        },
        {
            "name": "ひろよし",
            "type": [
                "sobaudon"
            ],
            "address": "岡山県倉敷市児島下の町５丁目２−２４",
            "tel": "086-473-6075",
            "regular_holiday": null,
            "lat": 34.4780200187682,
            "lng": 133.8209693133831
        },
        {
            "name": "牛角津山店",
            "type": [
                "yakiniku"
            ],
            "address": "岡山県津山市山北４０４−１",
            "tel": "0868-20-1429",
            "regular_holiday": null,
            "lat": 35.075144853814095,
            "lng": 134.00300547480583
        },
        {
            "name": "創作料理ＢＡＳＡＲＡ",
            "type": [
                "restaurant"
            ],
            "address": "岡山県倉敷市松島１０６５−１",
            "tel": "086-464-0688",
            "regular_holiday": "不定休",
            "lat": 34.6283149796387,
            "lng": 133.806465268135
        },
        {
            "name": "居酒屋　ポン太",
            "type": [
                "izakaya"
            ],
            "address": "岡山県倉敷市阿知３丁目３−１０",
            "tel": "090-8246-5398",
            "regular_holiday": null,
            "lat": 34.6002053263784,
            "lng": 133.7668994365617
        },
        {
            "name": "棚田のそば屋　紅そば亭",
            "type": [
                "sobaudon"
            ],
            "address": "岡山県久米郡美咲町境１３７１",
            "tel": "0868-68-0661",
            "regular_holiday": null,
            "lat": 34.957168759331644,
            "lng": 133.9109956473112
        },
        {
            "name": "極とんラーメン連島店",
            "type": [
                "ramen"
            ],
            "address": "岡山県倉敷市連島4丁目2-13",
            "tel": "090-3635-8986",
            "regular_holiday": null,
            "lat": 34.5533363,
            "lng": 133.7429302
        },
        {
            "name": "ステーキの店吉備　さんすて岡山店",
            "type": [
                "restaurant"
            ],
            "address": "岡山県岡山市北区駅元町1-2　さんすて岡山2階",
            "tel": "086-233-7060",
            "regular_holiday": null,
            "lat": 34.6656301,
            "lng": 133.9179265
        },
        {
            "name": "はしや　岡山一番街店",
            "type": [
                "restaurant"
            ],
            "address": "岡山県岡山市北区駅元町一番街地下3号",
            "tel": "086-235-0835",
            "regular_holiday": null,
            "lat": 34.6655924,
            "lng": 133.9188331
        },
        {
            "name": "あじ仙王喜",
            "type": [
                "ramen"
            ],
            "address": "岡山県倉敷市中庄1082-3",
            "tel": "086-461-2262",
            "regular_holiday": null,
            "lat": 34.6197435,
            "lng": 133.7912882
        },
        {
            "name": "焼肉天狗",
            "type": [
                "yakiniku"
            ],
            "address": "岡山県瀬戸内市邑久町箕輪654-1",
            "tel": "0869-24-2929",
            "regular_holiday": null,
            "lat": 34.6941333,
            "lng": 134.0967181
        },
        {
            "name": "PARK",
            "type": [
                "restaurant"
            ],
            "address": "岡山県岡山市北区表町2-2-80",
            "tel": "086-230-2030",
            "regular_holiday": null,
            "lat": 34.66184,
            "lng": 133.9293616
        },
        {
            "name": "THE HILLS HOUSE TSUYAMA",
            "type": [
                "restaurant"
            ],
            "address": "岡山県津山市大田831",
            "tel": "0868-27-8022",
            "regular_holiday": null,
            "lat": 35.0939562,
            "lng": 134.0060393
        },
        {
            "name": "Steak&Wine Bocci",
            "type": [
                "restaurant"
            ],
            "address": "岡山県津山市山下49",
            "tel": "0868-32-1129",
            "regular_holiday": null,
            "lat": 35.0624499,
            "lng": 134.0028634
        },
        {
            "name": "はまぐり水族館.neo",
            "type": [
                "izakaya"
            ],
            "address": "岡山県岡山市北区平和町5-106",
            "tel": "086-235-2066",
            "regular_holiday": null,
            "lat": 34.6642696,
            "lng": 133.9233123
        },
        {
            "name": "OkayamaTable TERRA",
            "type": [
                "itarian"
            ],
            "address": "岡山県津山市志戸部690-6",
            "tel": "0868-23-6195",
            "regular_holiday": null,
            "lat": 35.0760692,
            "lng": 134.0188644
        },
        {
            "name": "ホトトギスファームカフェ",
            "type": [
                "cafe"
            ],
            "address": "岡山県岡山市北区津島笹が瀬１−３６",
            "tel": "086-250-8415",
            "regular_holiday": "水曜日、木曜日",
            "lat": 34.68394062057081,
            "lng": 133.90366298987246
        },
        {
            "name": "テンペ料理 発酵亭",
            "type": [
                "restaurant"
            ],
            "address": "岡山県小田郡矢掛町矢掛2570-8",
            "tel": "0866-82-0366",
            "regular_holiday": null,
            "lat": 34.6240588,
            "lng": 133.5913729
        },
        {
            "name": "coffee ＆ lunch TaLK",
            "type": [
                "restaurant"
            ],
            "address": "岡山県真庭市目木１７８１−１",
            "tel": "0867-42-2365",
            "regular_holiday": "日曜 ※不定休あり",
            "lat": 35.07640484146812,
            "lng": 133.78005221486092
        },
        {
            "name": "お食事　宴会　さわ",
            "type": [
                "restaurant"
            ],
            "address": "岡山県勝田郡奈義町豊沢２６３−１０",
            "tel": "0868-36-3117",
            "regular_holiday": "月曜日(祝日は営業)",
            "lat": 35.12202924790715,
            "lng": 134.17919518778822
        },
        {
            "name": "焼肉ポプラ　倉敷店",
            "type": [
                "yakiniku"
            ],
            "address": "岡山県倉敷市浜ノ茶屋1-8-41",
            "tel": "086-476-8519",
            "regular_holiday": null,
            "lat": 34.6119477,
            "lng": 133.7709783
        },
        {
            "name": "趣酒楽樂はなはな",
            "type": [
                "izakaya"
            ],
            "address": "岡山県岡山市北区平和町5-15",
            "tel": "086-227-0505",
            "regular_holiday": null,
            "lat": 34.6642428,
            "lng": 133.9233328
        },
        {
            "name": "くらしき　寿司勝",
            "type": [
                "sushi"
            ],
            "address": "岡山県倉敷市美和1－8－1",
            "tel": "086-422-0775",
            "regular_holiday": null,
            "lat": 34.6009456,
            "lng": 133.7760626
        },
        {
            "name": "輪花亭（りんかてい）",
            "type": [
                "restaurant"
            ],
            "address": "岡山県笠岡市笠岡2388　ｻﾃﾗｲﾄ笠岡内",
            "tel": "0865-63-0603",
            "regular_holiday": null,
            "lat": 34.502242,
            "lng": 133.505516
        },
        {
            "name": "ママキッチン味々亭",
            "type": [
                "restaurant"
            ],
            "address": "岡山県笠岡市笠岡2388　ｼｰｻｲﾄﾞﾓｰﾙ内1階",
            "tel": "0865-63-0500",
            "regular_holiday": null,
            "lat": 34.5031627,
            "lng": 133.5059461
        },
        {
            "name": "カレーハウスCoCo壱番屋　倉敷東塚店",
            "type": [
                "curry"
            ],
            "address": "岡山県倉敷市東塚1-312-1",
            "tel": "086-455-0103",
            "regular_holiday": null,
            "lat": 34.524149,
            "lng": 133.759144
        },
        {
            "name": "居酒家土間土間岡山店",
            "type": [
                "izakaya"
            ],
            "address": "岡山県岡山市北区本町4-18コア本町2F",
            "tel": "086-801-2855",
            "regular_holiday": null,
            "lat": 34.6648054,
            "lng": 133.9222529
        },
        {
            "name": "お料理　わらうかど。",
            "type": [
                "japanese"
            ],
            "address": "岡山県津山市山北４０５－２",
            "tel": "0868-35-3555",
            "regular_holiday": null,
            "lat": 35.0751733,
            "lng": 134.0033167
        },
        {
            "name": "やじろべぇ",
            "type": [
                "izakaya"
            ],
            "address": "岡山県岡山市北区平和町6番4号グリーンビル1F",
            "tel": "086-234-8335",
            "regular_holiday": "日曜日、月曜日",
            "lat": 34.6637273,
            "lng": 133.9233229
        },
        {
            "name": "日本料理　美然",
            "type": [
                "japanese"
            ],
            "address": "岡山県笠岡市三番町4ー11",
            "tel": "0865-60-0909",
            "regular_holiday": null,
            "lat": 34.4981322,
            "lng": 133.518962
        },
        {
            "name": "味工房 四季",
            "type": [
                "restaurant"
            ],
            "address": "岡山県岡山市北区内山下２丁目３−５",
            "tel": "086-237-9991",
            "regular_holiday": "不定休",
            "lat": 34.66195903698242,
            "lng": 133.93386361412965
        },
        {
            "name": "カフェ＆レストランNATURE",
            "type": [
                "restaurant"
            ],
            "address": "岡山県岡山市北区北長瀬表町1-4-10",
            "tel": "086-244-1311",
            "regular_holiday": null,
            "lat": 34.6510477,
            "lng": 133.8912349
        },
        {
            "name": "珈琲館ふじわら",
            "type": [
                "cafe"
            ],
            "address": "岡山県倉敷市笹沖３９５－４",
            "tel": "086-425-0527",
            "regular_holiday": null,
            "lat": 34.5730554,
            "lng": 133.7687548
        },
        {
            "name": "炭火Dining　黒うさぎ",
            "type": [
                "izakaya"
            ],
            "address": "岡山県倉敷市阿知2-7-15",
            "tel": "086-421-3831",
            "regular_holiday": null,
            "lat": 34.5998917,
            "lng": 133.7685389
        },
        {
            "name": "アラモアナガーデン",
            "type": [
                "restaurant"
            ],
            "address": "岡山県岡山市北区厚生町3-1-20",
            "tel": "086-236-1001",
            "regular_holiday": null,
            "lat": 34.6564923,
            "lng": 133.9109493
        },
        {
            "name": "ともぞう",
            "type": [
                "izakaya"
            ],
            "address": "岡山県岡山市北区本町4-3アラタビル3階",
            "tel": "086-226-1600",
            "regular_holiday": null,
            "lat": 34.6648639,
            "lng": 133.9217291
        },
        {
            "name": "トラットリア　グラート",
            "type": [
                "itarian"
            ],
            "address": "岡山県倉敷市田ノ上1097-2",
            "tel": "086-427-2300",
            "regular_holiday": null,
            "lat": 34.5874958,
            "lng": 133.7579427
        },
        {
            "name": "ベルク　平島店",
            "type": [
                "restaurant"
            ],
            "address": "岡山県岡山市東区東平島1339番地4",
            "tel": "086-297-2227",
            "regular_holiday": null,
            "lat": 34.7123295,
            "lng": 134.0492978
        },
        {
            "name": "焼肉秀吉　中庄店",
            "type": [
                "yakiniku"
            ],
            "address": "岡山県倉敷市中庄409-2",
            "tel": "086-464-4129",
            "regular_holiday": "毎週火曜日　※祝日は営業",
            "lat": 34.6180787,
            "lng": 133.7888085
        },
        {
            "name": "中華そばたなか",
            "type": [
                "ramen"
            ],
            "address": "岡山県浅口郡里庄町里見4173-4",
            "tel": "080-3057-0911",
            "regular_holiday": "水曜日",
            "lat": 34.5198887,
            "lng": 133.5747165
        },
        {
            "name": "ＦＡＲＭ　ＴＯ　ＴＡＢＬＥ　ＣＯＬＬＥ　アリオ倉敷店",
            "type": [
                "restaurant"
            ],
            "address": "岡山県倉敷市寿町12番2号　アリオ倉敷1F",
            "tel": "086-486-3624",
            "regular_holiday": null,
            "lat": 34.6033529,
            "lng": 133.7641362
        },
        {
            "name": "ベルク　松新店",
            "type": [
                "restaurant"
            ],
            "address": "岡山県岡山市東区松新町21番地3",
            "tel": "086-942-7711",
            "regular_holiday": null,
            "lat": 34.6574709,
            "lng": 134.0141174
        },
        {
            "name": "ｐｉａＳａｐｉｄｏ　アリオ倉敷店",
            "type": [
                "itarian"
            ],
            "address": "岡山県倉敷市寿町12-2　アリオ倉敷店1F",
            "tel": "086-441-6010",
            "regular_holiday": null,
            "lat": 34.6033529,
            "lng": 133.7641362
        },
        {
            "name": "ろばた日和酒囲屋本店",
            "type": [
                "izakaya"
            ],
            "address": "岡山県岡山市北区平和町1-14　サンペイハイツ1F",
            "tel": "086-226-0737",
            "regular_holiday": null,
            "lat": 34.6650351,
            "lng": 133.9237996
        },
        {
            "name": "麺屋たくみ　駅前店",
            "type": [
                "ramen"
            ],
            "address": "岡山県岡山市北区錦町1-30",
            "tel": "086-225-5522",
            "regular_holiday": null,
            "lat": 34.6636694,
            "lng": 133.9193376
        },
        {
            "name": "ｓａｌａｄ　ｂｏｗｌ　ｔｏｋｙｏ",
            "type": [
                "diningbar"
            ],
            "address": "岡山県岡山市北区本町5-13　Foolishビル5F",
            "tel": "080-7896-8086",
            "regular_holiday": null,
            "lat": 34.6647077,
            "lng": 133.9213609
        },
        {
            "name": "かじＣｕｒｒｙ",
            "type": [
                "curry"
            ],
            "address": "岡山県岡山市北区表町1-6-56　オレンジビル101",
            "tel": "086-221-1529",
            "regular_holiday": null,
            "lat": 34.6645627,
            "lng": 133.9299301
        },
        {
            "name": "Ｈｉｙｏｒｉ　Ｃｏｆｆｅｅ　アリオ倉敷店",
            "type": [
                "restaurant"
            ],
            "address": "岡山県倉敷市寿町12-2　アリオ倉敷1F",
            "tel": "086-441-8652",
            "regular_holiday": null,
            "lat": 34.6033529,
            "lng": 133.7641362
        },
        {
            "name": "いわ栄　イオンモール岡山店",
            "type": [
                "sushi"
            ],
            "address": "岡山県岡山市北区下石井1-2-1　（イオンモール岡山7F）",
            "tel": "086-238-7070",
            "regular_holiday": null,
            "lat": 34.6620824,
            "lng": 133.9177261
        },
        {
            "name": "中華料理　又一",
            "type": [
                "chinese"
            ],
            "address": "岡山県倉敷市大内724-8",
            "tel": "086-424-8833",
            "regular_holiday": null,
            "lat": 34.6053652,
            "lng": 133.7550179
        },
        {
            "name": "華麺",
            "type": [
                "restaurant"
            ],
            "address": "岡山県倉敷市下庄３７２−８",
            "tel": "086-462-1277",
            "regular_holiday": "火曜　不定休あり",
            "lat": 34.64195162684347,
            "lng": 133.8279612438315
        },
        {
            "name": "サーティワンアイスクリーム　備中高松店",
            "type": [
                "ice"
            ],
            "address": "岡山県岡山市北区小山531　ナンバホームセンター内",
            "tel": "086-287-9511",
            "regular_holiday": null,
            "lat": 34.6946297,
            "lng": 133.8104706
        },
        {
            "name": "たん屋びぜん　イオンモール岡山店",
            "type": [
                "restaurant"
            ],
            "address": "岡山県岡山市北区下石井1-2-1　（イオンモール岡山6F）",
            "tel": "086-238-2883",
            "regular_holiday": null,
            "lat": 34.6621946,
            "lng": 133.9186721
        },
        {
            "name": "郷土料理　海幸",
            "type": [
                "japanese"
            ],
            "address": "岡山県岡山市北区下石井2-4-14",
            "tel": "086-222-3184",
            "regular_holiday": null,
            "lat": 34.660018,
            "lng": 133.9182272
        },
        {
            "name": "漁八",
            "type": [
                "japanese"
            ],
            "address": "岡山県浅口市寄島町３９８１−１８",
            "tel": "0865-54-2640",
            "regular_holiday": "毎週水曜日、第3木曜日",
            "lat": 34.49025930384992,
            "lng": 133.592803860656
        },
        {
            "name": "たん屋びぜん　イオンモール倉敷店",
            "type": [
                "restaurant"
            ],
            "address": "岡山県倉敷市水江1　（イオンモール倉敷1F）",
            "tel": "086-441-5580",
            "regular_holiday": null,
            "lat": 34.6031429,
            "lng": 133.7462133
        },
        {
            "name": "麺屋　匠　さんすて岡山店",
            "type": [
                "ramen"
            ],
            "address": "岡山県岡山市北区駅元町1-1　サンステーション南館2F",
            "tel": "086-222-0206",
            "regular_holiday": null,
            "lat": 34.6656301,
            "lng": 133.9179265
        },
        {
            "name": "モスバーガー　東岡山店",
            "type": [
                "hamburger"
            ],
            "address": "岡山県岡山市中区長利244-7",
            "tel": "086-208-3788",
            "regular_holiday": null,
            "lat": 34.6747827,
            "lng": 133.9982596
        },
        {
            "name": "ジョリーパスタ　堀南店",
            "type": [
                "spaghetti"
            ],
            "address": "岡山県倉敷市堀南809-3",
            "tel": "086-423-5501",
            "regular_holiday": null,
            "lat": 34.5712456,
            "lng": 133.7572036
        },
        {
            "name": "韓国居酒屋とらとら",
            "type": [
                "korean"
            ],
            "address": "岡山県岡山市南区福富西2-1-5たけやビル101号",
            "tel": "086-264-2641",
            "regular_holiday": null,
            "lat": 34.6235961,
            "lng": 133.9301468
        },
        {
            "name": "モスバーガー　岡山京山店",
            "type": [
                "hamburger"
            ],
            "address": "岡山県岡山市北区伊島北町9-15",
            "tel": "086-214-3001",
            "regular_holiday": null,
            "lat": 34.6798838,
            "lng": 133.9017464
        },
        {
            "name": "ＲＯＳＡ　ＲＯＳＳＡ　（ローザロッサ）",
            "type": [
                "diningbar"
            ],
            "address": "岡山県岡山市北区幸町３−４",
            "tel": "086-221-1123",
            "regular_holiday": "日曜日 (月曜日が祝日の場合は日曜営業)",
            "lat": 34.662435276244146,
            "lng": 133.92177208428913
        },
        {
            "name": "ジョリーパスタ　倉敷店",
            "type": [
                "spaghetti"
            ],
            "address": "岡山県倉敷市宮前59-1",
            "tel": "086-427-6470",
            "regular_holiday": null,
            "lat": 34.6102374,
            "lng": 133.7634278
        },
        {
            "name": "モスバーガー　ポルカ高梁店",
            "type": [
                "hamburger"
            ],
            "address": "岡山県高梁市中原町1084-1",
            "tel": "0866-21-1711",
            "regular_holiday": null,
            "lat": 34.7833587,
            "lng": 133.6106964
        },
        {
            "name": "味処　てん・馬",
            "type": [
                "izakaya"
            ],
            "address": "岡山県勝田郡勝央町勝間田762-3",
            "tel": "0868-38-6670",
            "regular_holiday": null,
            "lat": 35.03638,
            "lng": 134.1189946
        },
        {
            "name": "ジョリーパスタ　大野辻店",
            "type": [
                "spaghetti"
            ],
            "address": "岡山県岡山市北区中仙道1-1-5",
            "tel": "086-244-4890",
            "regular_holiday": null,
            "lat": 34.6498467,
            "lng": 133.8906649
        },
        {
            "name": "マクドナルド　津山インター店",
            "type": [
                "hamburger"
            ],
            "address": "岡山県津山市川崎185",
            "tel": "0868-26-4801",
            "regular_holiday": null,
            "lat": 35.0595029,
            "lng": 134.0336383
        },
        {
            "name": "ジョリーパスタ　原尾島店",
            "type": [
                "spaghetti"
            ],
            "address": "岡山県岡山市中区原尾島3-8-23",
            "tel": "086-272-6152",
            "regular_holiday": null,
            "lat": 34.6703182,
            "lng": 133.9471028
        },
        {
            "name": "モスバーガー　倉敷笹沖東店",
            "type": [
                "hamburger"
            ],
            "address": "岡山県倉敷市新田3145-1",
            "tel": "086-423-6560",
            "regular_holiday": null,
            "lat": 34.574177,
            "lng": 133.7801983
        },
        {
            "name": "ジョリーパスタ　津島西坂店",
            "type": [
                "spaghetti"
            ],
            "address": "岡山県岡山市北区津島西坂2-4-7",
            "tel": "086-256-1557",
            "regular_holiday": null,
            "lat": 34.6830235,
            "lng": 133.9057267
        },
        {
            "name": "マクドナルド　岡山久世店",
            "type": [
                "hamburger"
            ],
            "address": "岡山県真庭市惣180",
            "tel": "0867-42-3905",
            "regular_holiday": null,
            "lat": 35.0731028,
            "lng": 133.7483529
        },
        {
            "name": "モスバーガー　岡山築港店",
            "type": [
                "hamburger"
            ],
            "address": "岡山県岡山市南区築港元町14-1",
            "tel": "086-261-6161",
            "regular_holiday": null,
            "lat": 34.6062466,
            "lng": 133.9487516
        },
        {
            "name": "Bar docca",
            "type": [
                "diningbar"
            ],
            "address": "岡山県岡山市北区幸町３−２７",
            "tel": "086-238-2227",
            "regular_holiday": "日曜",
            "lat": 34.66245147665943,
            "lng": 133.9215485913564
        },
        {
            "name": "ジョリーパスタ　青江店",
            "type": [
                "spaghetti"
            ],
            "address": "岡山県岡山市北区青江5-22-22",
            "tel": "086-221-6291",
            "regular_holiday": null,
            "lat": 34.628717,
            "lng": 133.9225866
        },
        {
            "name": "スパイスカフェ　まからも",
            "type": [
                "fusion"
            ],
            "address": "岡山県加賀郡吉備中央町西2796",
            "tel": "080-2887-5186",
            "regular_holiday": "日曜〜木曜日",
            "lat": 34.8045002,
            "lng": 133.666638
        },
        {
            "name": "マクドナルド　イオンモール津山店",
            "type": [
                "hamburger"
            ],
            "address": "岡山県津山市河辺1000-1",
            "tel": "0868-21-1303",
            "regular_holiday": null,
            "lat": 35.0648702,
            "lng": 134.0456269
        },
        {
            "name": "モスバーガー　倉敷児島店",
            "type": [
                "hamburger"
            ],
            "address": "岡山県倉敷市児島下の町2-1577-4",
            "tel": "086-474-9111",
            "regular_holiday": null,
            "lat": 34.472753,
            "lng": 133.821331
        },
        {
            "name": "トービホテル",
            "type": [
                "restaurant"
            ],
            "address": "岡山県備前市伊部950",
            "tel": "0869-63-1355",
            "regular_holiday": null,
            "lat": 34.7403962,
            "lng": 134.1508223
        },
        {
            "name": "モスバーガー　早島インター店",
            "type": [
                "hamburger"
            ],
            "address": "岡山県都窪郡早島町早島2576-1",
            "tel": "086-480-1500",
            "regular_holiday": null,
            "lat": 34.5990976,
            "lng": 133.8107562
        },
        {
            "name": "筑豊ラーメン　山小屋　岡山空港店",
            "type": [
                "ramen"
            ],
            "address": "岡山県岡山市北区日応寺1277　岡山空港内2F",
            "tel": "086-294-8170",
            "regular_holiday": "無し",
            "lat": 34.7579784,
            "lng": 133.8558042
        },
        {
            "name": "岡山桃太郎温泉",
            "type": [
                "restaurant"
            ],
            "address": "岡山県岡山市北区牟佐2915-1",
            "tel": "086-206-3900",
            "regular_holiday": null,
            "lat": 34.7275231,
            "lng": 133.985231
        },
        {
            "name": "佐藤食堂",
            "type": [
                "ramen"
            ],
            "address": "岡山県高梁市川上町上大竹１４２４",
            "tel": "0866-48-2106",
            "regular_holiday": "毎月第二日曜日・毎週火曜日は定休日",
            "lat": 34.7169101938542,
            "lng": 133.444265127182
        },
        {
            "name": "モスバーガー　岡山江崎店",
            "type": [
                "hamburger"
            ],
            "address": "岡山県岡山市中区江崎691-1",
            "tel": "086-274-8120",
            "regular_holiday": null,
            "lat": 34.6211524,
            "lng": 133.966198
        },
        {
            "name": "RUSH",
            "type": [
                "restaurant"
            ],
            "address": "岡山県岡山市北区本町10-17　本町第一ビル1F",
            "tel": "086-201-1183",
            "regular_holiday": "年中無休",
            "lat": 34.6639777,
            "lng": 133.9209857
        },
        {
            "name": "喫茶かめやま",
            "type": [
                "cafe"
            ],
            "address": "岡山県倉敷市本町３−６",
            "tel": "086-424-2787",
            "regular_holiday": "水曜日",
            "lat": 34.59662541764316,
            "lng": 133.77184503835196
        },
        {
            "name": "ハラミ焼肉　いぶり屋　赤磐店",
            "type": [
                "yakiniku"
            ],
            "address": "岡山県赤磐市熊崎192-7",
            "tel": "086-956-4009",
            "regular_holiday": "月曜日（祝日の場合営業）",
            "lat": 34.7541201,
            "lng": 134.0127313
        },
        {
            "name": "桃太郎珈琲焙煎所 The Peach Boy Coffee Roasters Okayama Japan",
            "type": [
                "cafe"
            ],
            "address": "岡山県総社市宿418番地吉備路もてなしの館",
            "tel": "090-9202-5024",
            "regular_holiday": "火曜",
            "lat": 34.6637154,
            "lng": 133.7824402
        },
        {
            "name": "モスバーガー　赤磐店",
            "type": [
                "hamburger"
            ],
            "address": "岡山県赤磐市河本1078-1",
            "tel": "0869-55-9600",
            "regular_holiday": null,
            "lat": 34.7464648,
            "lng": 134.0175532
        },
        {
            "name": "カレーと珈琲の店　ＧｈｉＧｈｉ",
            "type": [
                "curry"
            ],
            "address": "岡山県岡山市東区西大寺中2-7-14",
            "tel": "086-238-5996",
            "regular_holiday": "水曜日",
            "lat": 34.6569416,
            "lng": 134.0326157
        },
        {
            "name": "すし園",
            "type": [
                "sushi"
            ],
            "address": "岡山県岡山市南区妹尾２３０７−１",
            "tel": "086-282-3322",
            "regular_holiday": "水曜日",
            "lat": 34.61921422943,
            "lng": 133.8722656865583
        },
        {
            "name": "どんぱち",
            "type": [
                "sobaudon"
            ],
            "address": "岡山県倉敷市児島下の町9-12　サ-10号",
            "tel": "086-472-0207",
            "regular_holiday": null,
            "lat": 34.4758885,
            "lng": 133.8327784
        },
        {
            "name": "旬彩　しんすけ",
            "type": [
                "izakaya"
            ],
            "address": "岡山県岡山市東区西大寺中２丁目５−１０",
            "tel": "086-943-3232",
            "regular_holiday": "月曜日(祝日でも休みます)",
            "lat": 34.65597032657699,
            "lng": 134.0319561239511
        },
        {
            "name": "ばり馬らーめん　津山駅前店",
            "type": [
                "ramen"
            ],
            "address": "岡山県津山市昭和町1-33",
            "tel": "0868-32-9888",
            "regular_holiday": null,
            "lat": 35.0550069,
            "lng": 133.9996183
        },
        {
            "name": "ハラミ焼肉　いぶり屋　瀬戸店",
            "type": [
                "yakiniku"
            ],
            "address": "岡山県岡山市東区瀬戸町沖239-1",
            "tel": "086-952-9611",
            "regular_holiday": null,
            "lat": 34.7217485,
            "lng": 134.0462414
        },
        {
            "name": "お好み焼　のんのん　倉敷児島",
            "type": [
                "okonomiyaki"
            ],
            "address": "岡山県倉敷市児島元浜町115",
            "tel": "086-473-1211",
            "regular_holiday": "火曜日",
            "lat": 34.4575607,
            "lng": 133.8039049
        },
        {
            "name": "とりの助ラーメン　志戸部店",
            "type": [
                "ramen"
            ],
            "address": "岡山県津山市志戸部681-2",
            "tel": "0868-32-9882",
            "regular_holiday": null,
            "lat": 35.0768729,
            "lng": 134.0194874
        },
        {
            "name": "珈琲館ＴＳＵＴＡＹＡ山陽店",
            "type": [
                "cafe"
            ],
            "address": "岡山県赤磐市下市413－1",
            "tel": "086-956-0707",
            "regular_holiday": null,
            "lat": 34.751565,
            "lng": 134.02019
        },
        {
            "name": "らーめん桜",
            "type": [
                "ramen"
            ],
            "address": "岡山県岡山市北区津島笹ヶ瀬4-1",
            "tel": "086-255-8850",
            "regular_holiday": null,
            "lat": 34.6849026,
            "lng": 133.9016852
        },
        {
            "name": "焼肉　朱里苑",
            "type": [
                "yakiniku"
            ],
            "address": "岡山県倉敷市下庄141",
            "tel": "086-463-1818",
            "regular_holiday": null,
            "lat": 34.6414699,
            "lng": 133.8327372
        },
        {
            "name": "鉄板焼くりやま",
            "type": [
                "okonomiyaki"
            ],
            "address": "岡山県浅口市鴨方町六条院中8039",
            "tel": "0865-44-6667",
            "regular_holiday": null,
            "lat": 34.5171358,
            "lng": 133.5871208
        },
        {
            "name": "雅の家",
            "type": [
                "izakaya"
            ],
            "address": "岡山県倉敷市東塚6-2-10",
            "tel": "086-454-2122",
            "regular_holiday": "毎週月曜日　第一火曜日",
            "lat": 34.5268804,
            "lng": 133.7625656
        },
        {
            "name": "ラー麺　ずんどう屋　倉敷平田店",
            "type": [
                "ramen"
            ],
            "address": "岡山県倉敷市平田330-1",
            "tel": "086-486-4881",
            "regular_holiday": null,
            "lat": 34.6175341,
            "lng": 133.7791961
        },
        {
            "name": "台湾ダイニング　羅凰",
            "type": [
                "ramen"
            ],
            "address": "岡山県倉敷市阿知2-2-6",
            "tel": "086-425-0808",
            "regular_holiday": null,
            "lat": 34.600689,
            "lng": 133.7675127
        },
        {
            "name": "海鮮活いき寿司　ゆめタウン久世店",
            "type": [
                "sushi"
            ],
            "address": "岡山県真庭市惣170",
            "tel": "0867-42-5533",
            "regular_holiday": null,
            "lat": 35.0717565,
            "lng": 133.7476247
        },
        {
            "name": "つるや　久世店",
            "type": [
                "restaurant"
            ],
            "address": "岡山県真庭市目木1883-2",
            "tel": "0867-42-5510",
            "regular_holiday": null,
            "lat": 35.0760778,
            "lng": 133.7748103
        },
        {
            "name": "養老乃瀧　倉敷店",
            "type": [
                "izakaya"
            ],
            "address": "岡山県倉敷市阿知2-3-19",
            "tel": "086-425-4615",
            "regular_holiday": null,
            "lat": 34.6009672,
            "lng": 133.7679392
        },
        {
            "name": "アラティ　倉敷店",
            "type": [
                "indian"
            ],
            "address": "岡山県倉敷市三田９６−２",
            "tel": "086-463-2899",
            "regular_holiday": "12月31日（ランチのみ）元旦休み　10月26日,11月16日休み",
            "lat": 34.62910641893148,
            "lng": 133.80013715062034
        },
        {
            "name": "炭焼個室えんらく",
            "type": [
                "izakaya"
            ],
            "address": "岡山県岡山市北区平和町6-3　ベックオンボックス2階",
            "tel": "086-221-3221",
            "regular_holiday": null,
            "lat": 34.6637667,
            "lng": 133.9232779
        },
        {
            "name": "うどん一弦　ゆめマート美作店",
            "type": [
                "sobaudon"
            ],
            "address": "岡山県美作市楢原下1268-1",
            "tel": "0868-72-5444",
            "regular_holiday": null,
            "lat": 35.0190722,
            "lng": 134.1594185
        },
        {
            "name": "つるや　東一宮店",
            "type": [
                "restaurant"
            ],
            "address": "岡山県津山市東一宮70-1",
            "tel": "0868-27-7066",
            "regular_holiday": null,
            "lat": 35.1022115,
            "lng": 134.0044022
        },
        {
            "name": "つるや　志戸部店",
            "type": [
                "restaurant"
            ],
            "address": "岡山県津山市志戸部675-1",
            "tel": "0868-23-1722",
            "regular_holiday": null,
            "lat": 35.077779,
            "lng": 134.0196362
        },
        {
            "name": "てっぱんや",
            "type": [
                "izakaya"
            ],
            "address": "岡山県倉敷市神田2-8-30　中山ビル202",
            "tel": "090-5373-1556",
            "regular_holiday": null,
            "lat": 34.5403825,
            "lng": 133.7359718
        },
        {
            "name": "海鮮ずし　ゆめマート美作店",
            "type": [
                "sushi"
            ],
            "address": "岡山県美作市楢原下1268-1",
            "tel": "0868-72-4422",
            "regular_holiday": null,
            "lat": 35.0190722,
            "lng": 134.1594185
        },
        {
            "name": "つるや　津山口店",
            "type": [
                "restaurant"
            ],
            "address": "岡山県津山市津山口128",
            "tel": "0868-24-0168",
            "regular_holiday": null,
            "lat": 35.0576217,
            "lng": 133.9858135
        },
        {
            "name": "串天茶割えんらく",
            "type": [
                "izakaya"
            ],
            "address": "岡山県岡山市北区平和町5-15　2階",
            "tel": "086-227-1878",
            "regular_holiday": null,
            "lat": 34.6642428,
            "lng": 133.9233328
        },
        {
            "name": "鶏三和　さんすて岡山店",
            "type": [
                "japanese"
            ],
            "address": "岡山県岡山市北区駅元町1-1　さんすて岡山南館2F",
            "tel": "086-201-1039",
            "regular_holiday": null,
            "lat": 34.6656301,
            "lng": 133.9179265
        },
        {
            "name": "つるや　院庄店",
            "type": [
                "restaurant"
            ],
            "address": "岡山県津山市院庄937",
            "tel": "0868-28-3970",
            "regular_holiday": null,
            "lat": 35.0611202,
            "lng": 133.9530101
        },
        {
            "name": "回転すし処　弁天丸　山陽店",
            "type": [
                "sushi"
            ],
            "address": "岡山県赤磐市河本1110-1",
            "tel": "086-955-2122",
            "regular_holiday": null,
            "lat": 34.7478649,
            "lng": 134.0172742
        },
        {
            "name": "つるや　蒜山店",
            "type": [
                "restaurant"
            ],
            "address": "岡山県真庭市蒜山上徳山1126",
            "tel": "0867-66-7188",
            "regular_holiday": null,
            "lat": 35.2768446,
            "lng": 133.6219306
        },
        {
            "name": "スシロー総社井出店",
            "type": [
                "sushi"
            ],
            "address": "岡山県総社市井手３４６番地１",
            "tel": "0866-90-2230",
            "regular_holiday": "不定",
            "lat": 34.6716527310486,
            "lng": 133.759896755219
        },
        {
            "name": "スシロー岡山新福店",
            "type": [
                "sushi"
            ],
            "address": "岡山県岡山市南区新福２丁目１０−８",
            "tel": "086-902-2266",
            "regular_holiday": "なし",
            "lat": 34.627114360545335,
            "lng": 133.93761984244424
        },
        {
            "name": "スシロー倉敷宮前店",
            "type": [
                "sushi"
            ],
            "address": "岡山県倉敷市宮前351-1",
            "tel": "086-430-0731",
            "regular_holiday": "無し",
            "lat": 34.6118264,
            "lng": 133.7652866
        },
        {
            "name": "マクドナルド イオンモール岡山店",
            "type": [
                "hamburger"
            ],
            "address": "岡山県岡山市北区下石井1-2-1　（イオンモール岡山B2・B1F）",
            "tel": "086-206-7110",
            "regular_holiday": null,
            "lat": 34.6620824,
            "lng": 133.9177261
        },
        {
            "name": "Ｂｏｎ　ａｐｐｅｔｉｔ",
            "type": [
                "restaurant"
            ],
            "address": "岡山県美作市楢原下97-3",
            "tel": "0868-72-3345",
            "regular_holiday": null,
            "lat": 35.0182559,
            "lng": 134.1572859
        },
        {
            "name": "スシロー岡山大供店",
            "type": [
                "sushi"
            ],
            "address": "岡山県岡山市北区大供本町703-1",
            "tel": "086-234-7567",
            "regular_holiday": null,
            "lat": 34.6544028,
            "lng": 133.9121119
        },
        {
            "name": "お好み焼、レストラン　つくし",
            "type": [
                "okonomiyaki"
            ],
            "address": "岡山県倉敷市下庄648-1",
            "tel": "086-463-6565",
            "regular_holiday": null,
            "lat": 34.6375114,
            "lng": 133.8207847
        },
        {
            "name": "麺屋　がる",
            "type": [
                "ramen"
            ],
            "address": "岡山県倉敷市西中新田525-8",
            "tel": "086-297-2227",
            "regular_holiday": null,
            "lat": 34.5818023,
            "lng": 133.7677442
        },
        {
            "name": "とんかつ濵かつ　岡山倉敷店",
            "type": [
                "restaurant"
            ],
            "address": "岡山県倉敷市堀南849-1",
            "tel": "086-435-2300",
            "regular_holiday": null,
            "lat": 34.5698308,
            "lng": 133.7570215
        },
        {
            "name": "有頂天",
            "type": [
                "izakaya"
            ],
            "address": "岡山県津山市二階町１３",
            "tel": "0868-22-0770",
            "regular_holiday": "日曜日(日曜祝日の場合月曜が休)  ※不定休あり",
            "lat": 35.06040290244231,
            "lng": 134.0016397902161
        },
        {
            "name": "牛窓研修センターカリヨンハウス",
            "type": [
                "restaurant"
            ],
            "address": "岡山県瀬戸内市牛窓町牛窓6356-57",
            "tel": "0869-34-5808",
            "regular_holiday": "不定休",
            "lat": 34.6151707,
            "lng": 134.1939548
        },
        {
            "name": "スシロー津山店",
            "type": [
                "sushi"
            ],
            "address": "岡山県津山市小田中１３３５−３",
            "tel": "0868-32-0655",
            "regular_holiday": "年中無休",
            "lat": 35.06293492828983,
            "lng": 133.99212591353577
        },
        {
            "name": "スシロー倉敷沖新店",
            "type": [
                "sushi"
            ],
            "address": "岡山県倉敷市田ノ上新町14-6",
            "tel": "086-435-2706",
            "regular_holiday": "なし",
            "lat": 34.5847426,
            "lng": 133.7555977
        },
        {
            "name": "スシロー東岡山店",
            "type": [
                "sushi"
            ],
            "address": "岡山県岡山市中区神下161-1",
            "tel": "086-208-5411",
            "regular_holiday": null,
            "lat": 34.6776302,
            "lng": 133.9814763
        },
        {
            "name": "八剣伝今店",
            "type": [
                "izakaya"
            ],
            "address": "岡山県岡山市北区今6-8-8　ブランニュータウン1F",
            "tel": "086-244-7754",
            "regular_holiday": null,
            "lat": 34.6406967,
            "lng": 133.8973397
        },
        {
            "name": "洋食カフェもみじ堂　岡山本店",
            "type": [
                "restaurant"
            ],
            "address": "岡山県岡山市南区箕島1317-1",
            "tel": "086-250-1361",
            "regular_holiday": null,
            "lat": 34.6132501,
            "lng": 133.8601109
        },
        {
            "name": "珈琲館P.モール岡山雄町店",
            "type": [
                "cafe"
            ],
            "address": "岡山県岡山市中区雄町266-１",
            "tel": "086-238-7710",
            "regular_holiday": null,
            "lat": 34.6856136,
            "lng": 133.9742114
        },
        {
            "name": "喫茶　サン・ローラン",
            "type": [
                "cafe"
            ],
            "address": "岡山県倉敷市神田3-13-19",
            "tel": "086-448-5128",
            "regular_holiday": null,
            "lat": 34.5435721,
            "lng": 133.7318003
        },
        {
            "name": "ゴルフバーFLOG",
            "type": [
                "diningbar"
            ],
            "address": "岡山県倉敷市阿知３丁目４−１",
            "tel": "086-441-2218",
            "regular_holiday": "木曜日",
            "lat": 34.60007132896962,
            "lng": 133.76661860358527
        },
        {
            "name": "ダイニングバー　ノクターン",
            "type": [
                "diningbar"
            ],
            "address": "岡山県倉敷市阿知2-12-3",
            "tel": "086-424-9101",
            "regular_holiday": null,
            "lat": 34.5998467,
            "lng": 133.768914
        },
        {
            "name": "ぶっかけ亭本舗ふるいち　イオンモール倉敷店",
            "type": [
                "sobaudon"
            ],
            "address": "岡山県倉敷市水江1（イオンモール倉敷２F）",
            "tel": "086-423-5252",
            "regular_holiday": null,
            "lat": 34.6031429,
            "lng": 133.7462133
        },
        {
            "name": "古市商店イオンモール倉敷店",
            "type": [
                "ramen"
            ],
            "address": "岡山県倉敷市水江1（イオンモール倉敷２F）",
            "tel": "086-421-0621",
            "regular_holiday": null,
            "lat": 34.6031429,
            "lng": 133.7462133
        },
        {
            "name": "炭焼火の鳥",
            "type": [
                "izakaya"
            ],
            "address": "岡山県岡山市北区丸の内1-9-15",
            "tel": "086-222-8802",
            "regular_holiday": null,
            "lat": 34.6633131,
            "lng": 133.9320702
        },
        {
            "name": "らーめん古龍イオンモール倉敷店",
            "type": [
                "ramen"
            ],
            "address": "岡山県倉敷市水江1（イオンモール倉敷２F）",
            "tel": "086-422-7313",
            "regular_holiday": null,
            "lat": 34.6031429,
            "lng": 133.7462133
        },
        {
            "name": "サーティワンアイスクリーム　イオンモール岡山店",
            "type": [
                "ice"
            ],
            "address": "岡山県岡山市北区下石井1-2-1（イオンモール岡山1F）",
            "tel": "086-226-7631",
            "regular_holiday": null,
            "lat": 34.6620824,
            "lng": 133.9177261
        },
        {
            "name": "魚民　倉敷駅前店",
            "type": [
                "izakaya"
            ],
            "address": "岡山県倉敷市阿知1-7-2　くらしきシティプラザ西ビル 2階",
            "tel": "086-424-4188",
            "regular_holiday": null,
            "lat": 34.6008978,
            "lng": 133.7658
        },
        {
            "name": "ゆず家",
            "type": [
                "izakaya"
            ],
            "address": "岡山県岡山市北区磨屋町6-23",
            "tel": "086-206-4474",
            "regular_holiday": null,
            "lat": 34.6644044,
            "lng": 133.9243872
        },
        {
            "name": "お好み焼き　れもん",
            "type": [
                "okonomiyaki"
            ],
            "address": "岡山県岡山市北区平田149ー120",
            "tel": "086-245-7078",
            "regular_holiday": null,
            "lat": 34.6355365,
            "lng": 133.8896488
        },
        {
            "name": "家庭割烹　瑠璃長（るりちょう）",
            "type": [
                "japanese"
            ],
            "address": "岡山県岡山市北区表町3-10-2",
            "tel": "086-233-1515",
            "regular_holiday": null,
            "lat": 34.6582414,
            "lng": 133.9298394
        },
        {
            "name": "創作料理　アジアな季節SORA",
            "type": [
                "ethnic"
            ],
            "address": "岡山県倉敷市児島駅前2-27　パティオ２階",
            "tel": "086-474-2999",
            "regular_holiday": null,
            "lat": 34.4658985,
            "lng": 133.8053807
        },
        {
            "name": "ほるもん酒屋蓮",
            "type": [
                "izakaya"
            ],
            "address": "岡山県岡山市北区青江1-23-1",
            "tel": "086-236-0356",
            "regular_holiday": null,
            "lat": 34.631901,
            "lng": 133.9162788
        },
        {
            "name": "そば処水谷",
            "type": [
                "sobaudon"
            ],
            "address": "岡山県岡山市北区幸町4-26大重ビル1F",
            "tel": "086-226-8266",
            "regular_holiday": "水曜日（水曜祝日は営業翌日振替休日）",
            "lat": 34.6618111,
            "lng": 133.9215556
        },
        {
            "name": "焼肉十楽　水島店",
            "type": [
                "yakiniku"
            ],
            "address": "岡山県倉敷市水島中畝7-12-１",
            "tel": "086-455-4233",
            "regular_holiday": null,
            "lat": 34.523496,
            "lng": 133.754551
        },
        {
            "name": "手打ちうどん　名玄",
            "type": [
                "sobaudon"
            ],
            "address": "岡山県岡山市中区平井6-7-17",
            "tel": "086-273-5472",
            "regular_holiday": null,
            "lat": 34.6391093,
            "lng": 133.9396924
        },
        {
            "name": "麦とろ物語withヘルシー麺",
            "type": [
                "restaurant"
            ],
            "address": "岡山県岡山市北区下石井1-2-1（イオンモール岡山6F)",
            "tel": "086-230-0234",
            "regular_holiday": null,
            "lat": 34.6621946,
            "lng": 133.9186721
        },
        {
            "name": "味の庄　伯備",
            "type": [
                "restaurant"
            ],
            "address": "岡山県新見市西方４６９−１",
            "tel": "0867-72-3125",
            "regular_holiday": "大晦日、元旦のみ",
            "lat": 34.98787390623168,
            "lng": 133.45737228919128
        },
        {
            "name": "クラフトビアショップ独歩　イオンモール店",
            "type": [
                "restaurant"
            ],
            "address": "岡山県岡山市北区下石井1-2-1 （イオンモール岡山4F)",
            "tel": "086-206-7141",
            "regular_holiday": null,
            "lat": 34.6620824,
            "lng": 133.9177261
        },
        {
            "name": "博多天ぷらたかおイオンモール岡山店",
            "type": [
                "restaurant"
            ],
            "address": "岡山県岡山市北区下石井1-2-1（イオンモール岡山店6F）",
            "tel": "086-206-7033",
            "regular_holiday": null,
            "lat": 34.6621946,
            "lng": 133.9186721
        },
        {
            "name": "ヴィドフランス岡山店",
            "type": [
                "restaurant"
            ],
            "address": "岡山県岡山市北区駅元町1-1さんすて岡山",
            "tel": "086-224-8028",
            "regular_holiday": null,
            "lat": 34.6656301,
            "lng": 133.9179265
        },
        {
            "name": "冨来屋本舗",
            "type": [
                "japanese"
            ],
            "address": "岡山県倉敷市本町6-21",
            "tel": "086-427-0122",
            "regular_holiday": null,
            "lat": 34.5948891,
            "lng": 133.7724941
        },
        {
            "name": "MELLOW BROWN COFFEEイオンモール岡山店",
            "type": [
                "cafe"
            ],
            "address": "岡山県岡山市北区下石井1-2-1（イオンモール岡山1F）",
            "tel": "086-206-7027",
            "regular_holiday": null,
            "lat": 34.6620824,
            "lng": 133.9177261
        },
        {
            "name": "しゃぶしゃぶ温野菜倉敷北畝店",
            "type": [
                "restaurant"
            ],
            "address": "岡山県倉敷市北畝６丁目１１−３５",
            "tel": "086-476-8314",
            "regular_holiday": null,
            "lat": 34.541317463576156,
            "lng": 133.75210762023926
        },
        {
            "name": "あんかけ屋",
            "type": [
                "restaurant"
            ],
            "address": "岡山県浅口市金光町大谷445-2",
            "tel": "0865-47-9020",
            "regular_holiday": null,
            "lat": 34.5357177,
            "lng": 133.6252726
        },
        {
            "name": "焼肉　万水",
            "type": [
                "yakiniku"
            ],
            "address": "岡山県倉敷市鶴形1-4-4-108",
            "tel": "086-425-6424",
            "regular_holiday": null,
            "lat": 34.601325,
            "lng": 133.7703563
        },
        {
            "name": "焼肉　たいこ",
            "type": [
                "yakiniku"
            ],
            "address": "岡山県総社市西郡481-4",
            "tel": "0866-93-0303",
            "regular_holiday": null,
            "lat": 34.6612912,
            "lng": 133.7590505
        },
        {
            "name": "お好み焼き　どん",
            "type": [
                "okonomiyaki"
            ],
            "address": "岡山県倉敷市新倉敷駅前３丁目１４７−２",
            "tel": "086-525-2033",
            "regular_holiday": "火曜日・水曜日　※不定休あり",
            "lat": 34.56308243574621,
            "lng": 133.68383433446243
        },
        {
            "name": "真庭あぐりガーデン　スイーツパーラー十字屋商店",
            "type": [
                "restaurant"
            ],
            "address": "岡山県真庭市中396-1",
            "tel": "0867-45-7333",
            "regular_holiday": null,
            "lat": 35.05938,
            "lng": 133.7523374
        },
        {
            "name": "真庭あぐりガーデン　十字屋商店",
            "type": [
                "restaurant"
            ],
            "address": "岡山県真庭市中396-1",
            "tel": "0867-45-7333",
            "regular_holiday": null,
            "lat": 35.05938,
            "lng": 133.7523374
        },
        {
            "name": "うどん館",
            "type": [
                "restaurant"
            ],
            "address": "岡山県玉野市田井4-11-9",
            "tel": "0863-31-3032",
            "regular_holiday": null,
            "lat": 34.5176568,
            "lng": 133.9472448
        },
        {
            "name": "イタリアンカフェ ペスカトーレ",
            "type": [
                "itarian"
            ],
            "address": "岡山県岡山市東区中川町301-1",
            "tel": "086-942-0254",
            "regular_holiday": "元旦は1日休業、大晦日は夜の営業はお休みです。",
            "lat": 34.6640921,
            "lng": 134.0013025
        },
        {
            "name": "和幸イオンモール倉敷店",
            "type": [
                "restaurant"
            ],
            "address": "岡山県倉敷市水江1（イオンモール倉敷内1F）",
            "tel": "086-425-2122",
            "regular_holiday": null,
            "lat": 34.6031429,
            "lng": 133.7462133
        },
        {
            "name": "炭火焼肉関羽",
            "type": [
                "yakiniku"
            ],
            "address": "岡山県倉敷市藤戸町藤戸1824",
            "tel": "086-429-3594",
            "regular_holiday": null,
            "lat": 34.5531526,
            "lng": 133.8272158
        },
        {
            "name": "おまち堂＆FRUTAS",
            "type": [
                "cafe"
            ],
            "address": "岡山県岡山市北区問屋町12-101 AROW&DEPARTMENT 104",
            "tel": "086-246-3686",
            "regular_holiday": null,
            "lat": 34.645168,
            "lng": 133.890198
        },
        {
            "name": "やきとり大吉西大寺店",
            "type": [
                "restaurant"
            ],
            "address": "岡山県岡山市東区松新町62-11",
            "tel": "086-942-0625",
            "regular_holiday": "年中無休",
            "lat": 34.6585066,
            "lng": 134.0092709
        },
        {
            "name": "ブラッスリープティモンタニュ",
            "type": [
                "western"
            ],
            "address": "岡山県岡山市北区蕃山町2ー12ホーメストハイツ蕃山町1階",
            "tel": "086-230-1969",
            "regular_holiday": null,
            "lat": 34.6670586,
            "lng": 133.9268743
        },
        {
            "name": "桃太郎　新倉敷店",
            "type": [
                "okonomiyaki"
            ],
            "address": "岡山県倉敷市新倉敷駅前3-125-1",
            "tel": "086-523-1235",
            "regular_holiday": null,
            "lat": 34.5623038,
            "lng": 133.681692
        },
        {
            "name": "ホームセンターＴｉｍｅ山陽店",
            "type": [
                "store"
            ],
            "address": "赤磐市上市180-1",
            "tel": "086-955-3411",
            "regular_holiday": "1月1日",
            "lat": 34.7565737,
            "lng": 134.0173858
        },
        {
            "name": "ホームセンターＴｉｍｅ長船店",
            "type": [
                "store"
            ],
            "address": "瀬戸内市長船町福岡1165-1",
            "tel": "0869-26-8650",
            "regular_holiday": "1月1日",
            "lat": 34.695089,
            "lng": 134.0959569
        },
        {
            "name": "ホームセンターＴｉｍｅ備前店",
            "type": [
                "store"
            ],
            "address": "備前市東片上1092",
            "tel": "0869-63-6955",
            "regular_holiday": "1月1日",
            "lat": 34.7492639,
            "lng": 134.2001233
        },
        {
            "name": "ホームセンターＴｉｍｅ中庄店",
            "type": [
                "store"
            ],
            "address": "倉敷市松島1137-1",
            "tel": "086-462-0880",
            "regular_holiday": "1月1日",
            "lat": 34.6301708,
            "lng": 133.8041111
        },
        {
            "name": "ホームセンターＴｉｍｅ玉島店",
            "type": [
                "store"
            ],
            "address": "倉敷市玉島瓜崎1057-1",
            "tel": "086-523-0511",
            "regular_holiday": "1月1日",
            "lat": 34.5588421,
            "lng": 133.6816121
        },
        {
            "name": "ホームセンターＴｉｍｅ児島店",
            "type": [
                "store"
            ],
            "address": "倉敷市児島小川町3681-1",
            "tel": "086-474-3003",
            "regular_holiday": "1月1日",
            "lat": 34.4662647,
            "lng": 133.8132315
        },
        {
            "name": "湯原国際観光ホテル　菊之湯",
            "type": [
                "restaurant"
            ],
            "address": "岡山県真庭市湯原温泉16-1",
            "tel": "0867-62-2111",
            "regular_holiday": null,
            "lat": 35.2034156,
            "lng": 133.7312541
        },
        {
            "name": "ぶっかけふるいち中島店",
            "type": [
                "sobaudon"
            ],
            "address": "岡山県倉敷市中島2846",
            "tel": "086-466-5558",
            "regular_holiday": null,
            "lat": 34.5757821,
            "lng": 133.7405452
        },
        {
            "name": "tamago farm",
            "type": [
                "restaurant"
            ],
            "address": "岡山県岡山市北区金山寺808",
            "tel": "070-8325-9582",
            "regular_holiday": "月～土曜日(日、祝日のみ営業)※不定休あり。インスタで営業日ご案内しております",
            "lat": 34.7409863,
            "lng": 133.9452382
        },
        {
            "name": "スペインバルkurakura",
            "type": [
                "western"
            ],
            "address": "岡山県岡山市北区岩田町２番５号",
            "tel": "086-221-7055",
            "regular_holiday": "日曜日、第2月曜日",
            "lat": 34.6693948,
            "lng": 133.9206145
        },
        {
            "name": "海鮮匠　かわかみ",
            "type": [
                "izakaya"
            ],
            "address": "岡山県岡山市北区中山下1-2-30",
            "tel": "086-236-1448",
            "regular_holiday": null,
            "lat": 34.6651216,
            "lng": 133.9277027
        },
        {
            "name": "御茶調進処 ふくちゃ",
            "type": [
                "cafe"
            ],
            "address": "岡山県岡山市北区高松原古才315-10",
            "tel": "0120-930-713",
            "regular_holiday": null,
            "lat": 34.6845816,
            "lng": 133.8233998
        },
        {
            "name": "建部ヨーグルト工房",
            "type": [
                "ice"
            ],
            "address": "岡山県岡山市北区建部町建部上609",
            "tel": "086-722-0806",
            "regular_holiday": "火曜日＊不定休あり",
            "lat": 34.8606651,
            "lng": 133.9055714
        },
        {
            "name": "パイの店マーテル",
            "type": [
                "cafe"
            ],
            "address": "岡山県岡山市北区桑田町13－19",
            "tel": "086-223-8939",
            "regular_holiday": null,
            "lat": 34.6587053,
            "lng": 133.9144453
        },
        {
            "name": "カレーハウスCoCo壱番屋　岡山駅西口店",
            "type": [
                "curry"
            ],
            "address": "岡山県岡山市北区駅元町30-13",
            "tel": "086-255-9772",
            "regular_holiday": null,
            "lat": 34.6677726,
            "lng": 133.9169742
        },
        {
            "name": "ドイツパブGGC",
            "type": [
                "restaurant"
            ],
            "address": "岡山県岡山市北区表町3-6-21力餅2Ｆ",
            "tel": "086-233-5865",
            "regular_holiday": null,
            "lat": 34.6583922,
            "lng": 133.9296574
        },
        {
            "name": "Alpini",
            "type": [
                "restaurant"
            ],
            "address": "岡山県久米郡久米南町神目中５−３０",
            "tel": "086-722-4848",
            "regular_holiday": null,
            "lat": 34.895048068457854,
            "lng": 133.92842824570835
        },
        {
            "name": "レストラン岡大病院店",
            "type": [
                "restaurant"
            ],
            "address": "岡山県岡山市北区鹿田町二丁目5番1号",
            "tel": "086-233-8608",
            "regular_holiday": null,
            "lat": 34.6506366,
            "lng": 133.9208652
        },
        {
            "name": "餃子の王将　新倉敷店",
            "type": [
                "chinese"
            ],
            "address": "岡山県倉敷市新倉敷駅前3丁目128-1",
            "tel": "086-522-7399",
            "regular_holiday": null,
            "lat": 34.56188,
            "lng": 133.6820839
        },
        {
            "name": "有限会社　吉春",
            "type": [
                "japanese"
            ],
            "address": "岡山県真庭市落合垂水267",
            "tel": "0867-52-2245",
            "regular_holiday": null,
            "lat": 35.0183274,
            "lng": 133.7502629
        },
        {
            "name": "米屋のにぎりめし山田村さんすて倉敷店",
            "type": [
                "japanese"
            ],
            "address": "岡山県倉敷市阿知1-1-1",
            "tel": "086-435-0120",
            "regular_holiday": null,
            "lat": 34.6020862,
            "lng": 133.7656504
        },
        {
            "name": "美津葉　酒蔵店",
            "type": [
                "restaurant"
            ],
            "address": "岡山県岡山市北区御津金川690-1　かながわSAKAGURA内",
            "tel": "086-724-0086",
            "regular_holiday": "月曜(祝日の場合は翌平日)",
            "lat": 34.797912,
            "lng": 133.933282
        },
        {
            "name": "ルポンドレハルヤ",
            "type": [
                "restaurant"
            ],
            "address": "岡山県岡山市東区西大寺浜166-1",
            "tel": "086-942-2783",
            "regular_holiday": "日曜各週(日曜ランチタイムのみ営業)※不定休あり",
            "lat": 34.6489959,
            "lng": 134.0401872
        },
        {
            "name": "菜's(サイズ)",
            "type": [
                "izakaya"
            ],
            "address": "岡山県岡山市北区奉還町3-1-32",
            "tel": "050-6865-9511",
            "regular_holiday": null,
            "lat": 34.6689268,
            "lng": 133.9139968
        },
        {
            "name": "コメダ珈琲　岡山大福店",
            "type": [
                "restaurant"
            ],
            "address": "岡山県岡山市南区大福367-1",
            "tel": "086-282-8444",
            "regular_holiday": null,
            "lat": 34.6192702,
            "lng": 133.8741562
        },
        {
            "name": "Premier  -プルミエ-",
            "type": [
                "french"
            ],
            "address": "岡山県倉敷市中央１丁目５－１３",
            "tel": "086-422-3600",
            "regular_holiday": "水曜日",
            "lat": 34.5950482,
            "lng": 133.7705721
        },
        {
            "name": "どんどん亭総社店",
            "type": [
                "yakiniku"
            ],
            "address": "岡山県総社市中央3丁目15-108",
            "tel": "0866-94-1511",
            "regular_holiday": null,
            "lat": 34.6700801,
            "lng": 133.7505333
        },
        {
            "name": "どんどん亭新倉敷店",
            "type": [
                "yakiniku"
            ],
            "address": "岡山県倉敷市玉島爪崎454-1",
            "tel": "086-525-2456",
            "regular_holiday": null,
            "lat": 34.5661584,
            "lng": 133.6779035
        },
        {
            "name": "中国料理　又一別館",
            "type": [
                "chinese"
            ],
            "address": "岡山県倉敷市児島元浜町149",
            "tel": "0120-33-6660",
            "regular_holiday": null,
            "lat": 34.4580759,
            "lng": 133.8042311
        },
        {
            "name": "来来亭　岡山浜野店",
            "type": [
                "ramen"
            ],
            "address": "岡山県岡山市南区浜野2丁目10-1",
            "tel": "086-250-8221",
            "regular_holiday": null,
            "lat": 34.6283365,
            "lng": 133.936954
        },
        {
            "name": "どんどん亭倉敷加須山店",
            "type": [
                "yakiniku"
            ],
            "address": "岡山県倉敷市加須山245-1",
            "tel": "086-421-9988",
            "regular_holiday": null,
            "lat": 34.5906019,
            "lng": 133.7969838
        },
        {
            "name": "どんどん亭倉敷北畝店",
            "type": [
                "yakiniku"
            ],
            "address": "岡山県倉敷市北畝6丁目1-58",
            "tel": "086-455-0003",
            "regular_holiday": null,
            "lat": 34.5394092,
            "lng": 133.7514724
        },
        {
            "name": "うのまち珈琲店",
            "type": [
                "cafe"
            ],
            "address": "岡山県岡山市北区中山下1－8－45 NTTクレド岡山ビル2F",
            "tel": "086-230-3922",
            "regular_holiday": null,
            "lat": 34.6627203,
            "lng": 133.926725
        },
        {
            "name": "どんどん亭倉敷中島店",
            "type": [
                "yakiniku"
            ],
            "address": "岡山県倉敷市中島830-1",
            "tel": "086-466-1333",
            "regular_holiday": null,
            "lat": 34.5793125,
            "lng": 133.7402619
        },
        {
            "name": "喰太呂　連島店",
            "type": [
                "yakiniku"
            ],
            "address": "岡山県倉敷市連島町西之浦652番地の12",
            "tel": "086-444-3695",
            "regular_holiday": null,
            "lat": 34.5514822,
            "lng": 133.7103122
        },
        {
            "name": "カフェ＆ギャラリー　一休庵",
            "type": [
                "restaurant"
            ],
            "address": "岡山県備前市西片上２１−３",
            "tel": "0869-64-2255",
            "regular_holiday": null,
            "lat": 34.744057637684435,
            "lng": 134.1857645753771
        },
        {
            "name": "ホームセンターＴｉｍｅ西市店",
            "type": [
                "store"
            ],
            "address": "岡山市南区西市552-1",
            "tel": "086-241-5055",
            "regular_holiday": "1月1日",
            "lat": 34.631075,
            "lng": 133.8952431
        },
        {
            "name": "麺屋ツナさん家",
            "type": [
                "ramen"
            ],
            "address": "岡山県津山市中之町２３",
            "tel": "0868-22-4860",
            "regular_holiday": "木曜(日曜は、昼営業のみ)",
            "lat": 35.061971381699806,
            "lng": 134.01241722454776
        },
        {
            "name": "日本料理ひすい",
            "type": [
                "japanese"
            ],
            "address": "岡山県倉敷市藤戸町藤戸３８３",
            "tel": "086-428-2130",
            "regular_holiday": null,
            "lat": 34.5592075,
            "lng": 133.8115247
        },
        {
            "name": "岡山西大寺食堂",
            "type": [
                "restaurant"
            ],
            "address": "岡山県岡山市東区西大寺中2-24-27",
            "tel": "086-942-0305",
            "regular_holiday": null,
            "lat": 34.6565552,
            "lng": 134.0364065
        },
        {
            "name": "NobenoBe",
            "type": [
                "itarian"
            ],
            "address": "岡山県岡山市北区柳町一丁目3番2号シャンボール富士一階",
            "tel": "086-224-7839",
            "regular_holiday": null,
            "lat": 34.6600777,
            "lng": 133.9204453
        },
        {
            "name": "高架下ホルモン大元本店",
            "type": [
                "yakiniku"
            ],
            "address": "岡山県岡山市北区大元駅前１０−６",
            "tel": "086-243-3355",
            "regular_holiday": "無し",
            "lat": 34.64823675514801,
            "lng": 133.91082903171088
        },
        {
            "name": "炙り網焼高架下ホルモン大和町店",
            "type": [
                "yakiniku"
            ],
            "address": "岡山県岡山市北区大和町1丁目15番11号",
            "tel": "086-222-0033",
            "regular_holiday": "無し",
            "lat": 34.6799716,
            "lng": 133.9280802
        },
        {
            "name": "農園カフェ湯郷by美作農園",
            "type": [
                "cafe"
            ],
            "address": "岡山県美作市湯郷311-6",
            "tel": "0868-73-3880",
            "regular_holiday": null,
            "lat": 34.9943645,
            "lng": 134.1374208
        },
        {
            "name": "くらしき桃子　総本店",
            "type": [
                "cafe"
            ],
            "address": "岡山県倉敷市中央１丁目３−１８",
            "tel": "086-454-6611",
            "regular_holiday": null,
            "lat": 34.5963653020894,
            "lng": 133.771413291165
        },
        {
            "name": "カフェ有鄰庵",
            "type": [
                "restaurant"
            ],
            "address": "岡山県倉敷市本町２−１５",
            "tel": "086-697-6222",
            "regular_holiday": "不定休",
            "lat": 34.59667938824462,
            "lng": 133.7720140824651
        },
        {
            "name": "Mou Mou Cafe イオンモール岡山店",
            "type": [
                "cafe"
            ],
            "address": "岡山県岡山市北区下石井１丁目２−２",
            "tel": "080-226-0880",
            "regular_holiday": null,
            "lat": 34.6613238391266,
            "lng": 133.91876115260763
        },
        {
            "name": "カフェレストラン　ネモ",
            "type": [
                "restaurant"
            ],
            "address": "岡山県岡山市北区津島西坂２丁目３−４０",
            "tel": "086-280-5248",
            "regular_holiday": "８台",
            "lat": 34.68334083422418,
            "lng": 133.90743104379663
        },
        {
            "name": "海都　東川原店",
            "type": [
                "sushi"
            ],
            "address": "岡山県岡山市中区東川原244-4",
            "tel": "086-270-2722",
            "regular_holiday": null,
            "lat": 34.6738449,
            "lng": 133.9436887
        },
        {
            "name": "海都 西大寺店",
            "type": [
                "sushi"
            ],
            "address": "岡山県岡山市東区広谷474-9",
            "tel": "086-943-8432",
            "regular_holiday": null,
            "lat": 34.6580895,
            "lng": 134.016973
        },
        {
            "name": "ポピースプリングス　リゾート&スパ　レストランソノマ",
            "type": [
                "french"
            ],
            "address": "岡山県美作市湯郷538-1",
            "tel": "0868-72-7575",
            "regular_holiday": "ランチ 月曜から金曜まで",
            "lat": 34.9923484,
            "lng": 134.1345923
        },
        {
            "name": "ファロ　ピッコリーノ",
            "type": [
                "restaurant"
            ],
            "address": "岡山県岡山市北区中山下１丁目９−１６",
            "tel": "086-206-1441",
            "regular_holiday": "月曜日(祝祭日は営業　翌平日を休業)　不定休有り",
            "lat": 34.66346232209567,
            "lng": 133.92768335249943
        },
        {
            "name": "ザ マグリット",
            "type": [
                "restaurant"
            ],
            "address": "岡山県岡山市北区丸の内1-5-8",
            "tel": "086-225-4801",
            "regular_holiday": null,
            "lat": 34.6642434,
            "lng": 133.9310495
        },
        {
            "name": "ナマステガネーシャ　大安寺店",
            "type": [
                "curry"
            ],
            "address": "岡山県岡山市北区野殿東町1-55",
            "tel": "086-251-5199",
            "regular_holiday": null,
            "lat": 34.6582078,
            "lng": 133.8833386
        },
        {
            "name": "二代目まいぺん",
            "type": [
                "izakaya"
            ],
            "address": "岡山県岡山市北区奉還町1-3-13",
            "tel": "086-253-6881",
            "regular_holiday": null,
            "lat": 34.6687558,
            "lng": 133.9180729
        },
        {
            "name": "炭火焼肉カナリヤ",
            "type": [
                "yakiniku"
            ],
            "address": "岡山県岡山市南区下中野６３−３",
            "tel": "086-222-9350",
            "regular_holiday": "木曜日（祝日は営業）",
            "lat": 34.64332923257358,
            "lng": 133.9122347661409
        },
        {
            "name": "カジュアルイタリアン　バッジオ",
            "type": [
                "restaurant"
            ],
            "address": "岡山県岡山市北区幸町６−３３",
            "tel": "086-238-7963",
            "regular_holiday": null,
            "lat": 34.66150628846985,
            "lng": 133.92041808360833
        },
        {
            "name": "カレーハウスCoCo壱番屋　岡山下中野店",
            "type": [
                "curry"
            ],
            "address": "岡山県岡山市北区下中野344-102",
            "tel": "086-246-1203",
            "regular_holiday": null,
            "lat": 34.6394142,
            "lng": 133.9034317
        },
        {
            "name": "まんまるコッペ",
            "type": [
                "sandwich"
            ],
            "address": "岡山県倉敷市酒津２３８８",
            "tel": "086-441-4470",
            "regular_holiday": "水曜・木曜・金曜（祝日の場合は営業）",
            "lat": 34.615475010685984,
            "lng": 133.75085386788044
        },
        {
            "name": "大手まんぢゅうカフェ",
            "type": [
                "sweets"
            ],
            "address": "岡山県倉敷市中央１丁目４−１８",
            "tel": "086-421-3700",
            "regular_holiday": "火曜",
            "lat": 34.59493423910637,
            "lng": 133.77152026963944
        },
        {
            "name": "桃の花",
            "type": [
                "japanese"
            ],
            "address": "岡山県岡山市北区田町1-12-2",
            "tel": "086-226-5400",
            "regular_holiday": "不定休",
            "lat": 34.6609261,
            "lng": 133.9249623
        },
        {
            "name": "四季風味　禅",
            "type": [
                "japanese"
            ],
            "address": "岡山県岡山市北区今５丁目３−３１ 四季風味 禅",
            "tel": "086-241-4569",
            "regular_holiday": null,
            "lat": 34.645866377814734,
            "lng": 133.8972720862189
        },
        {
            "name": "やまや寿司",
            "type": [
                "sushi"
            ],
            "address": "岡山県岡山市中区関５３８",
            "tel": "086-279-4184",
            "regular_holiday": null,
            "lat": 34.67850992038099,
            "lng": 133.96925528068095
        },
        {
            "name": "たん屋びぜん",
            "type": [
                "restaurant"
            ],
            "address": "岡山県岡山市北区下石井１丁目２番１号",
            "tel": "086-238-2883",
            "regular_holiday": null,
            "lat": 34.6622566,
            "lng": 133.917743
        },
        {
            "name": "とり鉄岡山錦町店",
            "type": [
                "izakaya"
            ],
            "address": "岡山県岡山市北区錦町３番１０１号天水ビル１F１０１号",
            "tel": "086-235-3681",
            "regular_holiday": null,
            "lat": 34.663764,
            "lng": 133.921565
        },
        {
            "name": "語らい処「坐・和民」岡山錦町店",
            "type": [
                "izakaya"
            ],
            "address": "岡山県岡山市北区錦町1－13－2　1・2階",
            "tel": "086-234-7720",
            "regular_holiday": null,
            "lat": 34.6636,
            "lng": 133.9201215
        },
        {
            "name": "シェルブルー",
            "type": [
                "cafe"
            ],
            "address": "岡山県岡山市北区駅元町14番1号　岡山コンベンションセンター　１F",
            "tel": "086-898-2284",
            "regular_holiday": null,
            "lat": 34.6665734,
            "lng": 133.9148355
        },
        {
            "name": "ぶっかけふるいちイオンモール岡山店",
            "type": [
                "sobaudon"
            ],
            "address": "岡山県岡山市北区下石井１丁目２−１",
            "tel": "086-227-7722",
            "regular_holiday": null,
            "lat": 34.661990249623784,
            "lng": 133.9171600341797
        },
        {
            "name": "博多とんこつばり中仙道本店",
            "type": [
                "ramen"
            ],
            "address": "岡山県岡山市北区中仙道2-10-8",
            "tel": "086-245-6583",
            "regular_holiday": "月曜日(祝日の場合は翌平日に繰り越し)",
            "lat": 34.6454532,
            "lng": 133.8849553
        },
        {
            "name": "日本料理　雅",
            "type": [
                "japanese"
            ],
            "address": "岡山県岡山市中区長岡459-6",
            "tel": "086-279-3355",
            "regular_holiday": "木曜日",
            "lat": 34.6788927,
            "lng": 133.9876001
        },
        {
            "name": "八剣伝円山店",
            "type": [
                "izakaya"
            ],
            "address": "岡山県岡山市中区円山78-1",
            "tel": "086-201-1947",
            "regular_holiday": "年中無休",
            "lat": 34.6531565,
            "lng": 133.968663
        },
        {
            "name": "和牛串　炭火焼　あゆみ乃",
            "type": [
                "izakaya"
            ],
            "address": "岡山県岡山市北区柳町１丁目９−１２",
            "tel": "086-230-2033",
            "regular_holiday": "日曜祝日",
            "lat": 34.65904540858601,
            "lng": 133.92261901055463
        },
        {
            "name": "来来亭　岡山大福店",
            "type": [
                "ramen"
            ],
            "address": "岡山県岡山市南区大福396-2",
            "tel": "086-282-6008",
            "regular_holiday": "11月18日　12月16日　定休日",
            "lat": 34.6192569,
            "lng": 133.8728145
        },
        {
            "name": "セルフうどん鶴久",
            "type": [
                "sobaudon"
            ],
            "address": "岡山県岡山市北区鹿田町二丁目5番1号",
            "tel": "086-233-8608",
            "regular_holiday": null,
            "lat": 34.6506366,
            "lng": 133.9208652
        },
        {
            "name": "ステーキのあさくま岡山大元店",
            "type": [
                "restaurant"
            ],
            "address": "岡山県岡山市北区大元駅前３−２７",
            "tel": "086-224-0089",
            "regular_holiday": null,
            "lat": 34.645666982833504,
            "lng": 133.91264587200666
        },
        {
            "name": "上島珈琲店　岡山大学病院店",
            "type": [
                "cafe"
            ],
            "address": "岡山県岡山市北区鹿田町二丁目5番1号",
            "tel": "086-233-8608",
            "regular_holiday": null,
            "lat": 34.6506366,
            "lng": 133.9208652
        },
        {
            "name": "ザ・セントラルビュッフェ　イオンモール岡山店",
            "type": [
                "restaurant"
            ],
            "address": "岡山県岡山市北区下石井１丁目２−１",
            "tel": "086-803-6255",
            "regular_holiday": null,
            "lat": 34.66259139513193,
            "lng": 133.91662417804616
        },
        {
            "name": "鉄板かや乃",
            "type": [
                "restaurant"
            ],
            "address": "岡山県岡山市北区中央町6-8",
            "tel": "086-233-8800",
            "regular_holiday": null,
            "lat": 34.6573442,
            "lng": 133.9239279
        },
        {
            "name": "来恩　DK",
            "type": [
                "izakaya"
            ],
            "address": "岡山県岡山市北区本町４−１６",
            "tel": "086-222-8722",
            "regular_holiday": "不定休",
            "lat": 34.66472661582708,
            "lng": 133.9223202200932
        },
        {
            "name": "銅屋",
            "type": [
                "izakaya"
            ],
            "address": "岡山県岡山市北区丸の内1-12-17",
            "tel": "086-225-1008",
            "regular_holiday": null,
            "lat": 34.6628324,
            "lng": 133.9321003
        },
        {
            "name": "焼き鳥居酒屋　大樹　（たいじゅ）",
            "type": [
                "izakaya"
            ],
            "address": "岡山県岡山市北区田町二丁目14番18号　スウェーデン田町ビル1F",
            "tel": "086-801-3775",
            "regular_holiday": "日曜、祝日",
            "lat": 34.658541,
            "lng": 133.9238456
        },
        {
            "name": "中国四川料理　又来軒　岡山駅前店",
            "type": [
                "chinese"
            ],
            "address": "岡山県岡山市北区本町6番36号第一セントラルビルB1F",
            "tel": "086-227-6655",
            "regular_holiday": "年中無休",
            "lat": 34.6644269,
            "lng": 133.9197336
        },
        {
            "name": "晴れ国ダイニング　プロポスタ",
            "type": [
                "western"
            ],
            "address": "岡山県岡山市北区中山下1-9-12　クラインガルテン中山下",
            "tel": "086-235-1377",
            "regular_holiday": null,
            "lat": 34.6634614,
            "lng": 133.9276991
        },
        {
            "name": "Le　Menage",
            "type": [
                "french"
            ],
            "address": "岡山県岡山市北区柳町１－２－１７－１F",
            "tel": "086-225-0188",
            "regular_holiday": null,
            "lat": 34.6596581,
            "lng": 133.9201264
        },
        {
            "name": "HEAP BURGER STAND",
            "type": [
                "hamburger"
            ],
            "address": "岡山県岡山市北区大和町１丁目１５−９",
            "tel": "086-238-6665",
            "regular_holiday": "不定休(火曜休むことがおおい)",
            "lat": 34.68029158910973,
            "lng": 133.9280996573663
        },
        {
            "name": "来来亭　岡山大供店",
            "type": [
                "ramen"
            ],
            "address": "岡山県岡山市北区大供本町708-2",
            "tel": "086-224-6661",
            "regular_holiday": "毎月第三週目の水曜日",
            "lat": 34.6535226,
            "lng": 133.9121914
        },
        {
            "name": "さぬきうどん天霧　福浜店",
            "type": [
                "sobaudon"
            ],
            "address": "岡山県岡山市南区福浜町5番1号",
            "tel": "086-261-7373",
            "regular_holiday": null,
            "lat": 34.6186352,
            "lng": 133.9461431
        },