{
    "data": [
        {
            "name": "相生",
            "type": "和風料理店",
            "address": "佐賀県唐津市相知町相知1834",
            "time": "17:30～0:00",
            "regular_holiday": "毎週日曜日・祝日",
            "tel": "0955-62-2603",
            "lat": "33.35043030",
            "lng": "130.01195339"
        },
        {
            "name": "相川製茶舗",
            "type": "喫茶店",
            "address": "佐賀県嬉野市嬉野町大字下宿甲4002-1",
            "time": "9：00～19：00（喫茶コーナーは17：00まで）",
            "regular_holiday": "不定休",
            "tel": "0954-42-1756",
            "lat": "33.10335440",
            "lng": "129.99304164"
        },
        {
            "name": "愛郷ファーム",
            "type": "焼肉店",
            "address": "佐賀県唐津市鎮西町菖蒲2221",
            "time": "11:30~20:00（平日夕方以降は前日までの予約要）",
            "regular_holiday": "毎週火曜日、年始（1/1～1/3）",
            "tel": "0955-82-5481",
            "lat": "33.50700805",
            "lng": "129.91461295"
        },
        {
            "name": "IKイタリア",
            "type": "レストラン",
            "address": "佐賀県佐賀市愛敬町4-10ゼスト3階西側",
            "time": "18:00~24:00",
            "regular_holiday": "不定休",
            "tel": "0952-60-2115",
            "lat": "33.25968464",
            "lng": "130.30159341"
        },
        {
            "name": "愛敬餃子",
            "type": "レストラン",
            "address": "佐賀県佐賀市愛敬町4-10ゼスト1階南側",
            "time": "18:00~24:00",
            "regular_holiday": "不定休",
            "tel": "0952-23-6252",
            "lat": "33.25968464",
            "lng": "130.30159341"
        },
        {
            "name": "IKバル",
            "type": "レストラン",
            "address": "佐賀県佐賀市愛敬町4-10ゼスト1階",
            "time": "18:00~24:00",
            "regular_holiday": "不定休",
            "tel": "0952-60-1719",
            "lat": "33.25968464",
            "lng": "130.30159341"
        },
        {
            "name": "あい菜食堂",
            "type": "食堂",
            "address": "佐賀県佐賀市水ケ江１丁目２－２２そいよかね水ケ江 みずがいえ２Ｆ",
            "time": "ランチ11:00～15:00",
            "regular_holiday": "毎週日曜日",
            "tel": "0952-20-0901",
            "lat": "33.25064112",
            "lng": "130.30444056"
        },
        {
            "name": "青い月",
            "type": "酒場・ビヤホール",
            "address": "佐賀県佐賀市水ケ江二丁目6-7",
            "time": "要予約11:00~23:00",
            "regular_holiday": "予約の無い日",
            "tel": "0952-26-4930",
            "lat": "33.24971074",
            "lng": "130.30683759"
        },
        {
            "name": "AQUA",
            "type": "スナック",
            "address": "佐賀県伊万里市伊万里町甲３９７－１キングスロードビル１F",
            "time": "19：00～1：00",
            "regular_holiday": "なし",
            "tel": "0955-23-4841",
            "lat": "33.27301200",
            "lng": "129.87860532"
        },
        {
            "name": "味彩 おかもと",
            "type": "レストラン",
            "address": "佐賀県佐賀市駅前中央1丁目11-30",
            "time": "11:30～13:30 / 17:30～22:00",
            "regular_holiday": "第2,4,5火曜日 / 日・祝ランチ休み",
            "tel": "0952-28-9430",
            "lat": "33.26400349",
            "lng": "130.29598271"
        },
        {
            "name": "味彩 あらい",
            "type": "和風料理店",
            "address": "佐賀県神埼市千代田町姉１９５８－２",
            "time": "11:00～14:30 / 17:30～21:00",
            "regular_holiday": "月曜日",
            "tel": "0952-37-6217",
            "lat": "33.28695926",
            "lng": "130.36350036"
        },
        {
            "name": "味彩さざんかあいちゃん農園道の駅吉野ヶ里店",
            "type": "食堂",
            "address": "佐賀県神埼郡吉野ヶ里町松隈1710-11道の駅吉野ヶ里内",
            "time": "10：30～15：00",
            "regular_holiday": "毎週木曜日",
            "tel": "0952-55-6175",
            "lat": "33.38061494",
            "lng": "130.39734492"
        },
        {
            "name": "味膳 古雅味",
            "type": "和食",
            "address": "佐賀県神埼市神埼町田道ケ里1575-6",
            "time": "ランチ11:30～14:00／ディナー17:30～21:00（夜は予約のみ）",
            "regular_holiday": "不定休",
            "tel": "0952-52-7223",
            "lat": "33.31638096",
            "lng": "130.38641683"
        },
        {
            "name": "味処 あけぼの",
            "type": "食堂",
            "address": "佐賀県唐津市湊町777-1",
            "time": "11:00～18:00（17:00オーダーストップ）",
            "regular_holiday": "火曜日",
            "tel": "0955-79-0555",
            "lat": "33.52692879",
            "lng": "129.95144267"
        },
        {
            "name": "味処さかもと",
            "type": "和食",
            "address": "佐賀県唐津市東唐津4丁目2-19",
            "time": "ランチ11:30~15:00/ディナー17:30~21:00",
            "regular_holiday": "毎週水曜日・第3火曜日",
            "tel": "0955-72-2842",
            "lat": "33.44836087",
            "lng": "129.98692660"
        },
        {
            "name": "味処はやし",
            "type": "和食",
            "address": "佐賀県伊万里市山代町久原2998",
            "time": "11:30～21:00",
            "regular_holiday": ":毎週月曜日",
            "tel": "0955-28-0382",
            "lat": "33.31639751",
            "lng": "129.81067940"
        },
        {
            "name": "味処らくの",
            "type": "すし店",
            "address": "佐賀県鹿島市高津原西牟田3937-8",
            "time": "11:00～22:00",
            "regular_holiday": "毎週水曜日",
            "tel": "0954-63-1795",
            "lat": "33.11098607",
            "lng": "130.08781978"
        },
        {
            "name": "味のまごころ",
            "type": "食堂",
            "address": "佐賀県三養基郡みやき町大字白壁541-3",
            "time": "ランチ11:00～14:00 / ディナー17:00～21:00",
            "regular_holiday": "毎週木曜日",
            "tel": "0942-89-4538",
            "lat": "33.32750962",
            "lng": "130.46603660"
        },
        {
            "name": "味味鳥",
            "type": "その他飲食店",
            "address": "佐賀県鳥栖市古賀町650-2",
            "time": "17:30～24:00",
            "regular_holiday": "毎週水曜日",
            "tel": "0942-84-7005",
            "lat": "33.38965612",
            "lng": "130.49782986"
        },
        {
            "name": "阿城 中華料理店",
            "type": "中華料理店",
            "address": "佐賀県神埼市神埼町田道ケ里2275-8",
            "time": "12:00～18:00（テイクアウト）/ 18:00～21:00（店内営業）",
            "regular_holiday": "火曜日",
            "tel": "0952-52-8042",
            "lat": "33.31299812",
            "lng": "130.37459843"
        },
        {
            "name": "東屋",
            "type": "レストラン",
            "address": "佐賀県西松浦郡有田町黒川丙679",
            "time": "11:00～21：00",
            "regular_holiday": "不定休",
            "tel": "0955-46-3033",
            "lat": "33.19607855",
            "lng": "129.85336965"
        },
        {
            "name": "あっぱれ家 伊万里",
            "type": "ラーメン",
            "address": "佐賀県伊万里市東山代町長浜上白幡1623-1",
            "time": "11:00～22：00（ラストオーダー21：45）",
            "regular_holiday": "なし",
            "tel": "0955-24-9616",
            "lat": "33.26783408",
            "lng": "129.84694423"
        },
        {
            "name": "吾妻寿司",
            "type": "すし店",
            "address": "佐賀県鹿島市高津原3554-1",
            "time": "AM11:30～PM10:00",
            "regular_holiday": "毎週月曜日",
            "tel": "0954-63-2451",
            "lat": "33.10975293",
            "lng": "130.09056400"
        },
        {
            "name": "あづま寿し",
            "type": "すし店",
            "address": "佐賀県唐津市相知町相知1988-2",
            "time": "11:30～14:00 / 17:00～20:30",
            "regular_holiday": "毎週水曜日",
            "tel": "0955-62-3311",
            "lat": "33.35278271",
            "lng": "130.00939235"
        },
        {
            "name": "アトランティックカフェ",
            "type": "洋食",
            "address": "佐賀県佐賀市川副町南里348",
            "time": "ランチ12:00~16:00/ディナー18:00~21:00",
            "regular_holiday": "毎週火曜日",
            "tel": "090-4343-6866",
            "lat": "33.21203676",
            "lng": "130.31289903"
        },
        {
            "name": "あばん",
            "type": "レストラン",
            "address": "佐賀県西松浦郡有田町原明甲2473-4",
            "time": "10:00～14:00オーダーストップ",
            "regular_holiday": "不定休",
            "tel": "0955-46-5870",
            "lat": "33.17742760",
            "lng": "129.85202293"
        },
        {
            "name": "炙 癒食家 だいやみ",
            "type": "焼肉店",
            "address": "佐賀県嬉野市塩田町大字馬場下甲742-2",
            "time": "月・水～金 18:00～22:00 / 土日祝 17:00～22:00",
            "regular_holiday": "毎週火曜日・第1及び第3水曜日",
            "tel": "0954-66-6155",
            "lat": "33.12951112",
            "lng": "130.05949173"
        },
        {
            "name": "炙り牛たん万佐賀店",
            "type": "レストラン",
            "address": "佐賀県佐賀市兵庫北5-14-1ゆめタウン佐賀1階",
            "time": "11:00～22:00",
            "regular_holiday": "年中無休",
            "tel": "0952-20-1237",
            "lat": "33.27563907",
            "lng": "130.30795086"
        },
        {
            "name": "亜麻色",
            "type": "和食",
            "address": "佐賀県佐賀市伊勢町13-3",
            "time": "11:30～14:30 / 17:30～22:00",
            "regular_holiday": "火曜日",
            "tel": "0952-24-9711",
            "lat": "33.25304046",
            "lng": "130.29249989"
        },
        {
            "name": "網焼鳥 達丸",
            "type": "焼肉店",
            "address": "佐賀県唐津市材木町2081-1さくらビル",
            "time": "17:00～23:59",
            "regular_holiday": "基本休みなし",
            "tel": "0955-75-3330",
            "lat": "33.44770476",
            "lng": "129.97269750"
        },
        {
            "name": "アムール 多久本店",
            "type": "カレー",
            "address": "佐賀県多久市北多久町大字小侍666-42",
            "time": "11:00～21:30",
            "regular_holiday": "1月1日、毎週木曜日",
            "tel": "0952-75-4881",
            "lat": "33.28876272",
            "lng": "130.10169139"
        },
        {
            "name": "aritahuis",
            "type": "レストラン",
            "address": "佐賀県西松浦郡有田町赤坂丙2351-169アリタセラ内",
            "time": "ランチ11：30～14：00／ディナー18：00～22：00",
            "regular_holiday": "年中無休",
            "tel": "0955-25-8018",
            "lat": "33.19420982",
            "lng": "129.87588689"
        },
        {
            "name": "アリタポーセリンラボ有田旗艦船",
            "type": "その他飲食店",
            "address": "佐賀県西松浦郡有田町上幸平一丁目11番3号",
            "time": "カフェ11：00～16：00ランチ（土日祝のみ）11：00～14：00",
            "regular_holiday": "毎週火曜日・年末年始",
            "tel": "0955-29-8079",
            "lat": "33.19080771",
            "lng": "129.89991534"
        },
        {
            "name": "アンジェココ",
            "type": "喫茶店",
            "address": "佐賀県鳥栖市蔵上4丁目121",
            "time": "10:00～19:00",
            "regular_holiday": "毎週月曜日／第三火曜日",
            "tel": "0942-81-1638",
            "lat": "33.37291843",
            "lng": "130.49750583"
        },
        {
            "name": "あんじぇここ 杏都",
            "type": "喫茶店",
            "address": "佐賀県鳥栖市原古賀町519",
            "time": "10:00～18:00※ランチ／カフェ営業は11:30～16:00",
            "regular_holiday": "毎週月曜日／第三火曜日",
            "tel": "0942-85-7780",
            "lat": "33.37235154",
            "lng": "130.48848951"
        },
        {
            "name": "アンジェココ Pub Baboo",
            "type": "喫茶店",
            "address": "佐賀県鳥栖市蔵上4丁目121アンジェココ敷地内Pub Baboo",
            "time": "11:30～16:00（ランチ、カフェ営業のみ）",
            "regular_holiday": "毎週月曜日／第三火曜日",
            "tel": "0942-81-1638",
            "lat": "33.37291843",
            "lng": "130.49750583"
        },
        {
            "name": "アンテェナアト弥生が丘店",
            "type": "その他飲食店",
            "address": "佐賀県鳥栖市弥生が丘5丁目210-2",
            "time": "ランチ11:00～14:00LO／ディナー17:00～20:00LO",
            "regular_holiday": "不定休",
            "tel": "0942-81-2131",
            "lat": "33.40216692",
            "lng": "130.51761534"
        },
        {
            "name": "アンナの贈り物",
            "type": "喫茶店",
            "address": "佐賀県佐賀市高木瀬町長瀬935-2",
            "time": "10:00~19:30",
            "regular_holiday": "毎週月曜日",
            "tel": "0952-32-1245",
            "lat": "33.29245646",
            "lng": "130.28708266"
        },
        {
            "name": "あん梅",
            "type": "レストラン",
            "address": "佐賀県武雄市武雄町富岡7751-31",
            "time": "18:00～23:00",
            "regular_holiday": "日曜日",
            "tel": "0954-23-5617",
            "lat": "33.19529511",
            "lng": "130.01836122"
        },
        {
            "name": "あんバター∞えんバター",
            "type": "その他飲食店",
            "address": "佐賀県佐賀市駅前中央1丁目13-8岡本アパート1F西号室",
            "time": "10:00～19:30",
            "regular_holiday": "不定休",
            "tel": "0952-37-1025",
            "lat": "33.26472854",
            "lng": "130.29898799"
        },
        {
            "name": "いか道楽",
            "type": "レストラン",
            "address": "佐賀県唐津市呼子町加部島3606",
            "time": "10：30～18：00(現在時短営業中）",
            "regular_holiday": "毎週木曜日",
            "tel": "0955-82-5539",
            "lat": "33.55083334",
            "lng": "129.88758371"
        },
        {
            "name": "活き造りと明太なべ 小僧",
            "type": "和食",
            "address": "佐賀県佐賀市白山2丁目4-10",
            "time": "18:00～24:00",
            "regular_holiday": "不定休",
            "tel": "0952-27-2301",
            "lat": "33.25522666",
            "lng": "130.30017141"
        },
        {
            "name": "行き止まりん。",
            "type": "酒場・ビヤホール",
            "address": "佐賀県鹿島市高津原651-2",
            "time": "18:00～24:00",
            "regular_holiday": "不定休",
            "tel": "0954-69-1111",
            "lat": "33.10904201",
            "lng": "130.09642179"
        },
        {
            "name": "いきなりステーキゆめタウン佐賀店",
            "type": "ステーキハウス",
            "address": "佐賀県佐賀市港１－８－３０ゆめタウン佐賀 ２F",
            "time": "10:00-21:00 （ラストオーダー20:30）",
            "regular_holiday": "なし",
            "tel": "0952-37-1429",
            "lat": "33.26348150",
            "lng": "130.30085720"
        },
        {
            "name": "いけす 海幸",
            "type": "レストラン",
            "address": "佐賀県佐賀市下田町1-15",
            "time": "11:00～14:00 / 17:00～21:00",
            "regular_holiday": "12月31日、1月1日",
            "tel": "0952-23-5115",
            "lat": "33.24497680",
            "lng": "130.27655689"
        },
        {
            "name": "池田屋",
            "type": "食堂",
            "address": "佐賀県佐賀市赤松町241-39",
            "time": "昼の部 11時～15時（L.O14時半）夜の部 18時～21時（L.O20時半）",
            "regular_holiday": "月曜日。日曜の夜。月曜祝15時まで",
            "tel": "0952-22-7508",
            "lat": "33.24537177",
            "lng": "130.29295833"
        },
        {
            "name": "居心家 もと茶庵",
            "type": "その他飲食店",
            "address": "佐賀県藤津郡太良町多良1397",
            "time": "11:30～14:00 / 18:00～21:00",
            "regular_holiday": "月曜日",
            "tel": "0954-67-2626",
            "lat": "33.02293765",
            "lng": "130.17875097"
        },
        {
            "name": "居酒工房らいら",
            "type": "その他飲食店",
            "address": "佐賀県杵島郡江北町大字佐留志1412-4",
            "time": "17：00～25：00",
            "regular_holiday": "毎週水曜日",
            "tel": "0952-86-5280",
            "lat": "33.21523715",
            "lng": "130.16378811"
        },
        {
            "name": "居魚亭魚河し",
            "type": "酒場・ビヤホール",
            "address": "佐賀県武雄市武雄町昭和42-10",
            "time": "17:30～23:00",
            "regular_holiday": "不定休",
            "tel": "0954-22-0221",
            "lat": "33.19565352",
            "lng": "130.02745223"
        },
        {
            "name": "居酒屋 あじ彩",
            "type": "酒場・ビヤホール",
            "address": "佐賀県武雄市武雄町富岡11515-1",
            "time": "ランチ11:30~14:00/ディナー18:00~24:00",
            "regular_holiday": "日曜日",
            "tel": "090-9652-7833",
            "lat": "33.20241944",
            "lng": "130.02466335"
        },
        {
            "name": "居酒屋 網元",
            "type": "酒場・ビヤホール",
            "address": "佐賀県藤津郡太良町多良30-11",
            "time": "17：00～24:00",
            "regular_holiday": "毎週木曜日",
            "tel": "0954-67-1933",
            "lat": "33.02187660",
            "lng": "130.17757610"
        },
        {
            "name": "居酒屋 いけす料理 赤のれん",
            "type": "その他飲食店",
            "address": "佐賀県杵島郡大町町福母2339番地",
            "time": "17:00～24:00",
            "regular_holiday": "毎週月曜日",
            "tel": "0952-82-2333",
            "lat": "33.21544167",
            "lng": "130.10728966"
        },
        {
            "name": "居酒屋 がま",
            "type": "その他飲食店",
            "address": "佐賀県佐賀市鍋島3丁目4-29",
            "time": "18時～23時",
            "regular_holiday": "毎週月曜日",
            "tel": "0952-30-5433",
            "lat": "33.28091517",
            "lng": "130.26834545"
        },
        {
            "name": "居酒屋 ごん道",
            "type": "その他飲食店",
            "address": "佐賀県佐賀市呉服元町2-12-1",
            "time": "18:30～23:00",
            "regular_holiday": "不定休",
            "tel": "0952-29-1180",
            "lat": "33.25465183",
            "lng": "130.30341557"
        },
        {
            "name": "居酒屋 陣じん",
            "type": "その他飲食店",
            "address": "佐賀県佐賀市兵庫南2丁目15-1",
            "time": "18:00～24:00",
            "regular_holiday": "毎週水曜日",
            "tel": "0952-26-6013",
            "lat": "33.26355710",
            "lng": "130.31599477"
        },
        {
            "name": "居酒屋 信ちゃん",
            "type": "その他飲食店",
            "address": "佐賀県鳥栖市本通町2丁目873-3",
            "time": "18:00～24:00",
            "regular_holiday": "日曜日",
            "tel": "0942-84-9620",
            "lat": "33.37289933",
            "lng": "130.51542166"
        },
        {
            "name": "居酒屋 酔庄",
            "type": "その他飲食店",
            "address": "佐賀県杵島郡白石町福田1481-1ティファニー356BL.1F",
            "time": "17:00～24:00",
            "regular_holiday": "毎週水曜日",
            "tel": "0952-84-5590",
            "lat": "33.18138468",
            "lng": "130.13804960"
        },
        {
            "name": "居酒屋 大勝",
            "type": "その他飲食店",
            "address": "佐賀県神埼郡吉野ヶ里町吉田2005-50",
            "time": "ディナー17:30～22:30",
            "regular_holiday": "毎週月曜日",
            "tel": "0952-53-0645",
            "lat": "33.32982731",
            "lng": "130.40934016"
        },
        {
            "name": "居酒屋 大八車",
            "type": "酒場・ビヤホール",
            "address": "佐賀県唐津市中町１８３３",
            "time": "17:00~23:00",
            "regular_holiday": "毎週日曜日",
            "tel": "0955-73-0533",
            "lat": "33.44840734",
            "lng": "129.96989767"
        },
        {
            "name": "居酒屋 千景",
            "type": "その他飲食店",
            "address": "佐賀県鹿島市高津原5043-2",
            "time": "17:00～24:00",
            "regular_holiday": "毎週月曜日",
            "tel": "0954-62-0036",
            "lat": "33.11167207",
            "lng": "130.08618381"
        },
        {
            "name": "居酒屋 千鳥",
            "type": "酒場・ビヤホール",
            "address": "佐賀県杵島郡白石町大字戸ケ里1602-6",
            "time": "17:30～23:00",
            "regular_holiday": "毎週月曜日",
            "tel": "0954-65-4109",
            "lat": "33.15274308",
            "lng": "130.12356120"
        },
        {
            "name": "居酒屋 天狗茶屋",
            "type": "和風料理店",
            "address": "佐賀県唐津市紺屋町1670",
            "time": "17：30~23：00",
            "regular_holiday": "通常日曜",
            "tel": "0955-74-4955",
            "lat": "33.44734627",
            "lng": "129.96820057"
        },
        {
            "name": "居酒屋 登竜門",
            "type": "酒場・ビヤホール",
            "address": "佐賀県伊万里市伊万里町甲480",
            "time": "17:30～24:00",
            "regular_holiday": "火曜日",
            "tel": "0955-23-2865",
            "lat": "33.27357576",
            "lng": "129.87696102"
        },
        {
            "name": "居酒屋 どんぐり",
            "type": "酒場・ビヤホール",
            "address": "佐賀県武雄市武雄町武雄５６０８－１６",
            "time": "17:00-24:00",
            "regular_holiday": "毎週日曜日",
            "tel": "0954-22-0417",
            "lat": "33.19315643",
            "lng": "130.01781689"
        },
        {
            "name": "居酒屋 とんとん",
            "type": "酒場・ビヤホール",
            "address": "佐賀県伊万里市伊万里町甲498-1",
            "time": "18:00～23:30",
            "regular_holiday": "日曜日",
            "tel": "0955-22-7855",
            "lat": "33.27378681",
            "lng": "129.87570281"
        },
        {
            "name": "居酒屋 びすとろ",
            "type": "その他飲食店",
            "address": "佐賀県杵島郡白石町福田1556",
            "time": "17:00～23:00",
            "regular_holiday": "日曜日",
            "tel": "0952-84-6868",
            "lat": "33.18360395",
            "lng": "130.13842722"
        },
        {
            "name": "居酒屋 穂高",
            "type": "その他飲食店",
            "address": "佐賀県伊万里市新天町497-1",
            "time": "17:30～22:30",
            "regular_holiday": "日曜日",
            "tel": "0955-22-8520",
            "lat": "33.27056222",
            "lng": "129.87581118"
        },
        {
            "name": "居酒屋八蔵 鳥栖店",
            "type": "その他飲食店",
            "address": "佐賀県鳥栖市宿町716-8",
            "time": "17：00～23：00",
            "regular_holiday": "毎週火曜日",
            "tel": "0952-81-3707",
            "lat": "33.37355453",
            "lng": "130.49899741"
        },
        {
            "name": "居酒屋八蔵 吉野ヶ里店",
            "type": "その他飲食店",
            "address": "佐賀県神埼郡吉野ヶ里町吉田33-1",
            "time": "17：00～23：00",
            "regular_holiday": "毎週月曜日",
            "tel": "0952-55-7777",
            "lat": "33.32203047",
            "lng": "130.39455790"
        },
        {
            "name": "居酒屋やはぎ",
            "type": "酒場・ビヤホール",
            "address": "佐賀県唐津市材木町2231-1",
            "time": "午後18時～午前3時",
            "regular_holiday": "毎週日曜日",
            "tel": "090-8352-7662",
            "lat": "33.44616345",
            "lng": "129.97652771"
        },
        {
            "name": "いざかや飛鳥",
            "type": "和食",
            "address": "佐賀県佐賀市愛敬町4-1",
            "time": "17:00～26:00頃",
            "regular_holiday": "原則火曜日（不定日）",
            "tel": "0952-29-1895",
            "lat": "33.25899303",
            "lng": "130.30131290"
        },
        {
            "name": "居酒屋いってみよう",
            "type": "その他飲食店",
            "address": "佐賀県武雄市武雄町富岡7751-25",
            "time": "17:00～23:00",
            "regular_holiday": "不定休",
            "tel": "0954-22-2513",
            "lat": "33.19566730",
            "lng": "130.01909450"
        },
        {
            "name": "居酒屋 かちや",
            "type": "その他飲食店",
            "address": "佐賀県三養基郡みやき町簑原764",
            "time": "日～木17:00～22:00(LO21:30) 金，土17:00～23:00(LO22:30)",
            "regular_holiday": "毎週火曜日",
            "tel": "0942-94-3149",
            "lat": "33.34566870",
            "lng": "130.45141719"
        },
        {
            "name": "いざかやかんすけ",
            "type": "その他飲食店",
            "address": "佐賀県唐津市唐津市木綿町1963",
            "time": "16:00~26:00",
            "regular_holiday": "年中無休",
            "tel": "090-3600-7193",
            "lat": "33.45016260",
            "lng": "129.96798950"
        },
        {
            "name": "居酒屋金柑",
            "type": "その他飲食店",
            "address": "佐賀県佐賀市駅前中央一丁目5-14モードビル2-1階",
            "time": "17:00～23:30",
            "regular_holiday": "不定休",
            "tel": "0952-26-5108",
            "lat": "33.26270370",
            "lng": "130.29848252"
        },
        {
            "name": "居酒屋 慶kei",
            "type": "その他飲食店",
            "address": "佐賀県伊万里市伊万里町甲121",
            "time": "18:00～23:00",
            "regular_holiday": "月.火.水曜日",
            "tel": "0956-25-9766",
            "lat": "33.27356478",
            "lng": "129.88081066"
        },
        {
            "name": "居酒屋こがんちゃ家",
            "type": "その他飲食店",
            "address": "佐賀県佐賀市堀川町2-29",
            "time": "ランチ11:30~14:00／ディナー18:00~24:00",
            "regular_holiday": "不定休",
            "tel": "0952-26-0650",
            "lat": "33.25024635",
            "lng": "130.29425813"
        },
        {
            "name": "居酒屋 櫻",
            "type": "その他飲食店",
            "address": "佐賀県小城市三日月町長神田831-18",
            "time": "ディナー18:00/24:00",
            "regular_holiday": "毎週月曜日",
            "tel": "0952-72-8735",
            "lat": "33.28309089",
            "lng": "130.21072423"
        },
        {
            "name": "居酒屋 シャンリー",
            "type": "酒場・ビヤホール",
            "address": "佐賀県佐賀市駅前中央1-13-30",
            "time": "11:30～21:30",
            "regular_holiday": "日曜日",
            "tel": "0952-97-6111",
            "lat": "33.26478962",
            "lng": "130.29821861"
        },
        {
            "name": "居酒屋甚八",
            "type": "和食",
            "address": "佐賀県武雄市武雄町昭和10-10",
            "time": "17:00～23:00",
            "regular_holiday": "毎週水曜日",
            "tel": "0954-27-7226",
            "lat": "33.19362588",
            "lng": "130.02248046"
        },
        {
            "name": "居酒屋たら福",
            "type": "その他飲食店",
            "address": "佐賀県鹿島市大字高津原4282-2",
            "time": "17：30～24：00",
            "regular_holiday": "毎週月曜日",
            "tel": "0954-62-9599",
            "lat": "33.11226661",
            "lng": "130.09468299"
        },
        {
            "name": "居酒屋 旬",
            "type": "酒場・ビヤホール",
            "address": "佐賀県嬉野市嬉野町下宿乙2202-45",
            "time": "18：00～22：00",
            "regular_holiday": "毎週水曜日",
            "tel": "0954-42-1235",
            "lat": "33.09678813",
            "lng": "129.98125944"
        },
        {
            "name": "居酒屋ながの",
            "type": "その他飲食店",
            "address": "佐賀県唐津市木綿町1965-3",
            "time": "18:00～23:30",
            "regular_holiday": "不定休",
            "tel": "0955-74-7789",
            "lat": "33.44812967",
            "lng": "129.97171700"
        },
        {
            "name": "居酒屋NUFNUF",
            "type": "酒場・ビヤホール",
            "address": "佐賀県武雄市北方町志久１７６２－１",
            "time": "18:00～00:00",
            "regular_holiday": "毎週水曜日",
            "tel": "0954-36-3530",
            "lat": "33.21982966",
            "lng": "130.06536818"
        },
        {
            "name": "居酒屋のーてんき",
            "type": "酒場・ビヤホール",
            "address": "佐賀県武雄市武雄町武雄8157-1",
            "time": "18:00～0:00",
            "regular_holiday": "年中無休",
            "tel": "0954-23-8859",
            "lat": "33.19191770",
            "lng": "130.02162225"
        },
        {
            "name": "居酒屋のーてんき 鍋島店",
            "type": "酒場・ビヤホール",
            "address": "佐賀県佐賀市開成6-5-27",
            "time": "18:00～3:00",
            "regular_holiday": "年中無休",
            "tel": "0952-32-2405",
            "lat": "33.26946892",
            "lng": "130.27178165"
        },
        {
            "name": "居酒屋のーてんき 本庄店",
            "type": "酒場・ビヤホール",
            "address": "佐賀県佐賀市本庄町本庄2－20",
            "time": "17:00～0:00",
            "regular_holiday": "年中無休",
            "tel": "0952-26-1725",
            "lat": "33.24458013",
            "lng": "130.29142237"
        },
        {
            "name": "居酒屋のーてんき 本店",
            "type": "酒場・ビヤホール",
            "address": "佐賀県佐賀市愛敬町3-40",
            "time": "18:00～0:00",
            "regular_holiday": "年中無休",
            "tel": "0952-29-1848",
            "lat": "33.25806812",
            "lng": "130.30139069"
        },
        {
            "name": "居酒屋はづれもん",
            "type": "その他飲食店",
            "address": "佐賀県唐津市神田1886-1",
            "time": "17:00～23:00",
            "regular_holiday": "なし",
            "tel": "0955-74-6752",
            "lat": "33.44032715",
            "lng": "129.96174248"
        },
        {
            "name": "居酒屋花串",
            "type": "その他飲食店",
            "address": "佐賀県杵島郡白石町福富3516-1",
            "time": "17:00～",
            "regular_holiday": "毎週火曜日、第一月曜日",
            "tel": "0952-87-3227",
            "lat": "33.18192491",
            "lng": "130.19022351"
        },
        {
            "name": "いざかや風林火山",
            "type": "その他飲食店",
            "address": "佐賀県唐津市木綿町1961-2",
            "time": "17時~27時",
            "regular_holiday": "なし",
            "tel": "0955-75-5750",
            "lat": "33.44829910",
            "lng": "129.97173088"
        },
        {
            "name": "囲酒家ほほほのほ",
            "type": "その他飲食店",
            "address": "佐賀県唐津市高砂町１７０８ー2",
            "time": "17：00～24：00",
            "regular_holiday": "木曜日",
            "tel": "0955-55-9039",
            "lat": "33.44667419",
            "lng": "129.96964216"
        },
        {
            "name": "居酒屋ぽん太",
            "type": "酒場・ビヤホール",
            "address": "佐賀県伊万里市新天町469-9",
            "time": "17:30~23:00",
            "regular_holiday": "毎週日曜日",
            "tel": "0955-23-3683",
            "lat": "33.27060654",
            "lng": "129.87177265"
        },
        {
            "name": "居酒屋 味我亭",
            "type": "各国料理店",
            "address": "佐賀県唐津市鏡1828-12",
            "time": "18:00～22:00",
            "regular_holiday": "日祭日",
            "tel": "0955-77-0901",
            "lat": "33.43303602",
            "lng": "130.00959947"
        },
        {
            "name": "居酒屋美郷",
            "type": "その他飲食店",
            "address": "佐賀県小城市小城町池上2781",
            "time": "17:00～24:00",
            "regular_holiday": "月曜日",
            "tel": "0952-72-7827",
            "lat": "33.27161641",
            "lng": "130.18897681"
        },
        {
            "name": "居酒屋もくもく",
            "type": "その他飲食店",
            "address": "佐賀県伊万里市波多津町辻5483-3",
            "time": "18:00～24:00",
            "regular_holiday": "毎週月曜日",
            "tel": "090-8398-5544",
            "lat": "33.37271905",
            "lng": "129.87104048"
        },
        {
            "name": "居酒屋遊膳",
            "type": "酒場・ビヤホール",
            "address": "佐賀県鹿島市大字高津原3939-1",
            "time": "ディナー18:00～24:00",
            "regular_holiday": "毎週火曜日",
            "tel": "0954-62-3940",
            "lat": "33.11121394",
            "lng": "130.09405530"
        },
        {
            "name": "居酒屋ゆるり",
            "type": "酒場・ビヤホール",
            "address": "佐賀県佐賀市本庄町本庄1326番1",
            "time": "18:00～0:00",
            "regular_holiday": "年中無休",
            "tel": "0952-40-0524",
            "lat": "33.24498567",
            "lng": "130.29231117"
        },
        {
            "name": "居酒屋りんでん",
            "type": "酒場・ビヤホール",
            "address": "佐賀県小城市牛津町上砥川244-10",
            "time": "17：00～24：00",
            "regular_holiday": "不定休",
            "tel": "0952-37-9860",
            "lat": "33.24378104",
            "lng": "130.18701682"
        },
        {
            "name": "居酒屋笑らび",
            "type": "酒場・ビヤホール",
            "address": "佐賀県小城市三日月町長神田831-19",
            "time": "夜18:00～24:00",
            "regular_holiday": "毎週火曜日",
            "tel": "0952-73-5659",
            "lat": "33.28308532",
            "lng": "130.21059090"
        },
        {
            "name": "居酒屋 わらべ",
            "type": "和風料理店",
            "address": "佐賀県鹿島市高津原3934-6",
            "time": "18:00～24:00",
            "regular_holiday": "日曜日",
            "tel": "0954-62-9107",
            "lat": "33.11107230",
            "lng": "130.09440805"
        },
        {
            "name": "いしむら唐津店",
            "type": "その他飲食店",
            "address": "佐賀県唐津市町田2-2361-1",
            "time": "9:00～20:00",
            "regular_holiday": "不定休",
            "tel": "0955-74-7900",
            "lat": "33.44203839",
            "lng": "129.96715615"
        },
        {
            "name": "いしむら高木瀬店",
            "type": "喫茶店",
            "address": "佐賀県佐賀市高木瀬東5-16-18",
            "time": "9：00～19：30",
            "regular_holiday": "なし",
            "tel": "0952-34-4474",
            "lat": "33.28522123",
            "lng": "130.29767650"
        },
        {
            "name": "居食家 風",
            "type": "その他飲食店",
            "address": "佐賀県三養基郡みやき町原古賀7385-15",
            "time": "17:30～23:00",
            "regular_holiday": "水曜日",
            "tel": "0942-94-5144",
            "lat": "33.33564435",
            "lng": "130.44433491"
        },
        {
            "name": "居食屋 タム",
            "type": "その他飲食店",
            "address": "佐賀県鹿島市中村1836-イ",
            "time": "17:30～24:00（LO23:30）",
            "regular_holiday": "毎週火曜日",
            "tel": "0954-62-6606",
            "lat": "33.11686611",
            "lng": "130.09573836"
        },
        {
            "name": "板前料理 まる新",
            "type": "すし店",
            "address": "佐賀県佐賀市中央本町1-26",
            "time": "17:00～23:00",
            "regular_holiday": "毎週月曜日",
            "tel": "0952-24-1757",
            "lat": "33.25337133",
            "lng": "130.30188518"
        },
        {
            "name": "イタリーボン",
            "type": "スパゲティ",
            "address": "佐賀県佐賀市中の小路2番5号",
            "time": "10:30～17:00",
            "regular_holiday": "玉屋定休日・木曜日",
            "tel": "0952-25-6602",
            "lat": "33.25346568",
            "lng": "130.29956594"
        },
        {
            "name": "イタリア料理詩々里庵",
            "type": "スパゲティ",
            "address": "佐賀県鳥栖市大正町783－9",
            "time": "ランチ11:30～14:30／ディナー17:00～20:30",
            "regular_holiday": "毎週火曜日",
            "tel": "0942-82-8457",
            "lat": "33.37520472",
            "lng": "130.51501325"
        },
        {
            "name": "イタリア料理店　オステリア　ウーヴァ",
            "type": "レストラン",
            "address": "佐賀県嬉野市嬉野町下宿乙1273",
            "time": "ランチ11:30～14:00/ ディナー18:00～21:00",
            "regular_holiday": "毎週水曜日　不定休あり",
            "tel": "0954-43-0231",
            "lat": "33.10195160",
            "lng": "129.98692010"
        },
        {
            "name": "イタリアン酒場 PEACE",
            "type": "酒場・ビヤホール",
            "address": "佐賀県三養基郡基山町宮浦186-21",
            "time": "18:00～深夜1:00",
            "regular_holiday": "月曜日",
            "tel": "0942-50-8685",
            "lat": "33.42154414",
            "lng": "130.53045104"
        },
        {
            "name": "イタリアンレストラン イル ソリッソ",
            "type": "レストラン",
            "address": "佐賀県佐賀市中央本町２－２２ツースリービル３階",
            "time": "ランチ土日のみ11:30~14:00/ディナー木金土日18:00~21:00",
            "regular_holiday": "毎週月火水",
            "tel": "0952-23-7790",
            "lat": "33.25351571",
            "lng": "130.30035476"
        },
        {
            "name": "一膳一献お豆",
            "type": "その他飲食店",
            "address": "佐賀県佐賀市松原2丁目19-9",
            "time": "ディナー18:00～23:00",
            "regular_holiday": "毎週月曜日",
            "tel": "0952-38-2113",
            "lat": "33.25197700",
            "lng": "130.30151858"
        },
        {
            "name": "一楽",
            "type": "食堂",
            "address": "佐賀県小城市小城町436",
            "time": "11:30～13:00 / 17:00～20:00",
            "regular_holiday": "不定休",
            "tel": "0952-73-2235",
            "lat": "33.29371452",
            "lng": "130.20061035"
        },
        {
            "name": "一粒茶屋 すいしゃ",
            "type": "レストラン",
            "address": "佐賀県嬉野市嬉野町下野甲5682-1",
            "time": "11:30～15:00",
            "regular_holiday": "日・月曜日",
            "tel": "0954-42-0001",
            "lat": "33.09866051",
            "lng": "129.99298335"
        },
        {
            "name": "一酔",
            "type": "和食",
            "address": "佐賀県武雄市武雄町大字富岡8295-5",
            "time": "17:00～22:00",
            "regular_holiday": "日曜日",
            "tel": "0954-22-3308",
            "lat": "33.19570620",
            "lng": "130.01995277"
        },
        {
            "name": "一天張",
            "type": "和食",
            "address": "佐賀県唐津市京町1727",
            "time": "17時～23時",
            "regular_holiday": "毎週日曜日",
            "tel": "0955-73-2984",
            "lat": "33.44698812",
            "lng": "129.97144204"
        },
        {
            "name": "一汁五穀佐賀店",
            "type": "レストラン",
            "address": "佐賀県佐賀市兵庫北5-14-1ゆめタウン佐賀1階",
            "time": "11:00～22:00",
            "regular_holiday": "年中無休",
            "tel": "0952-20-1758",
            "lat": "33.27563907",
            "lng": "130.30795086"
        },
        {
            "name": "IPPUDO RAMEN EXPRESS 鳥栖プレミアム・アウトレット店",
            "type": "ラーメン",
            "address": "佐賀県鳥栖市弥生が丘8-1鳥栖プレミアム・アウトレット1F",
            "time": "10:00 ~ 19:00",
            "regular_holiday": "年中無休",
            "tel": "0942-50-8963",
            "lat": "33.40648597",
            "lng": "130.51163775"
        },
        {
            "name": "IPPUDO RAMEN EXPRESS ゆめタウン佐賀店",
            "type": "ラーメン",
            "address": "佐賀県佐賀市兵庫北5-14-1ゆめタウン佐賀2F",
            "time": "平日10:00 ~ 19:00/土日祝10:00 ~ 20:00",
            "regular_holiday": "年中無休",
            "tel": "0952-37-3727",
            "lat": "33.27563907",
            "lng": "130.30795086"
        },
        {
            "name": "一福",
            "type": "食堂",
            "address": "佐賀県三養基郡基山町宮浦973-2",
            "time": "AM11:30～PM2:00 PM5:00～PM9:00",
            "regular_holiday": "毎週水曜日・第一木曜日",
            "tel": "0942-92-6910",
            "lat": "33.41803963",
            "lng": "130.52643012"
        },
        {
            "name": "井手商店",
            "type": "レストラン",
            "address": "佐賀県鹿島市古枝甲1685",
            "time": "8：00～17：00",
            "regular_holiday": "不定休",
            "tel": "0954-62-2754",
            "lat": "33.09439658",
            "lng": "130.10795162"
        },
        {
            "name": "井手ちゃんぽん兵庫店",
            "type": "その他飲食店",
            "address": "佐賀県佐賀市兵庫町藤木1281-25",
            "time": "11:00～21:00",
            "regular_holiday": "月曜日（祝日の際は翌日）",
            "tel": "0952-32-4510",
            "lat": "33.27693607",
            "lng": "130.30500387"
        },
        {
            "name": "井手ちゃんぽん諸富店",
            "type": "その他飲食店",
            "address": "佐賀県佐賀市諸富町山領322-1",
            "time": "11:00～21:00",
            "regular_holiday": "月曜日（祝日の際は翌日）",
            "tel": "0952-47-2505",
            "lat": "33.22639421",
            "lng": "130.34641282"
        },
        {
            "name": "井手ちゃんぽん大和店",
            "type": "その他飲食店",
            "address": "佐賀県佐賀市大和町尼寺3650-1",
            "time": "11:00～21:00",
            "regular_holiday": "月曜日（祝日の際は翌日）",
            "tel": "0952-62-8181",
            "lat": "33.30541644",
            "lng": "130.27869952"
        },
        {
            "name": "伊藤けえらん本家",
            "type": "喫茶店",
            "address": "佐賀県唐津市浜玉町浜崎943",
            "time": "08:00～20:00",
            "regular_holiday": "年中無休",
            "tel": "0955-56-6901",
            "lat": "33.44849027",
            "lng": "130.03949826"
        },
        {
            "name": "田舎のビストロ ポポット",
            "type": "レストラン",
            "address": "佐賀県唐津市浜玉町浜崎2597-1",
            "time": "1100～1430 /1800～2000",
            "regular_holiday": "毎週月曜日と第3火曜日",
            "tel": "0955-56-2311",
            "lat": "33.43540308",
            "lng": "130.02487003"
        },
        {
            "name": "威風堂々　有田",
            "type": "ラーメン",
            "address": "佐賀県西松浦郡有田町南原丁54番地4",
            "time": "11：00～22：00（ラストオーダー21：45）",
            "regular_holiday": "なし",
            "tel": "0955-25-9550",
            "lat": "33.18407465",
            "lng": "129.87285126"
        },
        {
            "name": "伊万里 きくなみ",
            "type": "和食",
            "address": "佐賀県伊万里市伊万里町乙137-11",
            "time": "12:00～14:00 / 18:00～21:30",
            "regular_holiday": "不定休",
            "tel": "0955-20-9451",
            "lat": "33.27568937",
            "lng": "129.87652492"
        },
        {
            "name": "いまり海の郷 玄海丸",
            "type": "レストラン",
            "address": "佐賀県伊万里市南波多町井手野2956-1",
            "time": "11:00～22:00 LO21:00",
            "regular_holiday": "不定休",
            "tel": "0955-24-2263",
            "lat": "33.31493206",
            "lng": "129.92815553"
        },
        {
            "name": "伊万里温泉白磁乃湯",
            "type": "その他飲食店",
            "address": "佐賀県伊万里市立花町2402番地1",
            "time": "宴会【昼の部】11:00～15:00／【夜の部】17:30～21:30",
            "regular_holiday": "年3回不定休",
            "tel": "0955-22-6380",
            "lat": "33.26029726",
            "lng": "129.88971840"
        },
        {
            "name": "伊万里牛鉄板ステーキの店 Dining TAKA",
            "type": "ステーキハウス",
            "address": "佐賀県伊万里市大川町大川野3869-1",
            "time": "11:30～14:00 17:00～20:00",
            "regular_holiday": "日曜日・第2第4月曜日",
            "tel": "0955-29-2111",
            "lat": "33.30532854",
            "lng": "129.97353523"
        },
        {
            "name": "伊万里厨酒房 彩香",
            "type": "レストラン",
            "address": "佐賀県伊万里市伊万里町甲461",
            "time": "11:30～14:00 / 17:30～22:00",
            "regular_holiday": "火曜日",
            "tel": "0955-22-8228",
            "lat": "33.27409514",
            "lng": "129.87689713"
        },
        {
            "name": "伊万里 ロジエ",
            "type": "レストラン",
            "address": "佐賀県伊万里市伊万里町甲567",
            "time": "10:30～17:00（その後は要予約あり）",
            "regular_holiday": "不定休",
            "tel": "0955-23-3289",
            "lat": "33.27454232",
            "lng": "129.87717488"
        },
        {
            "name": "いやしのうさぎ",
            "type": "食堂",
            "address": "佐賀県唐津市柏崎354",
            "time": "11:30～15:00",
            "regular_holiday": "月、火、水・第1日曜日",
            "tel": "0955-77-0605",
            "lat": "33.41050709",
            "lng": "130.00422541"
        },
        {
            "name": "ILHA Cafe",
            "type": "喫茶店",
            "address": "佐賀県西松浦郡有田町本町丙1092",
            "time": "12：00～18：00",
            "regular_holiday": "毎週木曜日",
            "tel": "080-4281-0168",
            "lat": "33.18232205",
            "lng": "129.88187541"
        },
        {
            "name": "岩屋 うどん",
            "type": "うどん店",
            "address": "佐賀県神埼市脊振町広滝2364",
            "time": "11:00～15:00",
            "regular_holiday": "火曜日",
            "tel": "0952-59-2934",
            "lat": "33.36178503",
            "lng": "130.34733544"
        },
        {
            "name": "インド・ネパールレストランエベレスト Frespo",
            "type": "カレー",
            "address": "佐賀県鳥栖市本鳥栖町537-1",
            "time": "10:00~22:00",
            "regular_holiday": "なし",
            "tel": "0942-81-2507",
            "lat": "33.37613245",
            "lng": "130.51726861"
        },
        {
            "name": "インド料理 RAJA",
            "type": "カレー",
            "address": "佐賀県佐賀市巨勢町大字牛島730モラージュ佐賀1F",
            "time": "11:00～22:00",
            "regular_holiday": "無し",
            "tel": "0952-27-7303",
            "lat": "33.25127494",
            "lng": "130.31967802"
        },
        {
            "name": "インド料理ビスヌ 佐賀店",
            "type": "カレー",
            "address": "佐賀県佐賀市駅南本町2-1MT16駅南本町1Ｆ",
            "time": "ランチ11：00～15：00 デイナー17：00～22：00",
            "regular_holiday": "なし",
            "tel": "0952-28-2150",
            "lat": "33.26013447",
            "lng": "130.29808261"
        },
        {
            "name": "インド料理レストラン ムナ",
            "type": "各国料理店",
            "address": "佐賀県三養基郡みやき町白壁853-1",
            "time": "平日11:00～15:00/17:00～23:00 土日祝日11:00～15:00/15:00～23:00",
            "regular_holiday": "不定休",
            "tel": "0942-89-1851",
            "lat": "33.32879860",
            "lng": "130.47411082"
        },
        {
            "name": "インド料理レストランビスヌ 鳥栖店",
            "type": "カレー",
            "address": "佐賀県鳥栖市真木町1798-1",
            "time": "ランチ11：00～15：00 デイナー17：00～22：00",
            "regular_holiday": "なし",
            "tel": "0942-82-8282",
            "lat": "33.35706423",
            "lng": "130.51258353"
        },
        {
            "name": "ヴァーサタイル",
            "type": "レストラン",
            "address": "佐賀県鳥栖市本鳥栖町704-12",
            "time": "ランチ11:30～14:00／ディナー18:00～24:00",
            "regular_holiday": "日曜日",
            "tel": "0942-83-8533",
            "lat": "33.37732125",
            "lng": "130.51615474"
        },
        {
            "name": "魚民 伊万里店",
            "type": "レストラン",
            "address": "佐賀県伊万里市新天町字中島460-5モンテローザ伊万里ビル １階",
            "time": "詳細は店舗までお問い合わせください",
            "regular_holiday": "臨時休業有り",
            "tel": "0955-23-9188",
            "lat": "33.27015673",
            "lng": "129.87633336"
        },
        {
            "name": "魚民 佐賀北口駅前店",
            "type": "レストラン",
            "address": "佐賀県佐賀市駅前中央2-1-52階",
            "time": "詳細は店舗までお問い合わせください",
            "regular_holiday": "臨時休業有り",
            "tel": "0952-33-6388",
            "lat": "33.26583672",
            "lng": "130.29753254"
        },
        {
            "name": "魚民 ライフガーデン鳥栖店",
            "type": "レストラン",
            "address": "佐賀県鳥栖市轟木町1173ライフガーデン鳥栖 １階",
            "time": "詳細は店舗までお問い合わせください",
            "regular_holiday": "臨時休業有り",
            "tel": "0942-81-3588",
            "lat": "33.36345808",
            "lng": "130.50378654"
        },
        {
            "name": "兎山なずな庵",
            "type": "和食",
            "address": "佐賀県伊万里市木須町4853-1",
            "time": "ランチ11:30～14:00／ディナー18:00～22:00",
            "regular_holiday": "不定休",
            "tel": "0955-22-3992",
            "lat": "33.29169536",
            "lng": "129.86108178"
        },
        {
            "name": "牛島商店",
            "type": "料亭",
            "address": "佐賀県杵島郡白石町大字辺田1758",
            "time": "12:00～14:45 / 18:00～21:45",
            "regular_holiday": "水曜日",
            "tel": "0954-65-2810",
            "lat": "33.16315845",
            "lng": "130.10563409"
        },
        {
            "name": "牛津 さぬき屋",
            "type": "うどん店",
            "address": "佐賀県小城市牛津町勝1370-1",
            "time": "24時間",
            "regular_holiday": "第1木曜日・第3木曜日",
            "tel": "0952-66-4123",
            "lat": "33.25685172",
            "lng": "130.20147973"
        },
        {
            "name": "うちだ屋 鹿島店",
            "type": "うどん店",
            "address": "佐賀県鹿島市中村1613-3",
            "time": "11:00～24:30",
            "regular_holiday": "なし",
            "tel": "0954-62-9396",
            "lat": "33.12192649",
            "lng": "130.08744737"
        },
        {
            "name": "うちだ屋 江北店",
            "type": "うどん店",
            "address": "佐賀県杵島郡江北町佐留志2068-3",
            "time": "11:00～24:30",
            "regular_holiday": "なし",
            "tel": "0952-86-3741",
            "lat": "33.21869244",
            "lng": "130.16896831"
        },
        {
            "name": "うちだ屋 白石店",
            "type": "うどん店",
            "address": "佐賀県杵島郡白石町福田1286-1",
            "time": "11:00～24:30",
            "regular_holiday": "なし",
            "tel": "0952-84-3470",
            "lat": "33.18179858",
            "lng": "130.13955778"
        },
        {
            "name": "うちだ屋 大和BP店",
            "type": "うどん店",
            "address": "佐賀県佐賀市大和町尼寺3660",
            "time": "11:00～21:30",
            "regular_holiday": "なし",
            "tel": "0952-62-3688",
            "lat": "33.30542754",
            "lng": "130.27784402"
        },
        {
            "name": "うどんウエスト伊万里店",
            "type": "うどん店",
            "address": "佐賀県伊万里市新天町286-9",
            "time": "11:00~23:30",
            "regular_holiday": "無し",
            "tel": "0955-23-2373",
            "lat": "33.26927896",
            "lng": "129.87273924"
        },
        {
            "name": "うどんウエスト唐津店",
            "type": "うどん店",
            "address": "佐賀県唐津市鏡4661-1",
            "time": "11:00~22:30",
            "regular_holiday": "無し",
            "tel": "0955-77-4411",
            "lat": "33.43636918",
            "lng": "130.01360171"
        },
        {
            "name": "うどんウエスト基山店",
            "type": "うどん店",
            "address": "佐賀県三養基郡基山町小倉1733",
            "time": "10:00~22:00",
            "regular_holiday": "無し",
            "tel": "0942-81-7355",
            "lat": "33.43183100",
            "lng": "130.53393250"
        },
        {
            "name": "うどんウエスト佐賀末広店",
            "type": "うどん店",
            "address": "佐賀県佐賀市末広1-9-43",
            "time": "11:00~22:00",
            "regular_holiday": "無し",
            "tel": "0952-27-0850",
            "lat": "33.24719338",
            "lng": "130.28048709"
        },
        {
            "name": "うどんウエスト佐賀店",
            "type": "うどん店",
            "address": "佐賀県佐賀市鍋島町森田887-1",
            "time": "24時間営業",
            "regular_holiday": "無し",
            "tel": "0952-31-0251",
            "lat": "33.26736880",
            "lng": "130.25888535"
        },
        {
            "name": "うどんウエスト佐賀光法店",
            "type": "うどん店",
            "address": "佐賀県佐賀市北川副町光法1469",
            "time": "11:00~22:00",
            "regular_holiday": "無し",
            "tel": "01111-11-1113",
            "lat": "33.23162142",
            "lng": "130.33408567"
        },
        {
            "name": "うどんウエスト高木瀬店",
            "type": "うどん店",
            "address": "佐賀県佐賀市高木瀬東3-20-1010-1",
            "time": "11:00~21:00",
            "regular_holiday": "無し",
            "tel": "0952-34-1611",
            "lat": "33.28358231",
            "lng": "130.29246306"
        },
        {
            "name": "うどんウエスト三田川店",
            "type": "うどん店",
            "address": "佐賀県神埼郡吉野ヶ里町吉田292-1",
            "time": "11:00~22:00",
            "regular_holiday": "無し",
            "tel": "0952-53-5767",
            "lat": "33.32313596",
            "lng": "130.39813824"
        },
        {
            "name": "うどん店 鳩屋製麺",
            "type": "うどん店",
            "address": "佐賀県佐賀市久保田町徳万2416-2",
            "time": "平日11:15～14：30 17：00～20：00 土11:00～14:30 17:00～20:30 日祝11:00～14:30 17:00～19:45",
            "regular_holiday": "毎週水曜日、不定火曜日",
            "tel": "0952-68-5810",
            "lat": "33.24182036",
            "lng": "130.23736580"
        },
        {
            "name": "うどん料理の郷　山忠",
            "type": "うどん店",
            "address": "佐賀県杵島郡江北町山口1357-3",
            "time": "11：00～16：00（ＯＳ15：20）17：00～22：00（ＬＯ21：20）",
            "regular_holiday": "不定休",
            "tel": "0952-86-2254",
            "lat": "33.21773405",
            "lng": "130.16202428"
        },
        {
            "name": "うなぎ・お食事処 丸安",
            "type": "和食",
            "address": "佐賀県神埼郡吉野ヶ里町石動2662-5",
            "time": "11:00-14:00(LO)/17:00-21:00(LO)",
            "regular_holiday": "不定休",
            "tel": "0952-52-4340",
            "lat": "33.34932858",
            "lng": "130.40364801"
        },
        {
            "name": "うなぎ専門店　味",
            "type": "和食",
            "address": "佐賀県西松浦郡有田町岩谷川内2-10-11",
            "time": "11：00～19：30",
            "regular_holiday": "毎週月曜日",
            "tel": "0955-42-4010",
            "lat": "33.18277481",
            "lng": "129.88684160"
        },
        {
            "name": "うな勇",
            "type": "その他飲食店",
            "address": "佐賀県鳥栖市養父町486-1",
            "time": "11:00～14:30（L.O）/ 17:00～20:00（L.O）",
            "regular_holiday": "月曜日",
            "tel": "0942-85-0320",
            "lat": "33.38098180",
            "lng": "130.49944144"
        },
        {
            "name": "うふふCafe 鳥栖本町店",
            "type": "洋食",
            "address": "佐賀県鳥栖市元町1348-2",
            "time": "11:00～23:00",
            "regular_holiday": "なし",
            "tel": "0942-83-0007",
            "lat": "33.37520738",
            "lng": "130.50689147"
        },
        {
            "name": "うまか屋 源喜",
            "type": "その他飲食店",
            "address": "佐賀県唐津市和多田本村4-50",
            "time": "17:30~23:00",
            "regular_holiday": "毎週水曜日",
            "tel": "0955-74-6664",
            "lat": "33.43263436",
            "lng": "129.98119120"
        },
        {
            "name": "うまか屋 祭太鼓 浜玉店",
            "type": "その他飲食店",
            "address": "佐賀県唐津市浜玉町横田下３５",
            "time": "18:00~22:30",
            "regular_holiday": "毎週月曜日～金曜日",
            "tel": "0955-56-6389",
            "lat": "33.44033316",
            "lng": "130.03694084"
        },
        {
            "name": "うまか屋 祭太鼓 山本店",
            "type": "その他飲食店",
            "address": "佐賀県唐津市山本１３９９−１",
            "time": "17:30~22:30",
            "regular_holiday": "毎週水曜日",
            "tel": "0955-78-1821",
            "lat": "33.39682938",
            "lng": "129.97686630"
        },
        {
            "name": "海辺の宿 清力",
            "type": "和食",
            "address": "佐賀県唐津市呼子町殿ノ浦1672-2",
            "time": "7:00～23:00",
            "regular_holiday": "不定休",
            "tel": "0955-82-2311",
            "lat": "33.54111500",
            "lng": "129.89150568"
        },
        {
            "name": "梅寿し",
            "type": "すし店",
            "address": "佐賀県杵島郡白石町大字福田1489",
            "time": "11:00～22:00",
            "regular_holiday": "不定休",
            "tel": "0952-84-2044",
            "lat": "33.18162633",
            "lng": "130.13831900"
        },
        {
            "name": "梅の花 ほたる",
            "type": "レストラン",
            "address": "佐賀県神埼市神埼町城原3580",
            "time": "11:00～16:00",
            "regular_holiday": "年末・年始",
            "tel": "0952-55-8123",
            "lat": "33.35016959",
            "lng": "130.36402049"
        },
        {
            "name": "うる寅",
            "type": "その他飲食店",
            "address": "佐賀県佐賀市松原2-1-15",
            "time": "17:30～24:00",
            "regular_holiday": "不定休",
            "tel": "0952-97-6650",
            "lat": "33.25200753",
            "lng": "130.30072976"
        },
        {
            "name": "うれし庵",
            "type": "喫茶店",
            "address": "佐賀県嬉野市嬉野町下宿乙769",
            "time": "9:30～18:00",
            "regular_holiday": "毎週日曜日",
            "tel": "0954-42-0038",
            "lat": "33.09748546",
            "lng": "129.98693953"
        },
        {
            "name": "うれしの源泉 百年の湯",
            "type": "食堂",
            "address": "佐賀県嬉野市嬉野町下宿乙２２０２ー８",
            "time": "11:30～20:00（19:30オーダーストップ） ※平日14:00～16:30はクローズ ※土日祝日は20:00オーダーストップ",
            "regular_holiday": "毎月第4水曜日",
            "tel": "0954-20-2525",
            "lat": "33.09755749",
            "lng": "129.98160941"
        },
        {
            "name": "嬉乃すし",
            "type": "すし店",
            "address": "佐賀県佐賀市若宮1丁目7-30",
            "time": "ランチ11：00～14：30／ディナー17：00～21：30",
            "regular_holiday": "毎週月曜日 不定期火曜日",
            "tel": "0952-30-1469",
            "lat": "33.27347193",
            "lng": "130.29013851"
        },
        {
            "name": "嬉野鉄板焼きえん",
            "type": "ステーキハウス",
            "address": "佐賀県嬉野市嬉野町下野甲33番地",
            "time": "ランチ11：30～14：00/ ディナー18：00～22：00",
            "regular_holiday": "毎週火曜日",
            "tel": "0954-43-3181",
            "lat": "33.09519411",
            "lng": "129.98831995"
        },
        {
            "name": "駅カフェSARAYAMA",
            "type": "喫茶店",
            "address": "佐賀県西松浦郡有田町中樽1丁目3-16",
            "time": "11:30～17:00",
            "regular_holiday": "毎週火曜日、水曜日",
            "tel": "070-1366-6409",
            "lat": "33.19021621",
            "lng": "129.90546769"
        },
        {
            "name": "駅前ラーメン ビッグワン",
            "type": "ラーメン",
            "address": "佐賀県佐賀市駅前中央1丁目13-16",
            "time": "11:00～23:00",
            "regular_holiday": "日曜日（日月連休の時は月曜日）",
            "tel": "0952-30-8212",
            "lat": "33.26461463",
            "lng": "130.29804919"
        },
        {
            "name": "駅前ワイン食堂ＢＩＢＩ",
            "type": "洋食",
            "address": "佐賀県佐賀市駅南本町6-7",
            "time": "11:30～14：00　17：00～24：00",
            "regular_holiday": "不定休",
            "tel": "0952-20-0819",
            "lat": "33.26170658",
            "lng": "130.29879640"
        },
        {
            "name": "ecobito",
            "type": "喫茶店",
            "address": "佐賀県神埼市千代田町迎島1282-6",
            "time": "11:00～18:00",
            "regular_holiday": "毎週水曜日、第2，4火曜日",
            "tel": "0952-20-0388",
            "lat": "33.26396130",
            "lng": "130.40377317"
        },
        {
            "name": "蛭子丸",
            "type": "和食",
            "address": "佐賀県鳥栖市大正町760番地3",
            "time": "11:00～14:00 / 17:00～23:00",
            "regular_holiday": "毎週月曜日",
            "tel": "0942-84-0671",
            "lat": "33.37618799",
            "lng": "130.51522152"
        },
        {
            "name": "MKレストラン佐賀大和店",
            "type": "レストラン",
            "address": "佐賀県佐賀市大和町尼寺3651-2エムケイレストラン佐賀大和店",
            "time": "ランチ11：00～15：00 ディナー15：00～23：00 LO22：30",
            "regular_holiday": "なし",
            "tel": "0952-64-8766",
            "lat": "33.30523033",
            "lng": "130.27793847"
        },
        {
            "name": "エルカフェ",
            "type": "喫茶店",
            "address": "佐賀県佐賀市諸富町山領778-2",
            "time": "11:00～23:00",
            "regular_holiday": "不定休",
            "tel": "0952-47-4936",
            "lat": "33.22946331",
            "lng": "130.33796604"
        },
        {
            "name": "オービル",
            "type": "酒場・ビヤホール",
            "address": "佐賀県佐賀市白山2-1-2",
            "time": "20:00～翌05:00",
            "regular_holiday": "毎週月曜日",
            "tel": "0952-48-0549",
            "lat": "33.25474064",
            "lng": "130.30147963"
        },
        {
            "name": "おうせ 酒肴旬楽",
            "type": "和食",
            "address": "佐賀県佐賀市唐人2-3-34",
            "time": "ディナー17:30～0:00",
            "regular_holiday": "毎週日曜日",
            "tel": "0952-28-3108",
            "lat": "33.25770144",
            "lng": "130.30036579"
        },
        {
            "name": "おうちのごはん　まんま",
            "type": "食堂",
            "address": "佐賀県佐賀市天神1丁目2-57",
            "time": "11:30～14:00 / 18:00～23:00",
            "regular_holiday": "日曜日",
            "tel": "0952-97-8744",
            "lat": "33.25972334",
            "lng": "130.29680218"
        },
        {
            "name": "おうちレストラン アムール小城店",
            "type": "カレー",
            "address": "佐賀県小城市小城町240-9",
            "time": "11:30～19:30",
            "regular_holiday": "1月1日1日、毎週木曜日",
            "tel": "0120-000-237",
            "lat": "33.29329760",
            "lng": "130.19517476"
        },
        {
            "name": "大カ〇うどん",
            "type": "食堂",
            "address": "佐賀県西松浦郡有田町南原甲879-13",
            "time": "11:00~14:30,17:15~19:45",
            "regular_holiday": "火曜日（不定休あり）",
            "tel": "0955-42-3345",
            "lat": "33.18756846",
            "lng": "129.85775549"
        },
        {
            "name": "大阪王将 佐賀ゆめタウン店",
            "type": "中華料理店",
            "address": "佐賀県佐賀市兵庫北5丁目14-1ゆめタウン佐賀1階",
            "time": "11:00～21:00",
            "regular_holiday": "ゆめタウンに準ずる",
            "tel": "0952-36-6937",
            "lat": "33.27563907",
            "lng": "130.30795086"
        },
        {
            "name": "大阪王将 武雄ゆめタウン店",
            "type": "中華料理店",
            "address": "佐賀県武雄市武雄町武雄4992ゆめタウン武雄1階",
            "time": "11:00～21:00",
            "regular_holiday": "ゆめタウンに準ずる",
            "tel": "0954-22-8477",
            "lat": "33.18879862",
            "lng": "130.02491657"
        },
        {
            "name": "太繁寿司",
            "type": "すし店",
            "address": "佐賀県唐津市浜玉町浜崎405-4",
            "time": "ランチ12:00～14:00 / ディナー17:00～21:00",
            "regular_holiday": "毎週水曜日",
            "tel": "0955-56-7820",
            "lat": "33.44747935",
            "lng": "130.04041216"
        },
        {
            "name": "大手門食堂",
            "type": "食堂",
            "address": "佐賀県唐津市鎮西町名護屋1935",
            "time": "10:00～17:00",
            "regular_holiday": "不定休",
            "tel": "0955-82-5026",
            "lat": "33.52888816",
            "lng": "129.87064362"
        },
        {
            "name": "大戸屋 佐賀北バイパス店",
            "type": "レストラン",
            "address": "佐賀県佐賀市卸本町5-30",
            "time": "11:00~21:30(21:00ラストオーダ）",
            "regular_holiday": "無休",
            "tel": "0952-37-5155",
            "lat": "33.27304653",
            "lng": "130.27616180"
        },
        {
            "name": "大戸屋 佐賀南バイパス店",
            "type": "レストラン",
            "address": "佐賀県佐賀市本庄町本庄1123-3",
            "time": "11:00~21:30(21:00ラストオーダ）",
            "regular_holiday": "無休",
            "tel": "0952-37-5822",
            "lat": "33.23985250",
            "lng": "130.28185103"
        },
        {
            "name": "大庭",
            "type": "和食",
            "address": "佐賀県神埼郡吉野ヶ里町吉田276-3",
            "time": "予約のみ",
            "regular_holiday": "不定休",
            "tel": "0952-52-2255",
            "lat": "33.32208885",
            "lng": "130.40028818"
        },
        {
            "name": "大橋うなぎ屋",
            "type": "その他飲食店",
            "address": "佐賀県佐賀市水ケ江1丁目4-59",
            "time": "11:00～20:15",
            "regular_holiday": "不定休",
            "tel": "0952-23-6249",
            "lat": "33.24970233",
            "lng": "130.30462390"
        },
        {
            "name": "大町温泉ひじり乃湯",
            "type": "その他飲食店",
            "address": "佐賀県杵島郡大町町福母3067番地2",
            "time": "宴会【昼の部】11:00～15:00／【夜の部】17:30～21:30",
            "regular_holiday": "年3回不定休",
            "tel": "0952-71-3500",
            "lat": "33.22021604",
            "lng": "130.09966812"
        },
        {
            "name": "翁寿司",
            "type": "すし店",
            "address": "佐賀県杵島郡白石町福富3445-10 翁寿司",
            "time": "11:30～22:00",
            "regular_holiday": "毎週水曜日",
            "tel": "0952-87-3187",
            "lat": "33.18436648",
            "lng": "130.19130660"
        },
        {
            "name": "おぐまうどん",
            "type": "うどん店",
            "address": "佐賀県鳥栖市真木町2018-1",
            "time": "11:00～16:00",
            "regular_holiday": "木曜日",
            "tel": "0942-82-9156",
            "lat": "33.36165276",
            "lng": "130.50891974"
        },
        {
            "name": "OKONOMI ICHIBANCHI ゆめタウン佐賀店",
            "type": "お好み焼き・焼きそば・たこ焼き店",
            "address": "佐賀県佐賀市兵庫北5丁目14-1ゆめタウン佐賀2階",
            "time": "11:00～21:00",
            "regular_holiday": "ゆめタウンに準ずる",
            "tel": "0952-33-8651",
            "lat": "33.27563907",
            "lng": "130.30795086"
        },
        {
            "name": "お好み一番地 ゆめタウン武雄店",
            "type": "お好み焼き・焼きそば・たこ焼き店",
            "address": "佐賀県武雄市武雄町武雄4992ゆめタウン武雄1階",
            "time": "11:00～21:00",
            "regular_holiday": "ゆめタウンに準ずる",
            "tel": "0954-22-8057",
            "lat": "33.18879862",
            "lng": "130.02491657"
        },
        {
            "name": "おこのみ亭",
            "type": "お好み焼き・焼きそば・たこ焼き店",
            "address": "佐賀県佐賀市鍋島町八戸1144-1",
            "time": "AM11:00～PM9:00（O.S8:30）",
            "regular_holiday": "毎週火曜日",
            "tel": "0952-24-2487",
            "lat": "33.25560332",
            "lng": "130.26847392"
        },
        {
            "name": "おさかな処小山",
            "type": "和風料理店",
            "address": "佐賀県小城市小城町高原745-3",
            "time": "ランチ11:00～14:00ディナー17:00～21:30",
            "regular_holiday": "毎週月曜日",
            "tel": "0952-37-5115",
            "lat": "33.30045116",
            "lng": "130.20671795"
        },
        {
            "name": "お魚処呼子玄海",
            "type": "レストラン",
            "address": "佐賀県唐津市呼子町殿ノ浦508番地の3",
            "time": "１１：００～２０：００",
            "regular_holiday": "不定休",
            "tel": "0955-82-3913",
            "lat": "33.53196584",
            "lng": "129.88276484"
        },
        {
            "name": "おさかな家嬉乃",
            "type": "食堂",
            "address": "佐賀県佐賀市駅前中央3丁目2-21",
            "time": "ランチ11：00～15：00／ディナー貸し切り予約のみ",
            "regular_holiday": "毎週月曜日",
            "tel": "0952-37-9535",
            "lat": "33.26637035",
            "lng": "130.30615120"
        },
        {
            "name": "お酒と創作料理 hanana",
            "type": "レストラン",
            "address": "佐賀県武雄市武雄町昭和11-1",
            "time": "17:30～24:00",
            "regular_holiday": "日曜日・不定休",
            "tel": "0954-23-9345",
            "lat": "33.19417026",
            "lng": "130.02190548"
        },
        {
            "name": "お食事処 いな穂",
            "type": "食堂",
            "address": "佐賀県杵島郡白石町大字深浦2694-2",
            "time": "11:00～22:00",
            "regular_holiday": "毎週月曜日",
            "tel": "0954-65-3704",
            "lat": "33.14073051",
            "lng": "130.11980569"
        },
        {
            "name": "お食事処 伊六",
            "type": "食堂",
            "address": "佐賀県藤津郡太良町大字糸岐16-7",
            "time": "11:30～20:00",
            "regular_holiday": "毎週火曜日",
            "tel": "0954-67-1010",
            "lat": "33.01911278",
            "lng": "130.17846782"
        },
        {
            "name": "お食事処 園",
            "type": "レストラン",
            "address": "佐賀県藤津郡太良町大浦乙124-21",
            "time": "11:00～17:00",
            "regular_holiday": "毎週木曜日",
            "tel": "0954-68-2277",
            "lat": "32.96314610",
            "lng": "130.20480615"
        },
        {
            "name": "御食事処　久坊",
            "type": "和食",
            "address": "佐賀県佐賀市神野西１丁目８の１",
            "time": "平日ランチ11:30から14:00／ディナー17:00から22:00　日曜、祝日ランチ11:30から14:00／ディナー17:00から21:00",
            "regular_holiday": "毎週火曜日",
            "tel": "0952-22-1134",
            "lat": "33.26297564",
            "lng": "130.29204140"
        },
        {
            "name": "お食事処 ひぜん",
            "type": "食堂",
            "address": "佐賀県唐津市鏡1047-1",
            "time": "11:00～14:30 / 17:00～23:00",
            "regular_holiday": "毎週火曜日",
            "tel": "0955-77-1800",
            "lat": "33.42566417",
            "lng": "130.00367525"
        },
        {
            "name": "お食事処 本陣",
            "type": "レストラン",
            "address": "佐賀県西松浦郡有田町中の原1丁目1-12",
            "time": "11:30～15:30",
            "regular_holiday": "不定休",
            "tel": "0955-42-6433",
            "lat": "33.18667182",
            "lng": "129.89335485"
        },
        {
            "name": "おっ母さんの一膳めし屋",
            "type": "食堂",
            "address": "佐賀県武雄市武雄町昭和805",
            "time": "11:00～14:00",
            "regular_holiday": "不定休",
            "tel": "0954-22-4597",
            "lat": "33.19654794",
            "lng": "130.03266568"
        },
        {
            "name": "odecafe",
            "type": "その他飲食店",
            "address": "佐賀県唐津市南城内1-1",
            "time": "9:00～22:00",
            "regular_holiday": "不定休",
            "tel": "0955-58-9112",
            "lat": "33.44940164",
            "lng": "129.96935880"
        },
        {
            "name": "おでんdeスポーツバー いぷしろん",
            "type": "その他飲食店",
            "address": "佐賀県佐賀市大財1－5－3－２F",
            "time": "平日20：00～24：00 金・土20：00～02：00",
            "regular_holiday": "不定休",
            "tel": "0952-29-6644",
            "lat": "33.25642382",
            "lng": "130.30147405"
        },
        {
            "name": "お昼からのいざかや さんぽ",
            "type": "食堂",
            "address": "佐賀県唐津市中町1831-1",
            "time": "12:00～23:00",
            "regular_holiday": "水曜日",
            "tel": "0955-72-5504",
            "lat": "33.44859898",
            "lng": "129.96991155"
        },
        {
            "name": "おふくろの味 登紀",
            "type": "和食",
            "address": "佐賀県佐賀市神野東2-3-10",
            "time": "17:00～23:00",
            "regular_holiday": "不定休(原則休みなし）",
            "tel": "0952-31-6127",
            "lat": "33.26466451",
            "lng": "130.29519387"
        },
        {
            "name": "おみやげ村",
            "type": "和食",
            "address": "佐賀県藤津郡太良町大浦丙17-1",
            "time": "ランチ9:00～17:00",
            "regular_holiday": "不定休",
            "tel": "0954-68-3880",
            "lat": "32.96304619",
            "lng": "130.21120298"
        },
        {
            "name": "おむらいす亭 フレスポ鳥栖店",
            "type": "洋食",
            "address": "佐賀県鳥栖市本鳥栖町637番地1",
            "time": "11:00～22:00",
            "regular_holiday": "無し",
            "tel": "0942-82-8558",
            "lat": "33.37712684",
            "lng": "130.51948231"
        },
        {
            "name": "おむらいす亭ゆめタウン佐賀店",
            "type": "洋食",
            "address": "佐賀県佐賀市兵庫北５丁目１４－１ゆめタウン佐賀２階フードコート内",
            "time": "10:00～22:00（ラストオーダー21:30）",
            "regular_holiday": "無休",
            "tel": "0952-33-5303",
            "lat": "33.27563907",
            "lng": "130.30795086"
        },
        {
            "name": "お宿 夢千鳥",
            "type": "レストラン",
            "address": "佐賀県佐賀市富士町上熊川288",
            "time": "10:00～19:00",
            "regular_holiday": "第３火曜日（変更あり）",
            "tel": "0952-51-0155",
            "lat": "33.36495760",
            "lng": "130.24043434"
        },
        {
            "name": "織島苑",
            "type": "レストラン",
            "address": "佐賀県小城市三日月町織島2594",
            "time": "10:00～22:00",
            "regular_holiday": "不定休",
            "tel": "0952-72-2101",
            "lat": "33.29985496",
            "lng": "130.22605290"
        },
        {
            "name": "オリジンコーヒー",
            "type": "その他飲食店",
            "address": "佐賀県佐賀市兵庫南4-12-10エレガントビレッジ103",
            "time": "11:00~18:00",
            "regular_holiday": "毎週火曜日、水曜日",
            "tel": "0952-37-9188",
            "lat": "33.26386560",
            "lng": "130.32067208"
        },
        {
            "name": "御料理 最なか",
            "type": "レストラン",
            "address": "佐賀県武雄市武雄町武雄4068-4",
            "time": "ランチ11:30～14:30／ディナー18:00～21:30",
            "regular_holiday": "毎週日曜日",
            "tel": "0954-27-7703",
            "lat": "33.18474050",
            "lng": "130.01382023"
        },
        {
            "name": "おるごーる",
            "type": "レストラン",
            "address": "佐賀県小城市三日月町金田1154-1",
            "time": "11:00～14:00 / 17:00～22:00",
            "regular_holiday": "水曜日",
            "tel": "0952-72-7108",
            "lat": "33.25902997",
            "lng": "130.23001866"
        },
        {
            "name": "温泉街道 輪来",
            "type": "喫茶店",
            "address": "佐賀県嬉野市嬉野町大字下宿乙915",
            "time": "9:30～17:30",
            "regular_holiday": "水曜日",
            "tel": "0954-43-3058",
            "lat": "33.09672993",
            "lng": "129.98492862"
        },
        {
            "name": "ガーデンテラス佐賀ホテル＆マリトピア チャイニーズレストランシャンリー",
            "type": "レストラン",
            "address": "佐賀県佐賀市新栄東3-7-8",
            "time": "11:30～14:30 / 17:30～21:00",
            "regular_holiday": "水曜日",
            "tel": "0952-28-2655",
            "lat": "33.25764777",
            "lng": "130.27470953"
        },
        {
            "name": "ガーデンテラス佐賀ホテル＆マリトピア 鉄板焼ダイニング 佐賀竹彩",
            "type": "レストラン",
            "address": "佐賀県佐賀市新栄東3丁目7-8ガーデンテラス佐賀ホテル棟1F",
            "time": "7:00～22:00",
            "regular_holiday": "不定休",
            "tel": "0952-37-0885",
            "lat": "33.25764777",
            "lng": "130.27470953"
        },
        {
            "name": "海皇",
            "type": "その他飲食店",
            "address": "佐賀県鳥栖市蔵上1-226-2",
            "time": "17:30～23:00",
            "regular_holiday": "毎週火曜日",
            "tel": "0942-83-1154",
            "lat": "33.37817345",
            "lng": "130.49189742"
        },
        {
            "name": "開成珈琲うふふ",
            "type": "喫茶店",
            "address": "佐賀県佐賀市開成5-5-8",
            "time": "日～木11:00～22:00、金・土・祝前日11:00～24:00",
            "regular_holiday": "無し",
            "tel": "0952-30-2092",
            "lat": "33.26768860",
            "lng": "130.27513702"
        },
        {
            "name": "懐石 宿 扇屋",
            "type": "レストラン",
            "address": "佐賀県武雄市武雄町武雄7399",
            "time": "11:30～14:00 / 18:00～21:30",
            "regular_holiday": "不定休",
            "tel": "0954-22-3188",
            "lat": "33.19546450",
            "lng": "130.01498922"
        },
        {
            "name": "海鮮居酒屋 第一三吉丸",
            "type": "酒場・ビヤホール",
            "address": "佐賀県佐賀市神野東2丁目4-56",
            "time": "11:30～14:00（平日のみ） 17:00～24:00",
            "regular_holiday": "第一、三日曜日",
            "tel": "0952-33-5334",
            "lat": "33.26458673",
            "lng": "130.29492723"
        },
        {
            "name": "海鮮うまいもんや 茜",
            "type": "和食",
            "address": "佐賀県多久市北多久町大字小侍666-27",
            "time": "ランチ11：00～14：00/デイナー17：00～21：30",
            "regular_holiday": "毎週月曜日",
            "tel": "0952-74-4533",
            "lat": "33.28900159",
            "lng": "130.10217744"
        },
        {
            "name": "海鮮丼 とろ作",
            "type": "和風料理店",
            "address": "佐賀県伊万里市大坪町乙42-8",
            "time": "ランチ11:00～14:30／ディナー18:00～21:30",
            "regular_holiday": "毎週月曜日",
            "tel": "0955-25-9792",
            "lat": "33.27427079",
            "lng": "129.89271487"
        },
        {
            "name": "海鮮料理　漁師村",
            "type": "レストラン",
            "address": "佐賀県唐津市浜玉町浜崎1091-2",
            "time": "11：00～19：30",
            "regular_holiday": "元日のみ",
            "tel": "0955-70-5115",
            "lat": "33.43812505",
            "lng": "130.03182200"
        },
        {
            "name": "海中魚処萬坊",
            "type": "和食",
            "address": "佐賀県唐津市呼子町殿ノ浦1946-1",
            "time": "１１：００～１５：００",
            "regular_holiday": "第３木曜日（不定休）",
            "tel": "0955-82-5333",
            "lat": "33.53832352",
            "lng": "129.88372307"
        },
        {
            "name": "開店熱娘食堂",
            "type": "食堂",
            "address": "佐賀県小城市三日月町長神田752ー14",
            "time": "ランチ11時～14時30分/ディナー17時～21時30分",
            "regular_holiday": "毎週月・火曜日",
            "tel": "0952-37-0707",
            "lat": "33.28332974",
            "lng": "130.21041590"
        },
        {
            "name": "回転寿司 しげなが 弥生が丘店",
            "type": "すし店",
            "address": "佐賀県鳥栖市弥生が丘5丁目4番",
            "time": "11:00～20:45（20:30オーダーストップ）",
            "regular_holiday": "不定休",
            "tel": "0942-82-3707",
            "lat": "33.40229748",
            "lng": "130.52079298"
        },
        {
            "name": "海都 三田川店",
            "type": "すし店",
            "address": "佐賀県神埼郡吉野ヶ里町吉田260-1",
            "time": "【平日】11：00～21：00 【土日祝】11：00～21：30",
            "regular_holiday": "無",
            "tel": "0952-55-7555",
            "lat": "33.32390814",
            "lng": "130.39876318"
        },
        {
            "name": "カイロ堂",
            "type": "食堂",
            "address": "佐賀県武雄市武雄町富岡8249-4武雄温泉駅観光案内所内",
            "time": "9：00~15：00",
            "regular_holiday": "なし",
            "tel": "0954-22-2767",
            "lat": "33.19537566",
            "lng": "130.01850566"
        },
        {
            "name": "鏡山温泉茶屋",
            "type": "レストラン",
            "address": "佐賀県唐津市鏡4733",
            "time": "11:00～20:30",
            "regular_holiday": "毎週水曜日・第３木曜日",
            "tel": "0955-70-6333",
            "lat": "33.43660544",
            "lng": "130.01753738"
        },
        {
            "name": "鏡山荘",
            "type": "レストラン",
            "address": "佐賀県唐津市鏡4959",
            "time": "11:00～20:00",
            "regular_holiday": "毎週水曜日",
            "tel": "0955-77-0706",
            "lat": "33.43478052",
            "lng": "130.01451556"
        },
        {
            "name": "楽亭",
            "type": "和食",
            "address": "佐賀県鹿島市大字高津原3590",
            "time": "１１：００～２２：００",
            "regular_holiday": "不定休",
            "tel": "0954-63-2231",
            "lat": "33.10940026",
            "lng": "130.09389424"
        },
        {
            "name": "香光",
            "type": "和食",
            "address": "佐賀県佐賀市駅前中央1丁目",
            "time": "18:00～22:00",
            "regular_holiday": "日曜日、祝日",
            "tel": "0952-23-8831",
            "lat": "33.26270370",
            "lng": "130.29848252"
        },
        {
            "name": "かざぐるま",
            "type": "酒場・ビヤホール",
            "address": "佐賀県鳥栖市田代本町1270-10",
            "time": "18:00～24:00",
            "regular_holiday": "月曜日",
            "tel": "0942-82-6262",
            "lat": "33.39775608",
            "lng": "130.52109570"
        },
        {
            "name": "Kaji synergy restaurant",
            "type": "レストラン",
            "address": "佐賀県武雄市武雄町武雄4239-1",
            "time": "ランチ11:30～14:00/ディナー18:00～20:30",
            "regular_holiday": "毎週月曜日、第3日曜日",
            "tel": "0954-38-9007",
            "lat": "33.19477014",
            "lng": "130.01590584"
        },
        {
            "name": "嘉すがいガレージ唐人店",
            "type": "和風料理店",
            "address": "佐賀県佐賀市唐人２丁目５－３１ドマーニ唐人１F",
            "time": "１７時～２４時",
            "regular_holiday": "日曜日",
            "tel": "0952-60-5656",
            "lat": "33.25869299",
            "lng": "130.29957139"
        },
        {
            "name": "ガスト伊万里駅前店",
            "type": "レストラン",
            "address": "佐賀県伊万里市新天町浜の浦549-11",
            "time": "9:00～23:30",
            "regular_holiday": "",
            "tel": "0955-20-4851",
            "lat": "33.27015673",
            "lng": "129.87633336"
        },
        {
            "name": "ガスト唐津店",
            "type": "レストラン",
            "address": "佐賀県唐津市船宮町2585-3",
            "time": "9:00～23:30",
            "regular_holiday": "",
            "tel": "0955-79-8220",
            "lat": "33.44609130",
            "lng": "129.97800535"
        },
        {
            "name": "ガスト佐賀武雄店",
            "type": "レストラン",
            "address": "佐賀県武雄市武雄町昭和277",
            "time": "9:00～23:30",
            "regular_holiday": "",
            "tel": "0954-20-1700",
            "lat": "33.19361206",
            "lng": "130.02770506"
        },
        {
            "name": "ガスト佐賀兵庫店",
            "type": "レストラン",
            "address": "佐賀県佐賀市兵庫南2-2-24",
            "time": "8:00～23:30",
            "regular_holiday": "",
            "tel": "0952-27-7586",
            "lat": "33.26310983",
            "lng": "130.31393942"
        },
        {
            "name": "ガスト佐賀本庄店",
            "type": "レストラン",
            "address": "佐賀県佐賀市本庄町本庄197-1",
            "time": "平日9:00～23:00　土日祝7:00～23:00",
            "regular_holiday": "",
            "tel": "0952-28-7425",
            "lat": "33.24004737",
            "lng": "130.29551657"
        },
        {
            "name": "ガスト吉野ヶ里店",
            "type": "レストラン",
            "address": "佐賀県神埼郡吉野ヶ里町吉田77-6",
            "time": "10:00～23:30",
            "regular_holiday": "",
            "tel": "0952-55-6691",
            "lat": "33.32244711",
            "lng": "130.39563283"
        },
        {
            "name": "家族庵",
            "type": "レストラン",
            "address": "佐賀県杵島郡大町町大町978-1",
            "time": "11:00～14:30 / 17:30～21:00",
            "regular_holiday": "火曜日",
            "tel": "0952-82-3497",
            "lat": "33.21386164",
            "lng": "130.12622704"
        },
        {
            "name": "家族亭あづま",
            "type": "すし店",
            "address": "佐賀県唐津市中町1874",
            "time": "ランチ 11：30～14：00/ディナー17：00～22：00",
            "regular_holiday": "毎週火曜日",
            "tel": "0955-73-0130",
            "lat": "33.44787963",
            "lng": "129.97009766"
        },
        {
            "name": "家族亭フタバ",
            "type": "食堂",
            "address": "佐賀県藤津郡太良町糸岐2518-8",
            "time": "ランチ11:00～15:00／ディナー17:00～21:00",
            "regular_holiday": "毎週木曜日",
            "tel": "0954-67-2020",
            "lat": "33.01364623",
            "lng": "130.18248439"
        },
        {
            "name": "活魚料理かべしま",
            "type": "レストラン",
            "address": "佐賀県唐津市呼子町加部島260-1",
            "time": "11：00～16：00LO",
            "regular_holiday": "毎週水曜日",
            "tel": "0955-82-5187",
            "lat": "33.56337637",
            "lng": "129.88475321"
        },
        {
            "name": "勝手台所 要",
            "type": "酒場・ビヤホール",
            "address": "佐賀県唐津市鏡1012-1",
            "time": "17:30～24:00",
            "regular_holiday": "毎週水曜日",
            "tel": "0955-77-1887",
            "lat": "33.42400594",
            "lng": "130.00311699"
        },
        {
            "name": "割烹 鰻屋",
            "type": "和食",
            "address": "佐賀県嬉野市塩田町大字馬場下甲2230-2",
            "time": "11:00~20:00",
            "regular_holiday": "不定休",
            "tel": "0954-66-2012",
            "lat": "33.12596709",
            "lng": "130.06005562"
        },
        {
            "name": "割烹 大磯",
            "type": "料亭",
            "address": "佐賀県藤津郡太良町大字多良1408-4",
            "time": "11:00～19:00",
            "regular_holiday": "不定休",
            "tel": "0954-67-0623",
            "lat": "33.02165436",
            "lng": "130.17891768"
        },
        {
            "name": "割烹 北島",
            "type": "レストラン",
            "address": "佐賀県神埼市千代田町詫田1822-4",
            "time": "11:00～24:00",
            "regular_holiday": "不定休",
            "tel": "0952-44-3802",
            "lat": "33.27807096",
            "lng": "130.38780192"
        },
        {
            "name": "かっぽう きはら",
            "type": "レストラン",
            "address": "佐賀県神埼市神埼町神埼96-1",
            "time": "11:00～22:00",
            "regular_holiday": "不定休",
            "tel": "0952-52-2168",
            "lat": "33.31100113",
            "lng": "130.37369856"
        },
        {
            "name": "割烹 清川",
            "type": "和食",
            "address": "佐賀県鹿島市高津原3590",
            "time": "１１：００～２２：００",
            "regular_holiday": "不定休",
            "tel": "0954-63-2231",
            "lat": "33.10940026",
            "lng": "130.09389424"
        },
        {
            "name": "割烹 すぎ山",
            "type": "食堂",
            "address": "佐賀県唐津市町田3丁目4-21",
            "time": "10:00～23:00",
            "regular_holiday": "不定休",
            "tel": "0955-72-4535",
            "lat": "33.44436883",
            "lng": "129.96883389"
        },
        {
            "name": "割烹 竹下こころ",
            "type": "和食",
            "address": "佐賀県神埼市神埼町田道ケ里2100-4",
            "time": "11:30～22:00",
            "regular_holiday": "不定休",
            "tel": "0952-52-3873",
            "lat": "33.31621440",
            "lng": "130.37848412"
        },
        {
            "name": "割烹 花佳",
            "type": "和食",
            "address": "佐賀県嬉野市塩田町馬場下甲1678",
            "time": "11:30～14:00 17:30～21:00",
            "regular_holiday": "毎週月曜日",
            "tel": "0954-66-2039",
            "lat": "33.12776124",
            "lng": "130.05663650"
        },
        {
            "name": "割烹いまむら",
            "type": "喫茶店",
            "address": "佐賀県三養基郡みやき町大字東尾574",
            "time": "11：00～14：00",
            "regular_holiday": "土・日・祭日",
            "tel": "0942-89-2025",
            "lat": "33.32536503",
            "lng": "130.45564579"
        },
        {
            "name": "割烹 菊水",
            "type": "和風料理店",
            "address": "佐賀県神埼市神埼町神埼427",
            "time": "11:00～22:00",
            "regular_holiday": "不定休",
            "tel": "0952-52-2427",
            "lat": "33.30947910",
            "lng": "130.37239593"
        },
        {
            "name": "割烹仕出し 魚善",
            "type": "和食",
            "address": "佐賀県佐賀市諸富町大堂938",
            "time": "月～金 17:00～22:00 / 土・日 11:00～22:00",
            "regular_holiday": "不定休",
            "tel": "0952-47-2403",
            "lat": "33.23700453",
            "lng": "130.35545312"
        },
        {
            "name": "割烹・仕出し 乃多屋",
            "type": "その他飲食店",
            "address": "佐賀県武雄市朝日町甘久1917番地",
            "time": "10：00～22：00",
            "regular_holiday": "不定休",
            "tel": "0954-22-2824",
            "lat": "33.21169665",
            "lng": "130.04257288"
        },
        {
            "name": "割烹中央",
            "type": "和食",
            "address": "佐賀県鹿島市大字高津原3923",
            "time": "ランチ11：00～14：30(l.o.14:00)ディナー17：30～22：00(l.o.21:15)",
            "regular_holiday": "毎週水曜日",
            "tel": "0954-62-2125",
            "lat": "33.11201941",
            "lng": "130.09408583"
        },
        {
            "name": "割烹津田屋",
            "type": "和食",
            "address": "佐賀県佐賀市諸富町諸富津223-1",
            "time": "11：30～14：30　17：00～21：30（19：30最終入店）",
            "regular_holiday": "不定休",
            "tel": "0952-47-2046",
            "lat": "33.22131978",
            "lng": "130.36186140"
        },
        {
            "name": "割烹はちや",
            "type": "レストラン",
            "address": "佐賀県神埼市千代田町直鳥44-3",
            "time": "11:30～14:00 / 17:00～22:00",
            "regular_holiday": "不定休",
            "tel": "0952-44-2015",
            "lat": "33.27505742",
            "lng": "130.37514436"
        },
        {
            "name": "割烹ひさご",
            "type": "和風料理店",
            "address": "佐賀県藤津郡太良町大字多良1763番地",
            "time": "ランチ11:00～14:00/ディナー17:00～22:00",
            "regular_holiday": "毎週火曜日と水曜日",
            "tel": "0954-67-0066",
            "lat": "33.02640986",
            "lng": "130.17481501"
        },
        {
            "name": "割烹旅館 長崎荘",
            "type": "和食",
            "address": "佐賀県唐津市西城内6-36割烹旅館 長崎荘",
            "time": "ランチ11：30/ディナー17：00～21：00",
            "regular_holiday": "不定休",
            "tel": "0955-72-2254",
            "lat": "33.45098756",
            "lng": "129.96886714"
        },
        {
            "name": "割烹旅館 筑前屋",
            "type": "和風料理店",
            "address": "佐賀県唐津市呼子町殿ノ浦1659",
            "time": "11:30～21:00",
            "regular_holiday": "不定休",
            "tel": "0955-82-3715",
            "lat": "33.54077616",
            "lng": "129.89221951"
        },
        {
            "name": "割烹旅館 ひさご",
            "type": "その他飲食店",
            "address": "佐賀県伊万里市伊万里町甲413-8",
            "time": "17:30～22:00",
            "regular_holiday": "不定休",
            "tel": "0955-23-2157",
            "lat": "33.27346464",
            "lng": "129.87614999"
        },
        {
            "name": "角屋",
            "type": "食堂",
            "address": "佐賀県鹿島市古枝甲1663",
            "time": "9:00～17:00",
            "regular_holiday": "水曜日",
            "tel": "0954-62-2748",
            "lat": "33.09439658",
            "lng": "130.10795162"
        },
        {
            "name": "かにしげ佐賀大和店",
            "type": "レストラン",
            "address": "佐賀県佐賀市大和町尼寺3761-1",
            "time": "ランチ11：00～15：30/ディナー17：00～22：00",
            "regular_holiday": "1月1日",
            "tel": "0952-64-8555",
            "lat": "33.30740793",
            "lng": "130.27666626"
        },
        {
            "name": "かばち",
            "type": "お好み焼き・焼きそば・たこ焼き店",
            "address": "佐賀県佐賀市白山2丁目6-38コアビル1F",
            "time": "18:00～23:00（LO）",
            "regular_holiday": "不定休",
            "tel": "0952-29-1881",
            "lat": "33.25558224",
            "lng": "130.30184070"
        },
        {
            "name": "Cafe Coeur de Nature",
            "type": "喫茶店",
            "address": "佐賀県伊万里市二里町八谷搦1179",
            "time": "12:00～16:00",
            "regular_holiday": "日・月・水・祝日",
            "tel": "0955-25-9789",
            "lat": "33.27620305",
            "lng": "129.87178648"
        },
        {
            "name": "カフェ 楠の森 フィリエ",
            "type": "カレー",
            "address": "佐賀県佐賀市城内1-9-2",
            "time": "11:30～15:00",
            "regular_holiday": "火,木,日曜日・土曜日は不定休有り",
            "tel": "070-4704-4216",
            "lat": "33.24713286",
            "lng": "130.29718295"
        },
        {
            "name": "有限会社 カフェ・ド・ブルー",
            "type": "喫茶店",
            "address": "佐賀県鳥栖市宿町716-1",
            "time": "11:00～22:00",
            "regular_holiday": "毎週木曜日",
            "tel": "0942-83-5617",
            "lat": "33.37355453",
            "lng": "130.49899741"
        },
        {
            "name": "カフェ トレス",
            "type": "その他飲食店",
            "address": "佐賀県佐賀市城内1-15-23佐賀県立博物館１F",
            "time": "9:30 - 18:00",
            "regular_holiday": "月曜 博物館休館日",
            "tel": "0952-37-8402",
            "lat": "33.24463319",
            "lng": "130.29998553"
        },
        {
            "name": "cafe はるのね",
            "type": "喫茶店",
            "address": "佐賀県杵島郡白石町福田１８００−５０",
            "time": "11：00～18：00 ランチ11：30～14：00",
            "regular_holiday": "毎週水曜日、第1,第3木曜日",
            "tel": "0952-84-6878",
            "lat": "33.18397610",
            "lng": "130.13726062"
        },
        {
            "name": "カフェ パンゲア",
            "type": "その他飲食店",
            "address": "佐賀県佐賀市天神3-2-15佐賀市立図書館1F",
            "time": "10:00-18:00",
            "regular_holiday": "月曜、図書館休館日",
            "tel": "0952-60-3436",
            "lat": "33.25981752",
            "lng": "130.29040550"
        },
        {
            "name": "カフェ ベイス",
            "type": "その他飲食店",
            "address": "佐賀県佐賀市城内１丁目１－５９佐賀県庁地下1F",
            "time": "10:00-18:00",
            "regular_holiday": "土日祝",
            "tel": "0952-37-0401",
            "lat": "33.24957161",
            "lng": "130.29981600"
        },
        {
            "name": "珈琲 檸檬樹",
            "type": "喫茶店",
            "address": "佐賀県唐津市新興町2936-7",
            "time": "10:00～20:00",
            "regular_holiday": "毎週月曜日",
            "tel": "0955-73-4919",
            "lat": "33.44703784",
            "lng": "129.96549797"
        },
        {
            "name": "Cafe亜羅琲珈",
            "type": "喫茶店",
            "address": "佐賀県武雄市東川登町袴野10093",
            "time": "7:00～20:00",
            "regular_holiday": "毎週木曜日",
            "tel": "0954-23-6976",
            "lat": "33.15090419",
            "lng": "129.99531680"
        },
        {
            "name": "カフェ＆キッチンM",
            "type": "レストラン",
            "address": "佐賀県伊万里市立花町921-1ホテルWIN１階",
            "time": "ランチ11:30～14:30／カフェ14:30～17:00／ディナー17:00～21:00【全時間帯ラストオーダーは30分前】",
            "regular_holiday": "なし",
            "tel": "0955-25-9920",
            "lat": "33.26248263",
            "lng": "129.87282536"
        },
        {
            "name": "Cafe&DAINING Bar aiR",
            "type": "その他飲食店",
            "address": "佐賀県伊万里市伊万里町甲413-30プーブルビル1F",
            "time": "19:00～深夜3:00",
            "regular_holiday": "主に水曜日",
            "tel": "0955-22-5711",
            "lat": "33.27330355",
            "lng": "129.87616666"
        },
        {
            "name": "cafe&bar ROUGH",
            "type": "喫茶店",
            "address": "佐賀県佐賀市駅前中央２丁目６－7",
            "time": "8:00~24:00",
            "regular_holiday": "不定休",
            "tel": "0952-97-5034",
            "lat": "33.26634779",
            "lng": "130.29741031"
        },
        {
            "name": "カフェ＆フード キャッスル・テラス",
            "type": "その他飲食店",
            "address": "佐賀県唐津市東唐津2丁目1番5号",
            "time": "平日12：00～21：00 休日 10：00～21：00",
            "regular_holiday": "不定休",
            "tel": "0955-58-8381",
            "lat": "33.45031319",
            "lng": "129.98211592"
        },
        {
            "name": "CAFE木と本",
            "type": "喫茶店",
            "address": "佐賀県佐賀市唐人1-2-18",
            "time": "月火金9:30～20:45/水11:30～20:45/土日祝9:30～18:00",
            "regular_holiday": "毎週木曜日",
            "tel": "0952-37-8803",
            "lat": "33.25698202",
            "lng": "130.29920757"
        },
        {
            "name": "カフェ・コンソラーレ佐賀玉屋店",
            "type": "喫茶店",
            "address": "佐賀県佐賀市中の小路２－５佐賀玉屋南館店内２Ｆ",
            "time": "10:00～19:00",
            "regular_holiday": "不定休",
            "tel": "0952-22-9011",
            "lat": "33.25346568",
            "lng": "130.29956594"
        },
        {
            "name": "カフェサンの森",
            "type": "レストラン",
            "address": "佐賀県唐津市鏡3756-10",
            "time": "11:00～18:00",
            "regular_holiday": "毎週火曜日",
            "tel": "0955-77-1090",
            "lat": "33.43801027",
            "lng": "130.00573588"
        },
        {
            "name": "カフェとスコーンのお店 ひととき",
            "type": "喫茶店",
            "address": "佐賀県佐賀市八戸1丁目6-40",
            "time": "11:30～18:00",
            "regular_holiday": "毎週木曜日、毎週金曜日",
            "tel": "0952-48-0208",
            "lat": "33.24721268",
            "lng": "130.27619020"
        },
        {
            "name": "Cafe' Tomita",
            "type": "スパゲティ",
            "address": "佐賀県佐賀市白山1-2-22",
            "time": "ランチ11:30～14:00/ディナー18:00～21:30",
            "regular_holiday": "毎週木曜日",
            "tel": "0952-37-7782",
            "lat": "33.25508497",
            "lng": "130.29917428"
        },
        {
            "name": "cafebar YIN＆YANG",
            "type": "その他飲食店",
            "address": "佐賀県唐津市千代田町2109-12",
            "time": "18:00～翌1:00（金.土.祝前日は2:00）",
            "regular_holiday": "水曜日（木曜が祝休日の場合営業）",
            "tel": "0955-72-4853",
            "lat": "33.44938239",
            "lng": "129.97381401"
        },
        {
            "name": "Cafe+bar Diro",
            "type": "喫茶店",
            "address": "佐賀県唐津市紺屋町１６６８－３Nビル１階",
            "time": "",
            "regular_holiday": "",
            "tel": "0955-58-8477",
            "lat": "33.44700741",
            "lng": "129.96812003"
        },
        {
            "name": "cafe feel",
            "type": "喫茶店",
            "address": "佐賀県唐津市南城内1-1大手口センタービル１階",
            "time": "9:30～18:00",
            "regular_holiday": "不定休",
            "tel": "0955-75-7120",
            "lat": "33.44940164",
            "lng": "129.96935880"
        },
        {
            "name": "caffe Luna",
            "type": "洋食",
            "address": "佐賀県唐津市京町1768-4",
            "time": "ランチ11:30～14:30/ディナー18:00～24:00",
            "regular_holiday": "水曜全日と木曜日のランチ",
            "tel": "080-2697-0497",
            "lat": "33.44683806",
            "lng": "129.96966438"
        },
        {
            "name": "カフェルクスゆめタウン佐賀店",
            "type": "喫茶店",
            "address": "佐賀県佐賀市兵庫北5丁目14－1ゆめタウン佐賀1F",
            "time": "11：00～22：00",
            "regular_holiday": "不定休",
            "tel": "0952-97-7790",
            "lat": "33.27563907",
            "lng": "130.30795086"
        },
        {
            "name": "カフェレストラン ダ・ジュール",
            "type": "レストラン",
            "address": "佐賀県伊万里市新天町475-45",
            "time": "11:00～20:00（O.S）",
            "regular_holiday": "毎週火曜日",
            "tel": "0955-22-5110",
            "lat": "33.27015673",
            "lng": "129.87633336"
        },
        {
            "name": "カフェれすとらんこぱん",
            "type": "レストラン",
            "address": "佐賀県西松浦郡有田町戸矢乙1138-1",
            "time": "11：00～21：00",
            "regular_holiday": "毎週木曜日、毎月第3日曜日",
            "tel": "0955-43-2880",
            "lat": "33.16821762",
            "lng": "129.89396063"
        },
        {
            "name": "カフェレストランパセリ",
            "type": "レストラン",
            "address": "佐賀県武雄市武雄町武雄4145-2",
            "time": "ランチ11：00～14：00／ディナー1700～21:00",
            "regular_holiday": "毎週水曜日",
            "tel": "0954-23-3751",
            "lat": "33.17926050",
            "lng": "130.01684808"
        },
        {
            "name": "cafechino",
            "type": "喫茶店",
            "address": "佐賀県嬉野市嬉野町下宿乙2351-1",
            "time": "11:00～19:00",
            "regular_holiday": "毎週火曜日",
            "tel": "0954-42-1640",
            "lat": "33.10028802",
            "lng": "129.99048638"
        },
        {
            "name": "かぶと寿司",
            "type": "すし店",
            "address": "佐賀県佐賀市高木瀬西3-8-16",
            "time": "11:00～14:00 / 16:00～22:00",
            "regular_holiday": "火曜日",
            "tel": "0952-30-3603",
            "lat": "33.27999339",
            "lng": "130.28233338"
        },
        {
            "name": "兜野",
            "type": "その他飲食店",
            "address": "佐賀県佐賀市中央本町7-8",
            "time": "11:30～13:30 17:30～23:30",
            "regular_holiday": "毎週日曜日",
            "tel": "080-1768-5929",
            "lat": "33.25355746",
            "lng": "130.30272399"
        },
        {
            "name": "かま蔵うどん",
            "type": "食堂",
            "address": "佐賀県武雄市北方町志久2040-2",
            "time": "ランチ11:00～14:30／ディナー17:00～19:30",
            "regular_holiday": "毎週火曜日",
            "tel": "0954-36-2964",
            "lat": "33.22043235",
            "lng": "130.06291004"
        },
        {
            "name": "釜よし",
            "type": "食堂",
            "address": "佐賀県藤津郡太良町伊福甲3321-2",
            "time": "午前11:00～午後21:00",
            "regular_holiday": "不定休",
            "tel": "0954-67-1886",
            "lat": "33.04611072",
            "lng": "130.16795910"
        },
        {
            "name": "鎌倉パスタ ゆめタウン佐賀店",
            "type": "スパゲティ",
            "address": "佐賀県佐賀市兵庫北5丁目14番1号",
            "time": "11：00～22:00",
            "regular_holiday": "ゆめタウン佐賀に準ずる",
            "tel": "0952-36-7309",
            "lat": "33.27563907",
            "lng": "130.30795086"
        },
        {
            "name": "亀井鮨",
            "type": "すし店",
            "address": "佐賀県西松浦郡有田町岩谷川内2-10-12",
            "time": "11：30～21：30",
            "regular_holiday": "不定休",
            "tel": "0955-43-2951",
            "lat": "33.18215264",
            "lng": "129.88640554"
        },
        {
            "name": "KARAE TABLE",
            "type": "その他飲食店",
            "address": "佐賀県唐津市京町1783番地KARAE内",
            "time": "月～金 7:30～18:00（LO17:00）/ 土日祝 7:30～19:00（LO18:00）",
            "regular_holiday": "不定休",
            "tel": "0955-53-8067",
            "lat": "33.44719911",
            "lng": "129.96914496"
        },
        {
            "name": "唐津　網元の宿　汐湯凪の音",
            "type": "和食",
            "address": "佐賀県唐津市浜玉町浜崎1613",
            "time": "昼食11:00~14:00（L.O.13:30）／夕食17:00~22:00（最終受付20:00）",
            "regular_holiday": "年中無休",
            "tel": "0955-56-7007",
            "lat": "33.45239516",
            "lng": "130.03917847"
        },
        {
            "name": "唐津うまかもん市場",
            "type": "その他飲食店",
            "address": "佐賀県唐津市久里1961-2",
            "time": "ランチ 11:00～15：00",
            "regular_holiday": "不定休",
            "tel": "0955-78-1313",
            "lat": "33.40810124",
            "lng": "129.98966794"
        },
        {
            "name": "唐津 孤高の肉バル カルネスタ",
            "type": "その他飲食店",
            "address": "佐賀県唐津市中町1513-5大越ビル2階",
            "time": "ランチ11:30～14:00／ディナー18:00～22:00",
            "regular_holiday": "毎週日・月曜日",
            "tel": "0955-58-8879",
            "lat": "33.44894338",
            "lng": "129.96984210"
        },
        {
            "name": "唐津ゴルフ倶楽部 ゴルフガーデンレストラン「THE GRILL」",
            "type": "レストラン",
            "address": "佐賀県唐津市菅牟田64番地1",
            "time": "ランチ 10：30～14：30(最終入店13：30）アフター 15：00～18：00（予約制）",
            "regular_holiday": "不定休",
            "tel": "0955-73-2933",
            "lat": "33.42087800",
            "lng": "129.93494062"
        },
        {
            "name": "からつ鮨 笑咲喜",
            "type": "すし店",
            "address": "佐賀県唐津市中町1840-1",
            "time": "火～土 17:00～22:00 / 12:00～14:00",
            "regular_holiday": "月曜日",
            "tel": "0955-75-2014",
            "lat": "33.44792683",
            "lng": "129.96985046"
        },