{
    "data": [
        {
            "name": "矢車寿し",
            "type": [
                "寿司",
                "ラーメン",
                "刺身",
                "焼鳥",
                "ジンギスカン"
            ],
            "address": "盛岡市東山1-20-3佐々忠コーポ5号",
            "tel": "019-654-0644",
            "lat": "39.69100193",
            "lng": "141.17581825"
        },
        {
            "name": "東大通りのスパゲッティ屋　モンタン",
            "type": [
                "スパゲッティ"
            ],
            "address": "盛岡市内丸6-2",
            "tel": "019-681-6086",
            "lat": "39.70216400",
            "lng": "141.15147004"
        },
        {
            "name": "株式会社NKフーズ　炭火焼ステーキ　天元",
            "type": [
                "ステーキ"
            ],
            "address": "盛岡市上堂4-1-20公楽ビル3階",
            "tel": "019-625-2911",
            "lat": "39.73030983",
            "lng": "141.12378576"
        },
        {
            "name": "元祖盛岡タンメン山本",
            "type": [
                "盛岡タンメン",
                "定食"
            ],
            "address": "盛岡市下太田林崎166",
            "tel": "019-601-8322",
            "lat": "39.68978621",
            "lng": "141.11268231"
        },
        {
            "name": "シェフ・インドカレー",
            "type": [
                "インドカレー"
            ],
            "address": "盛岡市繋字山根231-2",
            "tel": "019-613-2299",
            "lat": "39.69801303",
            "lng": "141.02350866"
        },
        {
            "name": "屋台餃子　一龍本店",
            "type": [
                "餃子"
            ],
            "address": "盛岡市菜園2丁目5-13玉川ビル1F",
            "tel": "019-613-3402",
            "lat": "39.70236659",
            "lng": "141.14453733"
        },
        {
            "name": "火ｎo山",
            "type": [
                "創作料理"
            ],
            "address": "盛岡市大通2-7-26　スギヤマビル6F",
            "tel": "019-624-2400",
            "lat": "39.70310545",
            "lng": "141.14586496"
        },
        {
            "name": "ホテル紫苑　和食処 花暦",
            "type": [
                "和食"
            ],
            "address": "盛岡市繋字湯ノ舘74-2",
            "tel": "019-689-2288",
            "lat": "39.67920415",
            "lng": "141.02566487"
        },
        {
            "name": "中華ダイニングシーアン",
            "type": [
                "中華"
            ],
            "address": "盛岡市向中野4丁目12-32",
            "tel": "019-635-8200",
            "lat": "39.67941871",
            "lng": "141.14345756"
        },
        {
            "name": "居酒屋　いちよし",
            "type": [
                "ホルモン焼き",
                "刺身",
                "寿司",
                "ラーメン",
                "焼きとり"
            ],
            "address": "盛岡市上田2丁目16-3",
            "tel": "019-653-2561",
            "lat": "39.71599811",
            "lng": "141.14229000"
        },
        {
            "name": "四季料理・鮨　若竹",
            "type": [
                "和食",
                "寿司"
            ],
            "address": "盛岡市大通1-9-25",
            "tel": "019-625-0010",
            "lat": "39.70317215",
            "lng": "141.14738148"
        },
        {
            "name": "開運橋通　菊花",
            "type": [
                "日本料理"
            ],
            "address": "盛岡市開運橋通1-40　田村ビル1F",
            "tel": "019-613-2232",
            "lat": "39.70220270",
            "lng": "141.14410404"
        },
        {
            "name": "茶の間",
            "type": [
                "居酒屋"
            ],
            "address": "盛岡市中央通1丁目10-4",
            "tel": "019-622-5231",
            "lat": "39.70388038",
            "lng": "141.14697873"
        },
        {
            "name": "（株）Nexus（赤から盛岡大通店）",
            "type": [
                "居酒屋"
            ],
            "address": "盛岡市大通2-7-19",
            "tel": "019-654-2929",
            "lat": "39.70320818",
            "lng": "141.14510947"
        },
        {
            "name": "香醤本宮本店",
            "type": [
                "じゃじゃ麺"
            ],
            "address": "盛岡市本宮6丁目5-31",
            "tel": "019-636-2033",
            "lat": "39.68664519",
            "lng": "141.12334263"
        },
        {
            "name": "うし亭",
            "type": [
                "洋風居酒屋"
            ],
            "address": "盛岡市菜園1丁目11-20",
            "tel": "019-624-6945",
            "lat": "39.70141122",
            "lng": "141.14748708"
        },
        {
            "name": "寿し一",
            "type": [
                "寿司"
            ],
            "address": "盛岡市渋民字駅150番地",
            "tel": "019-683-2110",
            "lat": "39.84462042",
            "lng": "141.16766676"
        },
        {
            "name": "カプチーノ詩季",
            "type": [
                "カフェ",
                "喫茶"
            ],
            "address": "盛岡市盛岡駅前通10-6",
            "tel": "019-625-3608",
            "lat": "39.70241911",
            "lng": "141.13834903"
        },
        {
            "name": "三陸旬彩　すノ家盛岡駅前店",
            "type": [
                "和食"
            ],
            "address": "盛岡市盛岡駅前通15-23",
            "tel": "019-681-4430",
            "lat": "39.70366885",
            "lng": "141.13540484"
        },
        {
            "name": "カフェレストラン　ビクトリア",
            "type": [
                "洋食",
                "カフェ"
            ],
            "address": "盛岡市本宮3丁目51-65",
            "tel": "019-613-7457",
            "lat": "39.69143655",
            "lng": "141.12845031"
        },
        {
            "name": "濱野井　マリオス店",
            "type": [
                "丼物",
                "そば",
                "ラーメン"
            ],
            "address": "盛岡市盛岡駅西通2-9-1　マリオス4F",
            "tel": "019-624-2202",
            "lat": "39.70116350",
            "lng": "141.13351620"
        },
        {
            "name": "チャイニーズダイニング　JUEN　ホテルメトロポリタン盛岡",
            "type": [
                "中華"
            ],
            "address": "盛岡市盛岡駅前通１番44号",
            "tel": "019-629-2612",
            "lat": "39.70260787",
            "lng": "141.13564651"
        },
        {
            "name": "銀河辣麺堂",
            "type": [
                "ラーメン"
            ],
            "address": "盛岡市盛岡駅前通１番44号　盛岡駅ビル　フェザン　めんこい横丁",
            "tel": "019-601-5775",
            "lat": "39.70260787",
            "lng": "141.13564651"
        },
        {
            "name": "フランス料理　モン・フレーブ　ホテルメトロポリタン盛岡NEW　WING",
            "type": [
                "洋食（フランス料理）"
            ],
            "address": "盛岡市盛岡駅前北通2番27号",
            "tel": "019-625-6262",
            "lat": "39.70433826",
            "lng": "141.13654915"
        },
        {
            "name": "ティーラウンジクローバー　ホテルメトロポリタンNEW　WING",
            "type": [
                "喫茶"
            ],
            "address": "盛岡市盛岡駅前北通2番27号",
            "tel": "019-625-1211",
            "lat": "39.70433826",
            "lng": "141.13654915"
        },
        {
            "name": "日本料理　対い鶴　ホテルメトロポリタンNEW　WING",
            "type": [
                "和食"
            ],
            "address": "盛岡市盛岡駅前北通2番27号",
            "tel": "019-625-1211",
            "lat": "39.70433826",
            "lng": "141.13654915"
        },
        {
            "name": "ダイニング＆バー　ジョバンニ　ホテルメトロポリタンNEW　WING",
            "type": [
                "洋食"
            ],
            "address": "盛岡市盛岡駅前北通2番27号",
            "tel": "019-625-6261",
            "lat": "39.70433826",
            "lng": "141.13654915"
        },
        {
            "name": "たこ新",
            "type": [
                "たこ焼",
                "焼トリ"
            ],
            "address": "盛岡市高松2丁目3-18",
            "tel": "080-3142-5560",
            "lat": "39.72203055",
            "lng": "141.13735420"
        },
        {
            "name": "インドレストラン　カバブ　高松店",
            "type": [
                "インドカレー"
            ],
            "address": "盛岡市高松2丁目3-18",
            "tel": "019-661-1805",
            "lat": "39.72203055",
            "lng": "141.13735420"
        },
        {
            "name": "インドレストラン　カバブ　津志田店",
            "type": [
                "カレー",
                "ナン"
            ],
            "address": "盛岡市津志田南3丁目7-77",
            "tel": "TEL：",
            "lat": "39.65902091",
            "lng": "141.14907736"
        },
        {
            "name": "レストラン　ビーハイブ",
            "type": [
                "レストラン"
            ],
            "address": "盛岡市中央通2丁目11-35",
            "tel": "019-654-3811",
            "lat": "39.70418304",
            "lng": "141.14468449"
        },
        {
            "name": "愛真館　善五郎",
            "type": [
                "和食",
                "そば",
                "ラーメン"
            ],
            "address": "盛岡市繋字金沢40-4",
            "tel": "019-689-2111",
            "lat": "39.67463784",
            "lng": "141.02069896"
        },
        {
            "name": "盛岡粋酒場　がむしゃら",
            "type": [
                "居酒屋"
            ],
            "address": "盛岡市大通1丁目6-17　プラザタイガースビルB1F",
            "tel": "019-653-8700",
            "lat": "39.70244448",
            "lng": "141.14891192"
        },
        {
            "name": "めんくい屋",
            "type": [
                "中華料理（長崎ちゃんぽん",
                "皿うどん",
                "ラーメン）"
            ],
            "address": "盛岡市内丸6-4",
            "tel": "019-653-8737",
            "lat": "39.70221677",
            "lng": "141.15131172"
        },
        {
            "name": "アランチャ",
            "type": [
                "イタリア料理"
            ],
            "address": "盛岡市中央通2丁目1-26　MCDビル1F",
            "tel": "019-625-6305",
            "lat": "39.70450252",
            "lng": "141.14673707"
        },
        {
            "name": "モリモリオカン",
            "type": [
                "居酒屋"
            ],
            "address": "盛岡市大通2丁目4-22　ニッカツゴールデンビル2F",
            "tel": "019-613-9297",
            "lat": "39.70358876",
            "lng": "141.14705928"
        },
        {
            "name": "ボン・クラージュ （Bon courage）",
            "type": [
                "フレンチ",
                "ビストロ"
            ],
            "address": "盛岡市開運橋通1-41",
            "tel": "019-681-3434",
            "lat": "39.70212770",
            "lng": "141.14405127"
        },
        {
            "name": "ドトールコーヒーショップ　盛岡駅店",
            "type": [
                "コーヒー",
                "サンドイッチ",
                "ケーキ等"
            ],
            "address": "盛岡市盛岡駅前通1-48",
            "tel": "019-606-5210",
            "lat": "39.70041930",
            "lng": "141.13788803"
        },
        {
            "name": "キリンシティ盛岡",
            "type": [
                "ビール",
                "カクテル他アルコールドリンク",
                "ソフトドリンク",
                "肉料理他洋食メニュー"
            ],
            "address": "盛岡市盛岡駅前通1-48",
            "tel": "019-629-2535",
            "lat": "39.70041930",
            "lng": "141.13788803"
        },
        {
            "name": "南部いろり庵　盛岡駅店",
            "type": [
                "そば",
                "丼物",
                "ラーメン",
                "地酒等"
            ],
            "address": "盛岡市盛岡駅前通1-48",
            "tel": "019-626-1085",
            "lat": "39.70041930",
            "lng": "141.13788803"
        },
        {
            "name": "グッドタイムスカフェ　盛岡店",
            "type": [
                "ソフトクリーム",
                "コーヒー等"
            ],
            "address": "盛岡市盛岡駅前通1-48",
            "tel": "019-626-8081",
            "lat": "39.70041930",
            "lng": "141.13788803"
        },
        {
            "name": "filo",
            "type": [
                "イタリア料理"
            ],
            "address": "盛岡市中ノ橋1-3-21",
            "tel": "019-613-9005",
            "lat": "39.69823127",
            "lng": "141.16059157"
        },
        {
            "name": "ももどり駅前食堂",
            "type": [
                "鳥",
                "とうふ",
                "山菜きのこ料理",
                "定食",
                "食堂",
                "居酒屋"
            ],
            "address": "盛岡市盛岡駅前通10-4",
            "tel": "019-654-6622",
            "lat": "39.70244134",
            "lng": "141.13856568"
        },
        {
            "name": "会席居酒屋　扇や",
            "type": [
                "和食"
            ],
            "address": "盛岡市盛岡駅前通15番17号",
            "tel": "019-651-3964",
            "lat": "39.70331059",
            "lng": "141.13614922"
        },
        {
            "name": "ドトールコーヒーショップ　盛岡駅南口店",
            "type": [
                "コーヒー",
                "サンドイッチ等"
            ],
            "address": "盛岡市盛岡駅前通1-48",
            "tel": "019-626-8285",
            "lat": "39.70041930",
            "lng": "141.13788803"
        },
        {
            "name": "飲み喰い処ばんから屋",
            "type": [
                "居酒屋"
            ],
            "address": "盛岡市盛岡駅前北通4-4国労会館1F",
            "tel": "019-625-7444",
            "lat": "39.70426599",
            "lng": "141.13512707"
        },
        {
            "name": "グルメ回転寿司 函太郎 アクロスプラザ盛岡みたけ店",
            "type": [
                "寿司"
            ],
            "address": "盛岡市みたけ2-9-45アクロスプラザ盛岡みたけ内",
            "tel": "019-613-8620",
            "lat": "39.74352225",
            "lng": "141.12449084"
        },
        {
            "name": "網玄",
            "type": [
                "居酒屋"
            ],
            "address": "盛岡市菜園一丁目2-17",
            "tel": "019-654-4880",
            "lat": "39.70035024",
            "lng": "141.14874533"
        },
        {
            "name": "をかしら屋盛岡大通店",
            "type": [
                "ホルモン",
                "焼肉店"
            ],
            "address": "盛岡市大通一丁目４－５　小野新ビル１階",
            "tel": "019-651-7111",
            "lat": "39.70187788",
            "lng": "141.14921469"
        },
        {
            "name": "盛岡手づくり村　キッチン味日和",
            "type": [
                "蕎麦",
                "ラーメン",
                "定食"
            ],
            "address": "盛岡市繋字尾入野64-102",
            "tel": "019-689-2201",
            "lat": "39.69286363",
            "lng": "141.02432548"
        },
        {
            "name": "味勢",
            "type": [
                "居酒屋"
            ],
            "address": "盛岡市大通一丁目3-20",
            "tel": "019-653-6611",
            "lat": "39.70263614",
            "lng": "141.14959519"
        },
        {
            "name": "左近",
            "type": [
                "居酒屋"
            ],
            "address": "盛岡市中央通二丁目1-31",
            "tel": "019-622-1009",
            "lat": "39.70433310",
            "lng": "141.14678429"
        },
        {
            "name": "モスバーガー盛岡マッハランド店",
            "type": [
                "ファーストフード"
            ],
            "address": "盛岡市上堂１丁目２－５０",
            "tel": "019-648-8855",
            "lat": "39.72411620",
            "lng": "141.12811331"
        },
        {
            "name": "かっぱ寿司　盛岡南店",
            "type": [
                "寿司"
            ],
            "address": "盛岡市向中野２丁目2-20",
            "tel": "019-656-5131",
            "lat": "39.68425152",
            "lng": "141.14088545"
        },
        {
            "name": "明月館",
            "type": [
                "焼肉",
                "冷麺"
            ],
            "address": "盛岡市向中野7-15-10",
            "tel": "019-635-7066",
            "lat": "39.67456068",
            "lng": "141.13800274"
        },
        {
            "name": "ぴょんぴょん舎稲荷町本店",
            "type": [
                "冷麺",
                "焼肉"
            ],
            "address": "盛岡市稲荷町12-5",
            "tel": "019-646-0541",
            "lat": "39.70850640",
            "lng": "141.11079296"
        },
        {
            "name": "ぴょんぴょん舎盛岡駅前店",
            "type": [
                "冷麺",
                "焼肉"
            ],
            "address": "盛岡市盛岡駅前通９－３",
            "tel": "019-606-1067",
            "lat": "39.70237186",
            "lng": "141.13754633"
        },
        {
            "name": "ぴょんぴょん舎都南店",
            "type": [
                "冷麺",
                "焼肉"
            ],
            "address": "盛岡市津志田南1丁目１－５５",
            "tel": "019-639-7666",
            "lat": "39.65840182",
            "lng": "141.16006800"
        },
        {
            "name": "ぴょんぴょん舎オンマーキッチン　イオン盛岡店",
            "type": [
                "冷麺",
                "焼肉"
            ],
            "address": "盛岡市前潟４丁目７－１　イオン盛岡ＳＣ内",
            "tel": "019-605-2761",
            "lat": "39.71156124",
            "lng": "141.09866601"
        },
        {
            "name": "CAFE RESTAURANT JARAN JARAN",
            "type": [
                "無国籍料理"
            ],
            "address": "盛岡市盛岡駅前通９－３　ジャーランビル４Ｆ",
            "tel": "019-606-1066",
            "lat": "39.70237186",
            "lng": "141.13754633"
        },
        {
            "name": "タリーズコーヒー　盛岡駅フェザン店",
            "type": [
                "カフェ"
            ],
            "address": "盛岡市盛岡駅前通1-44 フェザン1F",
            "tel": "019-654-7880",
            "lat": "39.70260787",
            "lng": "141.13564651"
        },
        {
            "name": "料亭京極",
            "type": [
                "和食"
            ],
            "address": "盛岡市大通１丁目８－４",
            "tel": "019-625-9459",
            "lat": "39.70339435",
            "lng": "141.14803142"
        },
        {
            "name": "ベーカリーカフェ　コシニール　MORIOKA TSUTAYA店",
            "type": [
                "パン",
                "カフェ"
            ],
            "address": "盛岡市本宮4-40-20",
            "tel": "019-601-8738",
            "lat": "39.68643145",
            "lng": "141.12727560"
        },
        {
            "name": "ブックカフェ　コシニール　MORIOKA T",
            "type": [
                "カフェ"
            ],
            "address": "盛岡市本宮4-40-20　盛岡TSUTAYA内",
            "tel": "019-601-6078",
            "lat": "39.68643145",
            "lng": "141.12727560"
        },
        {
            "name": "盛岡じゃじゃ麺　HOT JaJa",
            "type": [
                "じゃじゃ麺"
            ],
            "address": "盛岡市盛岡駅前通９－５　佐川ビル１F",
            "tel": "019-606-1068",
            "lat": "39.70226077",
            "lng": "141.13769077"
        },
        {
            "name": "コシニール　イオンモール盛岡店",
            "type": [
                "パン",
                "カフェ"
            ],
            "address": "盛岡市前潟4-7-1",
            "tel": "019-648-2411",
            "lat": "39.71156124",
            "lng": "141.09866601"
        },
        {
            "name": "極上　三福ラーメン",
            "type": [
                "ラーメン"
            ],
            "address": "盛岡市盛岡駅前通1-44　フェザン本館地下1階",
            "tel": "019-681-2738",
            "lat": "39.70260787",
            "lng": "141.13564651"
        },
        {
            "name": "大阪王将　フェザン店",
            "type": [
                "ラーメン",
                "中華"
            ],
            "address": "盛岡市盛岡駅前通1-44　フェザン地下1F",
            "tel": "019-604-3791",
            "lat": "39.70260787",
            "lng": "141.13564651"
        },
        {
            "name": "大阪王将　イオンモール盛岡南店",
            "type": [
                "ラーメン",
                "中華"
            ],
            "address": "盛岡市本宮7-1-1　イオンモール盛岡南1F",
            "tel": "019-631-3580",
            "lat": "39.68366231",
            "lng": "141.12871723"
        },
        {
            "name": "大阪王将　上堂店",
            "type": [
                "ラーメン",
                "中華"
            ],
            "address": "盛岡市上堂1-2-38",
            "tel": "019-648-3755",
            "lat": "39.72374400",
            "lng": "141.12689398"
        },
        {
            "name": "大阪王将　盛岡駅前店",
            "type": [
                "ラーメン",
                "中華"
            ],
            "address": "盛岡市盛岡駅前通14-6　PIVOTビル1F",
            "tel": "019-604-7701",
            "lat": "39.70264404",
            "lng": "141.13702971"
        },
        {
            "name": "地産地招　あげ福",
            "type": [
                "居酒屋"
            ],
            "address": "盛岡市盛岡駅前通14-6　PIVOTビル2F",
            "tel": "019-604-7788",
            "lat": "39.70264404",
            "lng": "141.13702971"
        },
        {
            "name": "バレル　べっか",
            "type": [
                "創作居酒屋"
            ],
            "address": "盛岡市中央通2-1-7　岩手開連ビルB1F",
            "tel": "019-621-1315",
            "lat": "39.70413587",
            "lng": "141.14592604"
        },
        {
            "name": "日本酒バル　Gin蔵",
            "type": [
                "和食",
                "日本酒"
            ],
            "address": "盛岡市中央通1-7-13　1F2号室",
            "tel": "019-601-7383",
            "lat": "39.70345269",
            "lng": "141.14843972"
        },
        {
            "name": "南部ビストロ　うんめのす",
            "type": [
                "和食",
                "日本酒"
            ],
            "address": "盛岡市盛岡駅前通1-44　フェザン南館1F",
            "tel": "019-601-5929",
            "lat": "39.70260787",
            "lng": "141.13564651"
        },
        {
            "name": "チーズケーキのチロル",
            "type": [
                "チーズケーキ",
                "コーヒー",
                "紅茶"
            ],
            "address": "盛岡市山岸6-34-15",
            "tel": "019-663-3355",
            "lat": "39.72956085",
            "lng": "141.16540967"
        },
        {
            "name": "赤い鳥　盛岡駅前店",
            "type": [
                "鶏料理"
            ],
            "address": "盛岡市盛岡駅前北通4-16　1F",
            "tel": "019-613-8629",
            "lat": "39.70411878",
            "lng": "141.13493265"
        },
        {
            "name": "四六時中　盛岡渋民店",
            "type": [
                "和食"
            ],
            "address": "盛岡市玉山区渋民字鶴飼20-1ｲｵﾝｽｰﾊﾟｰｾﾝﾀｰ盛岡渋民店1階",
            "tel": "019-669-5366",
            "lat": "39.70186410",
            "lng": "141.15451150"
        },
        {
            "name": "三枚目助五郎大通",
            "type": [
                "和食"
            ],
            "address": "盛岡市大通3丁目2-2",
            "tel": "019-601-7803",
            "lat": "39.70367476",
            "lng": "141.14442342"
        },
        {
            "name": "杵屋　盛岡駅フェザン店",
            "type": [
                "うどん"
            ],
            "address": "盛岡市盛岡駅前通1-44",
            "tel": "019-654-7689",
            "lat": "39.70260787",
            "lng": "141.13564651"
        },
        {
            "name": "焼肉冷麺ヤマト盛岡店",
            "type": [
                "焼肉"
            ],
            "address": "盛岡市稲荷町3-3",
            "tel": "019-646-0288",
            "lat": "39.70936195",
            "lng": "141.11358159"
        },
        {
            "name": "焼肉バル　牛庵",
            "type": [
                "焼肉"
            ],
            "address": "盛岡市大通3丁目2-2",
            "tel": "019-653-1192",
            "lat": "39.70367476",
            "lng": "141.14442342"
        },
        {
            "name": "焼肉冷麺ヤマト盛岡南店",
            "type": [
                "焼肉"
            ],
            "address": "盛岡市三本柳9-31-1",
            "tel": "019-639-0029",
            "lat": "39.65066395",
            "lng": "141.16659835"
        },
        {
            "name": "にくにくパラダイス",
            "type": [
                "焼肉"
            ],
            "address": "盛岡市青山4丁目46-25",
            "tel": "019-646-7739",
            "lat": "39.73386206",
            "lng": "141.11577240"
        },
        {
            "name": "焼肉冷麺ヤマト盛岡みたけ店",
            "type": [
                "焼肉"
            ],
            "address": "盛岡市みたけ2-1-12",
            "tel": "019-656-6829",
            "lat": "39.73866723",
            "lng": "141.12488820"
        },
        {
            "name": "焼肉冷麺ヤマト盛岡本宮店",
            "type": [
                "焼肉"
            ],
            "address": "盛岡市本宮4丁目44-17",
            "tel": "019-613-6290",
            "lat": "39.68553158",
            "lng": "141.12889214"
        },
        {
            "name": "夢幻",
            "type": [
                "居酒屋"
            ],
            "address": "盛岡市大通1丁目9-7　第3大通ビル2F",
            "tel": "019-653-5888",
            "lat": "39.70301662",
            "lng": "141.14756203"
        },
        {
            "name": "GASTRO　SUKEGORO",
            "type": [
                "イタリアン",
                "洋食"
            ],
            "address": "盛岡市大通1丁目10-15　盛岡共同印刷ビル2F",
            "tel": "019-652-1030",
            "lat": "39.70272776",
            "lng": "141.14755926"
        },
        {
            "name": "韓式食彩ヤマト",
            "type": [
                "焼肉"
            ],
            "address": "盛岡市繋字山根221",
            "tel": "019-691-7001",
            "lat": "39.70112122",
            "lng": "141.02977732"
        },
        {
            "name": "いわて三陸水産組合",
            "type": [
                "居酒屋"
            ],
            "address": "盛岡市津志田南1丁目1-15",
            "tel": "019-613-2244",
            "lat": "39.65894623",
            "lng": "141.16076513"
        },
        {
            "name": "千倍",
            "type": [
                "居酒屋"
            ],
            "address": "盛岡市高松2丁目12-15",
            "tel": "019-663-1081",
            "lat": "39.72306926",
            "lng": "141.13506272"
        },
        {
            "name": "ミスタードーナツ盛岡肴町ショップ",
            "type": [
                "スイーツ"
            ],
            "address": "盛岡市肴町５－５",
            "tel": "019-654-7202",
            "lat": "39.69897551",
            "lng": "141.15522813"
        },
        {
            "name": "三枚目助五郎本宮",
            "type": [
                "和食居酒屋"
            ],
            "address": "盛岡市本宮6丁目26-16",
            "tel": "019-613-4666",
            "lat": "39.68664785",
            "lng": "141.11938187"
        },
        {
            "name": "ミスタードーナツ盛岡大通ショップ",
            "type": [
                "スイーツ"
            ],
            "address": "盛岡市大通1-9-9",
            "tel": "019-652-1811",
            "lat": "39.70317215",
            "lng": "141.14738148"
        },
        {
            "name": "ミスタードーナツイオン盛岡ショップ",
            "type": [
                "スイーツ"
            ],
            "address": "盛岡市前潟４－７－１　イオンモール盛岡２Ｆ",
            "tel": "0196482323",
            "lat": "39.71156124",
            "lng": "141.09866601"
        },
        {
            "name": "三枚目助五郎盛岡駅前",
            "type": [
                "和食居酒屋"
            ],
            "address": "盛岡市盛岡駅前通7-12　はちや盛岡駅前ビルB1F",
            "tel": "019-601-2566",
            "lat": "39.70198584",
            "lng": "141.13866013"
        },
        {
            "name": "すきや川また",
            "type": [
                "京風すき焼き"
            ],
            "address": "盛岡市中央通2丁目1-32",
            "tel": "019-681-4488",
            "lat": "39.70424700",
            "lng": "141.14673707"
        },
        {
            "name": "かつてん盛岡イオン店",
            "type": [
                "かつ丼",
                "天丼"
            ],
            "address": "盛岡市前潟４－７－１　イオンモール盛岡２Ｆ",
            "tel": "019-648-2411",
            "lat": "39.71156124",
            "lng": "141.09866601"
        },
        {
            "name": "牛角盛岡北店",
            "type": [
                "焼肉"
            ],
            "address": "盛岡市月が丘１－３０－５３",
            "tel": "019-648-8929",
            "lat": "39.73417590",
            "lng": "141.11499745"
        },
        {
            "name": "らーめんおっぺしゃん盛岡駅前店",
            "type": [
                "ラーメン"
            ],
            "address": "盛岡市盛岡駅前通８－１３",
            "tel": "019-601-8850",
            "lat": "39.70188026",
            "lng": "141.13792131"
        },
        {
            "name": "瑪蜜黛イオンモール盛岡店",
            "type": [
                "スイーツ"
            ],
            "address": "盛岡市前潟４－７－１",
            "tel": "019-614-9122",
            "lat": "39.71156124",
            "lng": "141.09866601"
        },
        {
            "name": "銀禅",
            "type": [
                "和食",
                "洋食",
                "酒類等"
            ],
            "address": "盛岡市三本柳10地割17-52",
            "tel": "019-637-5375",
            "lat": "39.65348293",
            "lng": "141.16182643"
        },
        {
            "name": "東家本店",
            "type": [
                "そば"
            ],
            "address": "盛岡市中ノ橋通1丁目８－３",
            "tel": "019-622-2252",
            "lat": "39.70048649",
            "lng": "141.15657519"
        },
        {
            "name": "レストラン　パイオニアファーム",
            "type": [
                "洋食（ステーキ",
                "ハンバーグ",
                "ローストビーフ）"
            ],
            "address": "盛岡市本町通２丁目１－３４トーカンマンション本町",
            "tel": "019-656-6224",
            "lat": "39.70613851",
            "lng": "141.15130607"
        },
        {
            "name": "大同苑　盛岡総本店",
            "type": [
                "焼肉"
            ],
            "address": "盛岡市菜園二丁目６‐１９",
            "tel": "019-654-5588",
            "lat": "39.70220271",
            "lng": "141.14437346"
        },
        {
            "name": "てらどのかまど",
            "type": [
                "居酒屋"
            ],
            "address": "盛岡市青山3丁目26-21千葉ビル2F",
            "tel": "019-643-9137",
            "lat": "39.72840153",
            "lng": "141.11350886"
        },
        {
            "name": "エキチカバル",
            "type": [
                "ビール",
                "ワイン",
                "スパイスカレー",
                "おつまみ等"
            ],
            "address": "盛岡市盛岡駅前通1-44盛岡駅フェザンおでんせ館B1",
            "tel": "019-656-8002",
            "lat": "39.70260787",
            "lng": "141.13564651"
        },
        {
            "name": "デギュステヴァン",
            "type": [
                "ワインのグラス売り他"
            ],
            "address": "盛岡市肴町3-30パークハイツ中津川101号",
            "tel": "019-601-5251",
            "lat": "39.69883105",
            "lng": "141.15359495"
        },
        {
            "name": "藤原養蜂場",
            "type": [
                "和食",
                "軽食",
                "喫茶"
            ],
            "address": "盛岡市若園町3-10",
            "tel": "019-624-3001",
            "lat": "39.70446386",
            "lng": "141.15866935"
        },
        {
            "name": "つなぎ温泉観光協会",
            "type": [
                "コーヒー",
                "アイスクリーム等"
            ],
            "address": "盛岡市繋字舘市89",
            "tel": "019-689-2109",
            "lat": "39.67570436",
            "lng": "141.01957679"
        },
        {
            "name": "すしの山留大通店",
            "type": [
                "寿司",
                "和食"
            ],
            "address": "盛岡市大通一丁目9-12",
            "tel": "019-651-4678",
            "lat": "39.70322215",
            "lng": "141.14755647"
        },
        {
            "name": "銀鱗山留緑が丘店",
            "type": [
                "寿司",
                "和食"
            ],
            "address": "盛岡市緑が丘三丁目20-1",
            "tel": "019-661-6961",
            "lat": "39.73797045",
            "lng": "141.14480588"
        },
        {
            "name": "Hodo",
            "type": [
                "居酒屋"
            ],
            "address": "盛岡市菜園1-6-21",
            "tel": "019-604-9500",
            "lat": "39.70132514",
            "lng": "141.14868976"
        },
        {
            "name": "SAIEN COFFEE",
            "type": [
                "カフェ"
            ],
            "address": "盛岡市菜園1-6-21",
            "tel": "019-625-0005",
            "lat": "39.70132514",
            "lng": "141.14868976"
        },
        {
            "name": "和食料理・寿司　都",
            "type": [
                "和風",
                "寿司",
                "生そば"
            ],
            "address": "盛岡市西見前１８－１５０－１",
            "tel": "019-638-5000",
            "lat": "39.64870846",
            "lng": "141.16033795"
        },
        {
            "name": "さと",
            "type": [
                "和食"
            ],
            "address": "盛岡市内丸4-10",
            "tel": "019-681-3088",
            "lat": "39.70233067",
            "lng": "141.15242551"
        },
        {
            "name": "パブロカザルス都南店",
            "type": [
                "洋食",
                "喫茶"
            ],
            "address": "盛岡市津志田15-27-4",
            "tel": "019-638-3085",
            "lat": "39.65689088",
            "lng": "141.16049027"
        },
        {
            "name": "源喜屋盛岡店",
            "type": [
                "居酒屋"
            ],
            "address": "盛岡市大通３丁目４-１　クロステラス盛岡２階",
            "tel": "019-681-2711",
            "lat": "39.70311171",
            "lng": "141.14256944"
        },
        {
            "name": "初駒本店",
            "type": [
                "和食"
            ],
            "address": "盛岡市八幡町10-21",
            "tel": "019-651-7184",
            "lat": "39.69582601",
            "lng": "141.16185263"
        },
        {
            "name": "旬菜食健ひな野津志田店",
            "type": [
                "自然食ビュッフェレストラン"
            ],
            "address": "盛岡市津志田西二丁目16-70",
            "tel": "019-601-8123",
            "lat": "39.66298440",
            "lng": "141.14985205"
        },
        {
            "name": "ふらりむらさき　盛岡津志田店",
            "type": [
                "居酒屋"
            ],
            "address": "盛岡市津志田南3丁目13－3",
            "tel": "019-605-7270",
            "lat": "39.65739898",
            "lng": "141.15376589"
        },
        {
            "name": "ふらりむらさき　岩手盛岡みたけ店",
            "type": [
                "居酒屋"
            ],
            "address": "盛岡市みたけ3-35-20",
            "tel": "019-648-6266",
            "lat": "39.74081967",
            "lng": "141.11923025"
        },
        {
            "name": "遠野食肉センター盛岡木伏店",
            "type": [
                "遠野ジンギスカン",
                "生ラム"
            ],
            "address": "盛岡市盛岡駅前通11-11",
            "tel": "019-613-2917",
            "lat": "39.70286075",
            "lng": "141.13886286"
        },
        {
            "name": "盛岡月が丘食堂",
            "type": [
                "和食",
                "食堂"
            ],
            "address": "盛岡市月が丘３－４０－１８",
            "tel": "019-643-0011",
            "lat": "39.73912247",
            "lng": "141.10858663"
        },
        {
            "name": "岩洞湖レストハウス",
            "type": [
                "ラーメン",
                "そば",
                "うどん",
                "丼物",
                "ソフトクリーム"
            ],
            "address": "盛岡市薮川字外山24－12",
            "tel": "019-681-5039",
            "lat": "39.82801962",
            "lng": "141.36430761"
        },
        {
            "name": "comfort dining DADA",
            "type": [
                "フレンチ"
            ],
            "address": "盛岡市向中野7-18-1 2階",
            "tel": "019-601-6670",
            "lat": "39.67354135",
            "lng": "141.13833052"
        },
        {
            "name": "立呑えびすけ　盛岡フェザン店",
            "type": [
                "居酒屋"
            ],
            "address": "盛岡市盛岡駅前通1-44　フェザン地下1階",
            "tel": "019-654-8031",
            "lat": "39.70260787",
            "lng": "141.13564651"
        },
        {
            "name": "串焼だいにんぐえびすけ　菜園",
            "type": [
                "居酒屋"
            ],
            "address": "盛岡市菜園2-4-3　ヒロオリエントビル2F",
            "tel": "019-605-9009",
            "lat": "39.70208613",
            "lng": "141.14614829"
        },
        {
            "name": "駅前炭串屋とりぼん",
            "type": [
                "居酒屋"
            ],
            "address": "盛岡市盛岡駅前通8-14",
            "tel": "019-604-8718",
            "lat": "39.70186083",
            "lng": "141.13814351"
        },
        {
            "name": "駅前酒場　開運とん",
            "type": [
                "居酒屋"
            ],
            "address": "盛岡市盛岡駅前通10-5",
            "tel": "019-604-7220",
            "lat": "39.70240523",
            "lng": "141.13852402"
        },
        {
            "name": "ワインノエビスケ",
            "type": [
                "居酒屋"
            ],
            "address": "盛岡市盛岡駅前通10-6　マルカンペットビル1F",
            "tel": "019-601-8127",
            "lat": "39.70241911",
            "lng": "141.13834903"
        },
        {
            "name": "道とん堀盛岡本宮店",
            "type": [
                "お好み焼き"
            ],
            "address": "盛岡市本宮三丁目11-3",
            "tel": "019-635-5228",
            "lat": "39.69162837",
            "lng": "141.13369425"
        },
        {
            "name": "ステーキ・鉄板料理和かな盛岡本店",
            "type": [
                "ステーキ"
            ],
            "address": "盛岡市大沢川原1-3-33",
            "tel": "019-653-3333",
            "lat": "39.69989750",
            "lng": "141.14830372"
        },
        {
            "name": "道とん堀盛岡厨川店",
            "type": [
                "お好み焼き"
            ],
            "address": "盛岡市厨川三丁目13-11",
            "tel": "019-643-3380",
            "lat": "39.74744696",
            "lng": "141.13180953"
        },
        {
            "name": "菜園マイクロブルワリー with Kitchen",
            "type": [
                "ダイニングバー"
            ],
            "address": "盛岡市菜園１丁目５－１０　グリムハウス１F",
            "tel": "019-606-0171",
            "lat": "39.70171676",
            "lng": "141.14804258"
        },
        {
            "name": "ビッグボーイ盛岡津志田店",
            "type": [
                "ファミリーレストラン"
            ],
            "address": "盛岡市津志田町2丁目1-73",
            "tel": "019-632-3144",
            "lat": "39.66690921",
            "lng": "141.15705397"
        },
        {
            "name": "株式会社ベアレン醸造所",
            "type": [
                "ビール"
            ],
            "address": "盛岡市北山1丁目３－３１",
            "tel": "0120-934766",
            "lat": "39.71433474",
            "lng": "141.15432227"
        },
        {
            "name": "ビアパブベアレン材木町",
            "type": [
                "ビール"
            ],
            "address": "盛岡市材木町７－３１",
            "tel": "019-626-2771",
            "lat": "39.70698795",
            "lng": "141.13675462"
        },
        {
            "name": "ビアベースベアレン盛岡駅前",
            "type": [
                "ダイニングバー"
            ],
            "address": "盛岡市盛岡駅前通８－１１　盛岡駅前ビルB１F",
            "tel": "019-601-7110",
            "lat": "39.70180804",
            "lng": "141.13770467"
        },
        {
            "name": "ビッグボーイ盛岡みたけ店",
            "type": [
                "ファミリーレストラン"
            ],
            "address": "盛岡市みたけ4丁目1-1",
            "tel": "019-648-9300",
            "lat": "39.74079469",
            "lng": "141.12028017"
        },
        {
            "name": "アートホテル盛岡/カフェダイニングブローニュ",
            "type": [
                "洋食"
            ],
            "address": "盛岡市大通3-3-18",
            "tel": "019-626-9085",
            "lat": "39.70382189",
            "lng": "141.14246249"
        },
        {
            "name": "アートホテル盛岡/日本料理介寿荘",
            "type": [
                "和食"
            ],
            "address": "盛岡市大通3-3-18",
            "tel": "019-626-9086",
            "lat": "39.70382189",
            "lng": "141.14246249"
        },
        {
            "name": "アートホテル盛岡/中国料理豪華",
            "type": [
                "中華"
            ],
            "address": "盛岡市大通3-3-18",
            "tel": "019-626-9087",
            "lat": "39.70382189",
            "lng": "141.14246249"
        },
        {
            "name": "うまい一丸鮨　盛岡店",
            "type": [
                "鮨"
            ],
            "address": "盛岡市月が丘１-５-２０",
            "tel": "019-646-2900",
            "lat": "39.73014568",
            "lng": "141.10827031"
        },
        {
            "name": "浜焼酒場! 海王",
            "type": [
                "居酒屋",
                "魚介",
                "海鮮料理"
            ],
            "address": "盛岡市内丸4-19",
            "tel": "019-681-1558",
            "lat": "39.70184183",
            "lng": "141.15245885"
        },
        {
            "name": "食堂みよし",
            "type": [
                "お酒",
                "おつまみ",
                "ラーメン等"
            ],
            "address": "盛岡市繋字舘市82-9",
            "tel": "019-689-2444",
            "lat": "39.67511557",
            "lng": "141.02062115"
        },
        {
            "name": "そば処丸松　フェザン盛岡店",
            "type": [
                "そば"
            ],
            "address": "盛岡市盛岡駅前通り1-44",
            "tel": "019-601-5803",
            "lat": "39.70260787",
            "lng": "141.13564651"
        },
        {
            "name": "海王別館　貝ばか",
            "type": [
                "居酒屋",
                "魚介",
                "海鮮料理"
            ],
            "address": "盛岡市内丸4-1",
            "tel": "080-1846-8899",
            "lat": "39.70175572",
            "lng": "141.15238664"
        },
        {
            "name": "かに政宗　盛岡店",
            "type": [
                "和食"
            ],
            "address": "盛岡市北飯岡4-12-1",
            "tel": "019-639-2231",
            "lat": "39.66967495",
            "lng": "141.13426446"
        },
        {
            "name": "しだれ×うるし",
            "type": [
                "居酒屋"
            ],
            "address": "盛岡市大通2-3-7　CT33ビル5階",
            "tel": "019-658-9422",
            "lat": "39.70331378",
            "lng": "141.14649545"
        },
        {
            "name": "脱力　カイオウ",
            "type": [
                "居酒屋",
                "魚介",
                "海鮮料理"
            ],
            "address": "盛岡市大通二丁目4-22",
            "tel": "019-656-1202",
            "lat": "39.70358876",
            "lng": "141.14705928"
        },
        {
            "name": "鯉よし",
            "type": [
                "川魚",
                "山菜料理",
                "焼き鳥",
                "ラーメン等色々"
            ],
            "address": "盛岡市繋字舘市83-4",
            "tel": "019-689-2769",
            "lat": "39.67590715",
            "lng": "141.02024057"
        },
        {
            "name": "京都勝牛 盛岡内丸店",
            "type": [
                "和食（牛カツ）"
            ],
            "address": "盛岡市内丸6-15 Est.21ビル1F",
            "tel": "019-601-3568",
            "lat": "39.70239451",
            "lng": "141.15042013"
        },
        {
            "name": "オールドコーヒーの店 機屋",
            "type": [
                "コーヒー",
                "ケーキ"
            ],
            "address": "盛岡市本町通り3-2-11",
            "tel": "019-653-8833",
            "lat": "39.70655781",
            "lng": "141.14665647"
        },
        {
            "name": "4番目の珈琲店",
            "type": [
                "コーヒー",
                "ケーキ"
            ],
            "address": "盛岡市大通3-4-1",
            "tel": "019-601-8272",
            "lat": "39.70311171",
            "lng": "141.14256944"
        },
        {
            "name": "ろく屋どん八　イオンスーパーセンター盛岡渋民店",
            "type": [
                "海鮮丼",
                "うどん"
            ],
            "address": "盛岡市渋民字鶴飼20番地1",
            "tel": "019-669-5550",
            "lat": "39.84997540",
            "lng": "141.17280483"
        },
        {
            "name": "化粧屋＆カフェぷらす",
            "type": [
                "ご飯",
                "麺",
                "スイーツ"
            ],
            "address": "盛岡市大通二丁目8-14MOSSビル4F",
            "tel": "019-623-0777",
            "lat": "39.70256658",
            "lng": "141.14476786"
        },
        {
            "name": "北ホテル　窯",
            "type": [
                "和食"
            ],
            "address": "盛岡市内丸１７－４５",
            "tel": "019-625-2711",
            "lat": "39.70411380",
            "lng": "141.15330316"
        },
        {
            "name": "和風レストランまるまつ　盛岡西南店",
            "type": [
                "和食"
            ],
            "address": "盛岡市本宮7-3-51",
            "tel": "019-635-6121",
            "lat": "39.68486209",
            "lng": "141.12511198"
        },
        {
            "name": "カフェ＆デリカ　ピエロ",
            "type": [
                "洋食",
                "軽食",
                "甘味"
            ],
            "address": "盛岡市中ノ橋通１－５－２１",
            "tel": "019-656-0345",
            "lat": "39.69980876",
            "lng": "141.15544198"
        },
        {
            "name": "食道園",
            "type": [
                "焼肉"
            ],
            "address": "盛岡市大通り1-8-2",
            "tel": "019-651-4590",
            "lat": "39.70331659",
            "lng": "141.14814253"
        },
        {
            "name": "鎌倉パスタ イオンモール盛岡南店",
            "type": [
                "生パスタ"
            ],
            "address": "盛岡市本宮7丁目1番1号",
            "tel": "019-631-3179",
            "lat": "39.68366231",
            "lng": "141.12871723"
        },
        {
            "name": "酒居家　夢の蔵",
            "type": [
                "居酒屋"
            ],
            "address": "盛岡市青山3丁目23-10　青中ビル２階",
            "tel": "019-646-9070",
            "lat": "39.72898481",
            "lng": "141.11416712"
        },
        {
            "name": "肉の米内",
            "type": [
                "焼肉",
                "冷麺"
            ],
            "address": "盛岡市紺屋町５－１６",
            "tel": "019-624-2967",
            "lat": "39.70486100",
            "lng": "141.15686950"
        },
        {
            "name": "スシロー盛岡高松店",
            "type": [
                "寿司"
            ],
            "address": "盛岡市高松2-18-3",
            "tel": "019-661-1521",
            "lat": "39.72469672",
            "lng": "141.12955206"
        },
        {
            "name": "TAWARA",
            "type": [
                "洋食"
            ],
            "address": "盛岡市大通り1-5-18クレッセントビル2bc",
            "tel": "019-601-8010",
            "lat": "39.70219450",
            "lng": "141.14863418"
        },
        {
            "name": "相席屋盛岡映画館通り店",
            "type": [
                "お酒"
            ],
            "address": "盛岡市大通二丁目1番23号",
            "tel": "019-652-3666",
            "lat": "39.70243611",
            "lng": "141.14665657"
        },
        {
            "name": "コーヒーの店　響",
            "type": [
                "コーヒー",
                "軽食"
            ],
            "address": "盛岡市東緑が丘4－40",
            "tel": "019-613-3191",
            "lat": "39.73289052",
            "lng": "141.14722524"
        },
        {
            "name": "城華",
            "type": [
                "中華"
            ],
            "address": "盛岡市菜園1-4-1",
            "tel": "019-658-8960",
            "lat": "39.70137237",
            "lng": "141.14946746"
        },
        {
            "name": "新羅",
            "type": [
                "韓国料理",
                "焼き肉"
            ],
            "address": "盛岡市盛岡駅前北通4-15",
            "tel": "019-629-2337",
            "lat": "39.70397714",
            "lng": "141.13507431"
        },
        {
            "name": "豪めん盛岡南店",
            "type": [
                "ラーメン"
            ],
            "address": "盛岡市津志田町1-16-11",
            "tel": "019-907-3466",
            "lat": "39.66712019",
            "lng": "141.15359315"
        },
        {
            "name": "CAFE LAube 3号店",
            "type": [
                "ドリンク",
                "スイーツ"
            ],
            "address": "盛岡市盛岡駅前通り１１ー１１木伏緑地内",
            "tel": "0197-62-5650",
            "lat": "39.70286075",
            "lng": "141.13886286"
        },
        {
            "name": "ガスト 盛岡津志田店",
            "type": [
                "洋食",
                "和食"
            ],
            "address": "盛岡市津志田南３丁目１３－８",
            "tel": "019-614-0731",
            "lat": "39.65739620",
            "lng": "141.15331593"
        },
        {
            "name": "ガスト 盛岡大通店",
            "type": [
                "洋食",
                "和食"
            ],
            "address": "盛岡市大通３丁目１－２３",
            "tel": "019-606-5531",
            "lat": "39.70329147",
            "lng": "141.14422622"
        },
        {
            "name": "ガスト 盛岡西バイパス店",
            "type": [
                "洋食",
                "和食"
            ],
            "address": "盛岡市本宮４丁目３３－１３",
            "tel": "019-656-4156",
            "lat": "39.68527898",
            "lng": "141.13372780"
        },
        {
            "name": "ガスト 盛岡上堂店",
            "type": [
                "洋食",
                "和食"
            ],
            "address": "盛岡市上堂４丁目１３－１０",
            "tel": "019-648-3117",
            "lat": "39.72910717",
            "lng": "141.12249423"
        },
        {
            "name": "しゃぶ葉 盛岡上堂店",
            "type": [
                "鍋"
            ],
            "address": "盛岡市上堂４丁目１３－１３",
            "tel": "019-641-7800",
            "lat": "39.72874609",
            "lng": "141.12185541"
        },
        {
            "name": "海ごはん　しまか",
            "type": [
                "海鮮料理"
            ],
            "address": "盛岡市中央通1－11－15マルビル1階、2階",
            "tel": "019-652-9128",
            "lat": "39.70442476",
            "lng": "141.14723147"
        },
        {
            "name": "そば屋 深心",
            "type": [
                "蕎麦"
            ],
            "address": "盛岡市肴町4-24",
            "tel": "019-652-6909",
            "lat": "39.69881441",
            "lng": "141.15473096"
        },
        {
            "name": "旬香彩和久",
            "type": [
                "和食"
            ],
            "address": "盛岡市大通二丁目7-27和久ビル三階",
            "tel": "019-652-0917",
            "lat": "39.70302769",
            "lng": "141.14597884"
        },
        {
            "name": "釜石ごん太 みたけ店",
            "type": [
                "寿司"
            ],
            "address": "盛岡市みたけ５丁目17-30",
            "tel": "019-641-9330",
            "lat": "39.74282773",
            "lng": "141.11526379"
        },
        {
            "name": "もりおか炭火居酒屋　原価市場",
            "type": [
                "焼肉"
            ],
            "address": "盛岡市大通2丁目7-19 白崎ビル2F",
            "tel": "019-601-9700",
            "lat": "39.70320818",
            "lng": "141.14510947"
        },
        {
            "name": "どさん子　まつぞの店",
            "type": [
                "ラーメン",
                "定食類"
            ],
            "address": "盛岡市東松園3丁目28-3",
            "tel": "019-662-7110",
            "lat": "39.75855776",
            "lng": "141.16604758"
        },
        {
            "name": "タイガー餃子会館　イオンモール盛岡",
            "type": [
                "中華料理"
            ],
            "address": "盛岡市前潟4-7-1 イオンモール盛岡1F",
            "tel": "019-605-2766",
            "lat": "39.71156124",
            "lng": "141.09866601"
        },
        {
            "name": "ナガハマコーヒー盛岡駅西口店",
            "type": [
                "コーヒー",
                "パスタ"
            ],
            "address": "盛岡市盛岡駅西通2-10-25ﾕﾆｿﾞｲﾝｴｸｽﾌﾟﾚｽ盛岡2階",
            "tel": "019-601-3444",
            "lat": "39.70003579",
            "lng": "141.13221080"
        },
        {
            "name": "レストランジーグリート",
            "type": [
                "洋食"
            ],
            "address": "盛岡市盛岡駅西通二丁目9-1",
            "tel": "019-681-1990",
            "lat": "39.70116350",
            "lng": "141.13351620"
        },
        {
            "name": "しゃぶしゃぶ温野菜盛岡南店",
            "type": [
                "しゃぶしゃぶ"
            ],
            "address": "盛岡市向中野5-28-8",
            "tel": "019-613-5729",
            "lat": "39.67684115",
            "lng": "141.14248552"
        },
        {
            "name": "８０１～HAWAII～",
            "type": [
                "ハワイアン料理とお酒"
            ],
            "address": "盛岡市菜園１丁目１－２４",
            "tel": "080-6024-1619",
            "lat": "39.70022803",
            "lng": "141.14900365"
        },
        {
            "name": "無尽蔵もりおか家",
            "type": [
                "ラーメン"
            ],
            "address": "盛岡市本宮7丁目1-1　イオンモール盛岡南　1階",
            "tel": "019-631-3158",
            "lat": "39.68366231",
            "lng": "141.12871723"
        },
        {
            "name": "回転寿司　すし江戸　盛岡南店",
            "type": [
                "寿司"
            ],
            "address": "盛岡市向中野7-15-35",
            "tel": "019-681-1719",
            "lat": "39.67386908",
            "lng": "141.13770558"
        },
        {
            "name": "やきとり王様",
            "type": [
                "やきとり店"
            ],
            "address": "盛岡市本町通2丁目9-16",
            "tel": "019-651-7211",
            "lat": "39.70811877",
            "lng": "141.14920621"
        },
        {
            "name": "とんかつ熊さん",
            "type": [
                "とんかつ",
                "ラーメン"
            ],
            "address": "盛岡市本宮五丁目1-11",
            "tel": "019-659-3313",
            "lat": "39.69208910",
            "lng": "141.12320912"
        },
        {
            "name": "カジュアルイタリアン　otto",
            "type": [
                "洋食"
            ],
            "address": "盛岡市大通二丁目8-35",
            "tel": "019-651-8878",
            "lat": "39.70278049",
            "lng": "141.14593440"
        },
        {
            "name": "輝てるBOUZ",
            "type": [
                "鉄板焼",
                "ステーキ",
                "ワイン"
            ],
            "address": "盛岡市大通2丁目1-4 サイセリアビル2F-E号室",
            "tel": "019-613-5480",
            "lat": "39.70251942",
            "lng": "141.14631215"
        },
        {
            "name": "盛岡居酒屋　遊食屋ＦＵＪＩ",
            "type": [
                "居酒屋",
                "焼き冷麺",
                "冷麺",
                "ラーメン",
                "焼鳥"
            ],
            "address": "盛岡市大通2丁目4-16盛岡藤原屋ビル2階",
            "tel": "0120-52-4833",
            "lat": "39.70377484",
            "lng": "141.14687318"
        },
        {
            "name": "muramatsuri",
            "type": [
                "ビストロ",
                "ステーキ",
                "ワイン"
            ],
            "address": "盛岡市大通一丁目５－３",
            "tel": "019-651-0266",
            "lat": "39.70202785",
            "lng": "141.14874806"
        },
        {
            "name": "大衆酒場八兵衛",
            "type": [
                "居酒屋"
            ],
            "address": "盛岡市大通一丁目11-20",
            "tel": "019-624-2402",
            "lat": "39.70241946",
            "lng": "141.14769814"
        },
        {
            "name": "ばっちょう",
            "type": [
                "馬肉"
            ],
            "address": "盛岡市菜園2丁目４－２３－３F",
            "tel": "019-625-2620",
            "lat": "39.70188338",
            "lng": "141.14660659"
        },
        {
            "name": "盛岡じゃじゃ麺ちーたん",
            "type": [
                "盛岡じゃじゃ麺"
            ],
            "address": "盛岡市上太田痩野71-1",
            "tel": "019-656-2338",
            "lat": "39.69311008",
            "lng": "141.08773965"
        },
        {
            "name": "岩手の居酒屋　うま舎",
            "type": [
                "居酒屋"
            ],
            "address": "盛岡市盛岡駅前通15番6号",
            "tel": "019-653-9733",
            "lat": "39.70294120",
            "lng": "141.13631310"
        },
        {
            "name": "盛岡グランドホテル　モダンフレンチ　グランヴヌール",
            "type": [
                "フレンチ",
                "洋食"
            ],
            "address": "盛岡市愛宕下1-10",
            "tel": "019-625-2111",
            "lat": "39.71209632",
            "lng": "141.16127170"
        },
        {
            "name": "きのえね本店",
            "type": [
                "そば",
                "和食"
            ],
            "address": "盛岡市大通り1丁目9-2",
            "tel": "019-624-2854",
            "lat": "39.70295275",
            "lng": "141.14804810"
        },
        {
            "name": "岩手の居酒屋　じょ居",
            "type": [
                "居酒屋"
            ],
            "address": "盛岡市盛岡駅前通10－6",
            "tel": "019-625-6665",
            "lat": "39.70241911",
            "lng": "141.13834903"
        },
        {
            "name": "和酒バルなはん",
            "type": [
                "居酒屋"
            ],
            "address": "盛岡市盛岡駅前通9－7",
            "tel": "019-623-1275",
            "lat": "39.70217466",
            "lng": "141.13756856"
        },
        {
            "name": "牛たん炭焼利久 イオンモール盛岡店",
            "type": [
                "牛たん料理"
            ],
            "address": "盛岡市前潟4-7-1イオンモール盛岡",
            "tel": "019-601-6650",
            "lat": "39.71156124",
            "lng": "141.09866601"
        },
        {
            "name": "カレーハウスCoCo壱番屋盛岡津志田店",
            "type": [
                "カレー",
                "サラダ",
                "ドリンク"
            ],
            "address": "盛岡市三本柳５地割29-32",
            "tel": "019-638-9788",
            "lat": "39.65892406",
            "lng": "141.16275661"
        },
        {
            "name": "カレーハウスCoCo壱番屋盛岡インター店",
            "type": [
                "カレー",
                "サラダ",
                "ドリンク"
            ],
            "address": "盛岡市前潟市２丁目3-7",
            "tel": "019-648-9030",
            "lat": "39.71130599",
            "lng": "141.10729870"
        },
        {
            "name": "ホルモン幸楽　盛岡店",
            "type": [
                "ホルモン焼"
            ],
            "address": "盛岡市南大通一丁目5-1",
            "tel": "019-626-3989",
            "lat": "39.69813952",
            "lng": "141.15646693"
        },
        {
            "name": "カレーハウスCoCo壱番屋盛岡大通店",
            "type": [
                "カレー",
                "ドリンク",
                "サラダ"
            ],
            "address": "盛岡市大通３丁目2-3　ビル１階",
            "tel": "019-604-2277",
            "lat": "39.70365532",
            "lng": "141.14429010"
        },
        {
            "name": "808盛岡桜山",
            "type": [
                "和食"
            ],
            "address": "盛岡市内丸4－14",
            "tel": "019-656-6708",
            "lat": "39.70223623",
            "lng": "141.15245606"
        },
        {
            "name": "Huddle Huddle",
            "type": [
                "洋食"
            ],
            "address": "盛岡市菜園一丁目5－25リデル3階301",
            "tel": "019-681-3141",
            "lat": "39.70148902",
            "lng": "141.14869808"
        },
        {
            "name": "なんぶの郷",
            "type": [
                "和食"
            ],
            "address": "盛岡市南仙北1丁目23-3",
            "tel": "019-635-1376",
            "lat": "39.67746093",
            "lng": "141.15518151"
        },
        {
            "name": "ジョディ",
            "type": [
                "洋食",
                "カクテル"
            ],
            "address": "盛岡市菜園二丁目3-22",
            "tel": "019-651-8108",
            "lat": "39.70163895",
            "lng": "141.14618164"
        },
        {
            "name": "焼肉・冷麺　盛楼閣　（※　11月2日から利用可能）",
            "type": [
                "焼肉",
                "冷麺"
            ],
            "address": "盛岡市盛岡駅前通１５番５号",
            "tel": "019-654-8752",
            "lat": "39.70284122",
            "lng": "141.13651586"
        },
        {
            "name": "やみつきホルモン利久 盛岡大通店",
            "type": [
                "焼肉"
            ],
            "address": "盛岡市大通1-10-21 PIVOT盛岡大通ビルⅡ101",
            "tel": "019-613-2929",
            "lat": "39.70260278",
            "lng": "141.14806755"
        },
        {
            "name": "かんながら盛岡店",
            "type": [
                "和食"
            ],
            "address": "盛岡市前潟4-7-1イオンモール盛岡",
            "tel": "019-648-2008",
            "lat": "39.71156124",
            "lng": "141.09866601"
        },
        {
            "name": "九州酒場 〇九",
            "type": [
                "和食居酒屋"
            ],
            "address": "九州酒場 〇九",
            "tel": "019-613-4626",
            "lat": "39.701372",
            "lng": "141.149468"
        },
        {
            "name": "ビアレストランアリーブ盛岡店",
            "type": [
                "ピザ",
                "パスタ"
            ],
            "address": "盛岡市大通３－３－１８　アートホテル盛岡Ｂ１Ｆ",
            "tel": "019-621-4055",
            "lat": "39.70382189",
            "lng": "141.14246249"
        },
        {
            "name": "フレスキッシマ",
            "type": [
                "パスタ"
            ],
            "address": "盛岡市盛岡駅前通１－４４　フェザン本館Ｂ１Ｆ",
            "tel": "019-629-2235",
            "lat": "39.70260787",
            "lng": "141.13564651"
        },
        {
            "name": "かつ壱上堂店",
            "type": [
                "とんかつ店"
            ],
            "address": "盛岡市上堂4丁目13-15",
            "tel": "019-641-0056",
            "lat": "39.72822948",
            "lng": "141.12219428"
        },
        {
            "name": "いわて串酒場 サカリバ",
            "type": [
                "居酒屋"
            ],
            "address": "盛岡市盛岡駅前通11-11 木伏緑地内",
            "tel": "019-656-7277",
            "lat": "39.70286075",
            "lng": "141.13886286"
        },
        {
            "name": "天虎パーキング",
            "type": [
                "天ぷら"
            ],
            "address": "盛岡市菜園2-3-22 プラザバンベールビル1F",
            "tel": "019-601-2815",
            "lat": "39.70163895",
            "lng": "141.14618164"
        },
        {
            "name": "大衆酒場ダコッタ",
            "type": [
                "イタリアン"
            ],
            "address": "盛岡市菜園2-3-22 プラザバンベールビル2F",
            "tel": "019-653-3338",
            "lat": "39.70163895",
            "lng": "141.14618164"
        },
        {
            "name": "吉田屋",
            "type": [
                "中華そば"
            ],
            "address": "盛岡市内丸4-10",
            "tel": "019-622-9598",
            "lat": "39.70233067",
            "lng": "141.15242551"
        },
        {
            "name": "ステーキ宮　盛岡南店",
            "type": [
                "ステーキ"
            ],
            "address": "盛岡市向中野７丁目17番40号",
            "tel": "019-601-8181",
            "lat": "39.67273857",
            "lng": "141.13540865"
        },
        {
            "name": "故郷食堂　本店",
            "type": [
                "麺類",
                "定食"
            ],
            "address": "盛岡市みたけ4-21-21",
            "tel": "019-641-5211",
            "lat": "39.74546644",
            "lng": "141.12206598"
        },
        {
            "name": "回転鮨　清次郎　フェザン店",
            "type": [
                "寿司"
            ],
            "address": "盛岡市駅前通1-44",
            "tel": "019-654-8015",
            "lat": "39.70186410",
            "lng": "141.15451150"
        },
        {
            "name": "回転鮨　清次郎　盛岡津志田本店",
            "type": [
                "寿司"
            ],
            "address": "盛岡市津志田２丁目1-60",
            "tel": "019-639-2815",
            "lat": "39.65689088",
            "lng": "141.16049027"
        },
        {
            "name": "寧々家 盛岡北大橋店",
            "type": [
                "居酒屋"
            ],
            "address": "盛岡市高松二丁目18番69号",
            "tel": "019-665-2422",
            "lat": "39.72431344",
            "lng": "141.12989648"
        },
        {
            "name": "日本料理　鮨　いちのまる",
            "type": [
                "和食",
                "寿司"
            ],
            "address": "盛岡市本町通２－１０－１１",
            "tel": "019-623-8710",
            "lat": "39.70734664",
            "lng": "141.14908957"
        },
        {
            "name": "いろはにほへと 盛岡駅前店",
            "type": [
                "居酒屋"
            ],
            "address": "盛岡市盛岡駅前通9－2ステ-ションサイド甚2F",
            "tel": "019-654-2455",
            "lat": "39.70232189",
            "lng": "141.13801851"
        },
        {
            "name": "肴町酒場",
            "type": [
                "食堂",
                "居酒屋"
            ],
            "address": "盛岡市中ノ橋通１丁目６－７　２F",
            "tel": "019-681-8575",
            "lat": "39.69980322",
            "lng": "141.15596971"
        },
        {
            "name": "やきとり　とみふく",
            "type": [
                "やきとり"
            ],
            "address": "盛岡市盛岡駅前通10-2　MORI BLDG.1F",
            "tel": "019-656-1329",
            "lat": "39.70239691",
            "lng": "141.13884343"
        },
        {
            "name": "盛岡グランドホテル　日本料理　かきつばた",
            "type": [
                "和食"
            ],
            "address": "盛岡市愛宕下1-10",
            "tel": "019-625-2111",
            "lat": "39.71209632",
            "lng": "141.16127170"
        },
        {
            "name": "ＣＯＰＩＮ盛岡南",
            "type": [
                "パスタ",
                "ピッツァ"
            ],
            "address": "盛岡市本宮７丁目１－１",
            "tel": "019-631-3460",
            "lat": "39.68366231",
            "lng": "141.12871723"
        },
        {
            "name": "肉のヤマキ商店 イオンモール盛岡南店",
            "type": [
                "焼肉丼"
            ],
            "address": "盛岡市本宮７丁目１－１",
            "tel": "080-2479-5456",
            "lat": "39.68366231",
            "lng": "141.12871723"
        },
        {
            "name": "とんかつ和幸 イオンモール盛岡南店",
            "type": [
                "とんかつ"
            ],
            "address": "盛岡市本宮７丁目１－１",
            "tel": "019-631-3068",
            "lat": "39.68366231",
            "lng": "141.12871723"
        },
        {
            "name": "一汁五穀 盛岡南店",
            "type": [
                "和食"
            ],
            "address": "盛岡市本宮７丁目１－１",
            "tel": "019-656-6288",
            "lat": "39.68366231",
            "lng": "141.12871723"
        },
        {
            "name": "スターバックスコーヒー イオンモール盛岡南店",
            "type": [
                "コーヒー",
                "ケーキ等"
            ],
            "address": "盛岡市本宮７丁目１－１",
            "tel": "019-631-3108",
            "lat": "39.68366231",
            "lng": "141.12871723"
        },
        {
            "name": "サンマルクカフェ イオンモール盛岡南店",
            "type": [
                "カフェ"
            ],
            "address": "盛岡市本宮７丁目１－１",
            "tel": "019-631-3384",
            "lat": "39.68366231",
            "lng": "141.12871723"
        },
        {
            "name": "グランブッフェ",
            "type": [
                "食べ放題"
            ],
            "address": "盛岡市本宮７丁目１－１",
            "tel": "090-2365-6881",
            "lat": "39.68366231",
            "lng": "141.12871723"
        },
        {
            "name": "宮崎ステーキハウス霧峰",
            "type": [
                "ステーキ"
            ],
            "address": "盛岡市本宮７丁目１－１",
            "tel": "019-681-7701",
            "lat": "39.68366231",
            "lng": "141.12871723"
        },
        {
            "name": "お茶の井ヶ田 庵喜久水庵 盛岡南店",
            "type": [
                "ソフトクリーム",
                "ドリンク"
            ],
            "address": "盛岡市本宮７丁目１－１",
            "tel": "019-631-3264",
            "lat": "39.68366231",
            "lng": "141.12871723"
        },
        {
            "name": "ケンタッキーフライドチキン イオンモール盛岡南店",
            "type": [
                "ファストフード"
            ],
            "address": "盛岡市本宮７丁目１－１",
            "tel": "019-656-4022",
            "lat": "39.68366231",
            "lng": "141.12871723"
        },
        {
            "name": "らあめん花月嵐",
            "type": [
                "ラーメン"
            ],
            "address": "盛岡市本宮７丁目１－１",
            "tel": "019-631-3766",
            "lat": "39.68366231",
            "lng": "141.12871723"
        },
        {
            "name": "龍鳳閣",
            "type": [
                "中華料理"
            ],
            "address": "盛岡市本宮７丁目１－１",
            "tel": "019-631-3159",
            "lat": "39.68366231",
            "lng": "141.12871723"
        },
        {
            "name": "すき家 イオンモール盛岡南店",
            "type": [
                "牛丼",
                "カレー"
            ],
            "address": "盛岡市本宮７丁目１－１",
            "tel": "050-3772-1552",
            "lat": "39.68366231",
            "lng": "141.12871723"
        },
        {
            "name": "果汁工房果琳 イオンモール盛岡南",
            "type": [
                "フルーツジュース"
            ],
            "address": "盛岡市本宮７丁目１－１",
            "tel": "019-631-3376",
            "lat": "39.68366231",
            "lng": "141.12871723"
        },
        {
            "name": "ミスタードーナツ イオンモール盛岡南",
            "type": [
                "ドーナツ"
            ],
            "address": "盛岡市本宮７丁目１－１",
            "tel": "019-631-3134",
            "lat": "39.68366231",
            "lng": "141.12871723"
        },
        {
            "name": "リンガーハット",
            "type": [
                "長崎ちゃんぽん"
            ],
            "address": "盛岡市本宮７丁目１－１",
            "tel": "080-3154-1946",
            "lat": "39.68366231",
            "lng": "141.12871723"
        },
        {
            "name": "イオンモール盛岡南 ゴディバ",
            "type": [
                "ショコリキサー",
                "ソフトクリーム"
            ],
            "address": "盛岡市本宮７丁目１－１",
            "tel": "019-613-5477",
            "lat": "39.68366231",
            "lng": "141.12871723"
        },
        {
            "name": "大戸屋 イオンモール盛岡南店",
            "type": [
                "和食"
            ],
            "address": "盛岡市本宮７丁目１－１",
            "tel": "019-613-2560",
            "lat": "39.68366231",
            "lng": "141.12871723"
        },
        {
            "name": "すし清次郎 イオンモール盛岡南店",
            "type": [
                "寿司"
            ],
            "address": "盛岡市本宮７丁目１－１",
            "tel": "019-656-6555",
            "lat": "39.68366231",
            "lng": "141.12871723"
        },
        {
            "name": "はなまるうどん",
            "type": [
                "うどん"
            ],
            "address": "盛岡市本宮７丁目１－１",
            "tel": "019-631-2878",
            "lat": "39.68366231",
            "lng": "141.12871723"
        },
        {
            "name": "築地銀だこ",
            "type": [
                "たこやき"
            ],
            "address": "盛岡市本宮７丁目１－１",
            "tel": "080-1824-5222",
            "lat": "39.68366231",
            "lng": "141.12871723"
        },
        {
            "name": "しゃぶしゃぶ美山イオンモール盛岡店",
            "type": [
                "しゃぶしゃぶ"
            ],
            "address": "盛岡市前潟4-7-1",
            "tel": "019-613-9884",
            "lat": "39.71156124",
            "lng": "141.09866601"
        },
        {
            "name": "むら八　上田店",
            "type": [
                "とんかつ"
            ],
            "address": "盛岡市上田4丁目21-31",
            "tel": "019-652-5108",
            "lat": "39.72132231",
            "lng": "141.13736811"
        },
        {
            "name": "シェムラブルリス",
            "type": [
                "フレンチレストラン"
            ],
            "address": "盛岡市神明町10-10",
            "tel": "019-601-5205",
            "lat": "39.70024213",
            "lng": "141.15911942"
        },
        {
            "name": "星乃珈琲イオンモール盛岡店",
            "type": [
                "コーヒー"
            ],
            "address": "盛岡市前潟4-7-1",
            "tel": "019-907-5622",
            "lat": "39.71156124",
            "lng": "141.09866601"
        },
        {
            "name": "ドトールコーヒーショップイオンモール盛岡店",
            "type": [
                "コーヒー"
            ],
            "address": "盛岡市前潟4-7-1",
            "tel": "019-605-3859",
            "lat": "39.71156124",
            "lng": "141.09866601"
        },
        {
            "name": "つるさくイオンモール盛岡店",
            "type": [
                "うどん"
            ],
            "address": "盛岡市前潟4-7-1",
            "tel": "019-605-3853",
            "lat": "39.71156124",
            "lng": "141.09866601"
        },
        {
            "name": "ALLYS　NEW　YORK",
            "type": [
                "洋食"
            ],
            "address": "盛岡市前潟4-7-1",
            "tel": "019-605-2767",
            "lat": "39.71156124",
            "lng": "141.09866601"
        },
        {
            "name": "焼豚屋福麦亭盛岡店",
            "type": [
                "ラーメン"
            ],
            "address": "盛岡市前潟4-7-1",
            "tel": "019-648-2772",
            "lat": "39.71156124",
            "lng": "141.09866601"
        },
        {
            "name": "さくらブルワリー盛岡",
            "type": [
                "居酒屋",
                "クラフトビール",
                "洋食"
            ],
            "address": "盛岡市菜園一丁目11番23号 2F",
            "tel": "019-613-8485",
            "lat": "39.70149733",
            "lng": "141.14766206"
        },
        {
            "name": "やまなか屋　盛岡大通店",
            "type": [
                "焼肉"
            ],
            "address": "盛岡市開運橋通1-36 ｺﾏﾂﾋﾞﾙ2F",
            "tel": "019-626-2660",
            "lat": "39.70250267",
            "lng": "141.14418736"
        },
        {
            "name": "戦国焼鳥秀吉　大通店",
            "type": [
                "焼き鳥"
            ],
            "address": "盛岡市大通2-5-5",
            "tel": "019-623-2131",
            "lat": "39.70379703",
            "lng": "141.14587328"
        },
        {
            "name": "創菜酒家　藤吉郎",
            "type": [
                "居酒屋"
            ],
            "address": "盛岡市永井22地割3-150",
            "tel": "019-637-4634",
            "lat": "39.65482427",
            "lng": "141.15421876"
        },
        {
            "name": "優遊",
            "type": [
                "和食",
                "洋食"
            ],
            "address": "盛岡市内丸17-40",
            "tel": "019-651-2704",
            "lat": "39.70433878",
            "lng": "141.15367812"
        },
        {
            "name": "四季徒然　茶々",
            "type": [
                "和食"
            ],
            "address": "盛岡市開運橋通1-34",
            "tel": "019-681-6672",
            "lat": "39.70268877",
            "lng": "141.14430123"
        },
        {
            "name": "むら八　フェザン店",
            "type": [
                "とんかつ"
            ],
            "address": "盛岡市盛岡駅前通1-44 ﾌｪｻﾞﾝB1F",
            "tel": "019-654-7822",
            "lat": "39.70260787",
            "lng": "141.13564651"
        },
        {
            "name": "磯乃",
            "type": [
                "和食"
            ],
            "address": "盛岡市盛岡駅前通1-44",
            "tel": "019-681-1277",
            "lat": "39.70260787",
            "lng": "141.13564651"
        },
        {
            "name": "焼肉きんぐ盛岡盛南店",
            "type": [
                "焼肉"
            ],
            "address": "盛岡市本宮7-2-5",
            "tel": "019-656-5371",
            "lat": "39.68454826",
            "lng": "141.12606745"
        },
        {
            "name": "ビストロフレンチ　ブラン",
            "type": [
                "洋食"
            ],
            "address": "盛岡市内丸17-38 杜陵ﾋﾞﾙ102",
            "tel": "019-658-8338",
            "lat": "39.70450821",
            "lng": "141.15381144"
        },
        {
            "name": "cafe micasa/カフェミカサ",
            "type": [
                "ランチ",
                "カフェ",
                "洋食",
                "和食"
            ],
            "address": "盛岡市菜園一丁目11番23号 2F",
            "tel": "019-613-8485",
            "lat": "39.70149733",
            "lng": "141.14766206"
        },
        {
            "name": "南部の子だぬき",
            "type": [
                "居酒屋"
            ],
            "address": "盛岡市大通3丁目2-6 KCﾋﾞﾙ2階",
            "tel": "019-613-1333",
            "lat": "39.70378584",
            "lng": "141.14400957"
        },
        {
            "name": "kodaごっち",
            "type": [
                "居酒屋"
            ],
            "address": "盛岡市大通2丁目7-20 ｳｴﾀﾞﾋﾞﾙ1階",
            "tel": "019-613-6331",
            "lat": "39.70320819",
            "lng": "141.14534556"
        },
        {
            "name": "やまなか家　盛南店",
            "type": [
                "焼肉"
            ],
            "address": "盛岡市向中野2丁目22-48",
            "tel": "019-631-3232",
            "lat": "39.68398195",
            "lng": "141.13594707"
        },
        {
            "name": "ガンゲット",
            "type": [
                "洋食"
            ],
            "address": "盛岡市青山3-22-11 1F",
            "tel": "019-681-0780",
            "lat": "39.72877650",
            "lng": "141.11412825"
        },
        {
            "name": "鮨懐石重兵衛",
            "type": [
                "寿司",
                "和食"
            ],
            "address": "盛岡市長田町14-2",
            "tel": "019-654-5235",
            "lat": "39.70819630",
            "lng": "141.14143471"
        },
        {
            "name": "Bistro-Rassembler",
            "type": [
                "洋食"
            ],
            "address": "盛岡市菜園1丁目5-9SK6ﾋﾞﾙB1F",
            "tel": "019-618-0434",
            "lat": "39.70159177",
            "lng": "141.14800647"
        },
        {
            "name": "ワインとアテ　くま牧場",
            "type": [
                "イタリア料理",
                "ワイン"
            ],
            "address": "盛岡市菜園一丁目5-25ﾘﾃﾞﾙ盛岡201",
            "tel": "019-625-7339",
            "lat": "39.70148902",
            "lng": "141.14869808"
        },
        {
            "name": "酒すこぶる黄金魚",
            "type": [
                "居酒屋"
            ],
            "address": "盛岡市南大通1-1-20",
            "tel": "019-623-0888",
            "lat": "39.69864502",
            "lng": "141.15661691"
        },
        {
            "name": "じゃじゃめん家　羽琉",
            "type": [
                "うどん(じゃじゃめん)"
            ],
            "address": "盛岡市中央通り1丁目11-21ﾏﾙﾋﾞﾙ1F 106",
            "tel": "080-1304-7672",
            "lat": "39.70422757",
            "lng": "141.14732313"
        },
        {
            "name": "刺し身居酒屋　将",
            "type": [
                "居酒屋"
            ],
            "address": "盛岡市青山3-29-2",
            "tel": "019-643-2633",
            "lat": "39.72713222",
            "lng": "141.11301450"
        },
        {
            "name": "地産地消居酒家たこ",
            "type": [
                "居酒屋"
            ],
            "address": "盛岡市中央通1丁目10-3",
            "tel": "019-658-8900",
            "lat": "39.70389427",
            "lng": "141.14705927"
        },
        {
            "name": "大衆居酒屋　ヤマヤ",
            "type": [
                "居酒屋"
            ],
            "address": "盛岡市大通2-7-26",
            "tel": "019-622-8808",
            "lat": "39.70310545",
            "lng": "141.14586496"
        },
        {
            "name": "肉バルサンダー盛岡店",
            "type": [
                "肉",
                "ピザ",
                "パスタ",
                "ラクレット",
                "肉バル"
            ],
            "address": "盛岡市大通二丁目3-7 CT33ﾋﾞﾙ1F",
            "tel": "019-681-6720",
            "lat": "39.70331378",
            "lng": "141.14649545"
        },
        {
            "name": "喫茶　ふかくさ",
            "type": [
                "コーヒー",
                "ココア",
                "ケーキセット"
            ],
            "address": "盛岡市紺屋町1-2",
            "tel": "019-622-2353",
            "lat": "39.70121139",
            "lng": "141.15508086"
        },
        {
            "name": "盛岡BARU　GOTTSU",
            "type": [
                "洋食"
            ],
            "address": "盛岡市盛岡駅前通15-25",
            "tel": "019-623-7009",
            "lat": "39.70380772",
            "lng": "141.13539928"
        },
        {
            "name": "grilled meat NAGAMOTO（グリルド　ミート　ナガモト）",
            "type": [
                "焼肉"
            ],
            "address": "盛岡市みたけ4丁目24-21",
            "tel": "019-641-7281",
            "lat": "39.74486931",
            "lng": "141.12354921"
        },
        {
            "name": "花水木カフェ本店",
            "type": [
                "カフェ",
                "フレンチトースト",
                "コーヒー等"
            ],
            "address": "盛岡市緑ヶ丘2丁目12番60号",
            "tel": "019-681-9287",
            "lat": "39.73493736",
            "lng": "141.13934536"
        },
        {
            "name": "盛の食卓・おでって食堂",
            "type": [
                "ランチ",
                "定食",
                "ハンバーグ",
                "宴会",
                "酒類"
            ],
            "address": "盛岡市中ﾉ橋通1丁目1-10 ﾌﾟﾗｻﾞおでって 1階",
            "tel": "019-613-5877",
            "lat": "39.70006983",
            "lng": "141.15467537"
        },
        {
            "name": "じゃじゃめん家　羽琉　上田本店",
            "type": [
                "うどん(じゃじゃめん)"
            ],
            "address": "盛岡市上田4-4-4",
            "tel": "019-619-0228",
            "lat": "39.72069457",
            "lng": "141.13560439"
        },
        {
            "name": "酒肴　晶",
            "type": [
                "和食"
            ],
            "address": "盛岡市内丸5-4",
            "tel": "019-656-6679",
            "lat": "39.70211679",
            "lng": "141.15173113"
        },
        {
            "name": "やまなか家　上田バイパス店",
            "type": [
                "焼肉"
            ],
            "address": "盛岡市高松2丁目13-1",
            "tel": "019-661-8900",
            "lat": "39.72334700",
            "lng": "141.13465442"
        },
        {
            "name": "旬の一　Bon",
            "type": [
                "ダイニングバー"
            ],
            "address": "盛岡市菜園1丁目5-25 ｿﾃﾞﾙﾓﾘｵｶ2F",
            "tel": "019-613-4850",
            "lat": "39.70148902",
            "lng": "141.14869808"
        },
        {
            "name": "BRASSERIE Bord de mer",
            "type": [
                "カジュアルフレンチ"
            ],
            "address": "盛岡市菜園1-11-17小笠原ﾋﾞﾙ1F",
            "tel": "019-601-6702",
            "lat": "39.70142788",
            "lng": "141.14704268"
        },
        {
            "name": "庄や　盛岡大通店",
            "type": [
                "居酒屋"
            ],
            "address": "盛岡市大通2-7-23 M&M2;ﾋﾞﾙ1･2階",
            "tel": "019-625-7301",
            "lat": "39.70315821",
            "lng": "141.14558998"
        },
        {
            "name": "鶏ダイニング惣吉",
            "type": [
                "和食"
            ],
            "address": "盛岡市菜園1-11-15佐々木ﾋﾞﾙ1F",
            "tel": "019-625-8939",
            "lat": "39.70158620",
            "lng": "141.14705378"
        },
        {
            "name": "薄利多売半兵ヱ　盛岡店",
            "type": [
                "居酒屋"
            ],
            "address": "盛岡市大通り2丁目7-20 ｳｴﾀﾞﾋﾞﾙ 2F",
            "tel": "019-681-7755",
            "lat": "39.70320819",
            "lng": "141.14534556"
        },
        {
            "name": "steak & grill MARU3",
            "type": [
                "ステーキ"
            ],
            "address": "盛岡市肴町10‐10",
            "tel": "019-656-8003",
            "lat": "39.69653963",
            "lng": "141.15400609"
        },
        {
            "name": "東北カフェ&バル　トレジオン",
            "type": [
                "和洋折衷"
            ],
            "address": "盛岡市盛岡駅前通11-11 木伏緑地内",
            "tel": "019-613-3570",
            "lat": "39.70286075",
            "lng": "141.13886286"
        },
        {
            "name": "南部藩長屋酒場",
            "type": [
                "郷土料理店"
            ],
            "address": "盛岡市大通2丁目6-4",
            "tel": "019-6537-099",
            "lat": "39.70345541",
            "lng": "141.14595383"
        },
        {
            "name": "パンプルムゥス 盛岡店",
            "type": [
                "カフェ"
            ],
            "address": "盛岡市大通2丁目7-20 ｳｴﾀﾞﾋﾞﾙ 2F",
            "tel": "019-908-7788",
            "lat": "39.70320819",
            "lng": "141.14534556"
        },
        {
            "name": "オリーブの実",
            "type": [
                "イタリアン"
            ],
            "address": "盛岡市菜園2丁目4-23",
            "tel": "019-654-3377",
            "lat": "39.70188338",
            "lng": "141.14660659"
        },
        {
            "name": "The bar H",
            "type": [
                "洋酒",
                "カクテル"
            ],
            "address": "盛岡市菜園1-11-11ﾎﾃﾙﾛｲﾔﾙ盛岡2F",
            "tel": "019-651-8825",
            "lat": "39.70156953",
            "lng": "141.14688157"
        },
        {
            "name": "岩手の居酒屋ゑん",
            "type": [
                "創作料理",
                "和食"
            ],
            "address": "盛岡市盛岡駅前通9-2第一甚ﾋﾞﾙ下一階",
            "tel": "019-653-5399",
            "lat": "39.70232189",
            "lng": "141.13801851"
        },
        {
            "name": "Chiko's Cafe ～インコが暮らす紅茶のカフェ～",
            "type": [
                "紅茶",
                "軽食",
                "スイーツ"
            ],
            "address": "盛岡市上田3-17-43",
            "tel": "050-3395-0935",
            "lat": "39.71816153",
            "lng": "141.13484619"
        },
        {
            "name": "イタリアンレストランアランチャ",
            "type": [
                "レストラン"
            ],
            "address": "盛岡市中央通2丁目1-26",
            "tel": "019-625-6305",
            "lat": "39.70450252",
            "lng": "141.14673707"
        },
        {
            "name": "リアンサンドウィッチカフェ盛岡店",
            "type": [
                "サンドウィッチ"
            ],
            "address": "盛岡市紺屋町1-35",
            "tel": "019-613-6057",
            "lat": "39.70124473",
            "lng": "141.15555026"
        },
        {
            "name": "キッチンコメル",
            "type": [
                "洋食",
                "弁当"
            ],
            "address": "盛岡市本宮字小板小瀬13-11",
            "tel": "019-656-7750",
            "lat": "39.69351663",
            "lng": "141.11996491"
        },
        {
            "name": "戦国焼鳥秀吉",
            "type": [
                "焼き鳥"
            ],
            "address": "盛岡市本町通2-3-7",
            "tel": "019-626-2131",
            "lat": "39.70681064",
            "lng": "141.15090053"
        },
        {
            "name": "串焼きmaru",
            "type": [
                "和食",
                "串焼き等"
            ],
            "address": "盛岡市中央通一丁目11-21",
            "tel": "019-601-3132",
            "lat": "39.70422757",
            "lng": "141.14732313"
        },
        {
            "name": "ドライブイン　ろばた",
            "type": [
                "そば",
                "うどん",
                "ラーメン",
                "丼物"
            ],
            "address": "盛岡市繋山根225-2",
            "tel": "019-689-2954",
            "lat": "39.69892133",
            "lng": "141.02566118"
        },
        {
            "name": "麺屋八代盛岡ｲﾝﾀｰ本店",
            "type": [
                "ラーメン"
            ],
            "address": "盛岡市前潟二丁目3番6号",
            "tel": "019-647-8850",
            "lat": "39.71122815",
            "lng": "141.10514053"
        },
        {
            "name": "炊き餃子・手羽先　オクムラ",
            "type": [
                "九州料理店",
                "居酒屋"
            ],
            "address": "盛岡市開運橋通1-34",
            "tel": "019-651-1010",
            "lat": "39.70268877",
            "lng": "141.14430123"
        },
        {
            "name": "カプチーナ盛岡店",
            "type": [
                "ファミリーレストラン"
            ],
            "address": "盛岡市菜園1-10-1ﾊﾟﾙｸｱﾍﾞﾆｭｰ川徳7階",
            "tel": "019-625-1478",
            "lat": "39.70071128",
            "lng": "141.14691215"
        },
        {
            "name": "ウサギボタニカ",
            "type": [
                "洋食"
            ],
            "address": "盛岡市中の橋通1-3-15",
            "tel": "0196-81-4932",
            "lat": "39.70102810",
            "lng": "141.15653629"
        },
        {
            "name": "おでんと魚串の店　飛魚",
            "type": [
                "居酒屋"
            ],
            "address": "盛岡市菜園2-8-36",
            "tel": "019-651-1799",
            "lat": "39.70093898",
            "lng": "141.14537062"
        },
        {
            "name": "寄リ付キ魚場ル　夜ナ夜ナ魚",
            "type": [
                "居酒屋"
            ],
            "address": "盛岡市菜園2-8-36",
            "tel": "019-613-4727",
            "lat": "39.70093898",
            "lng": "141.14537062"
        },
        {
            "name": "蕎麦ブラザーズ",
            "type": [
                "蕎麦",
                "居酒屋"
            ],
            "address": "盛岡市大通2-3-7 CT33ﾋﾞﾙ 1F",
            "tel": "019-656-1193",
            "lat": "39.70331378",
            "lng": "141.14649545"
        },
        {
            "name": "酒と小料理　志NA",
            "type": [
                "和食"
            ],
            "address": "盛岡市菜園2丁目5-6 ｻﾝﾗｲｽﾞｶﾞｰﾃﾞﾝ2F",
            "tel": "019-624-6488",
            "lat": "39.70229162",
            "lng": "141.14513727"
        },
        {
            "name": "大衆酒場モツレ　盛岡店",
            "type": [
                "居酒屋"
            ],
            "address": "盛岡市盛岡駅前通11-11",
            "tel": "019-613-9595",
            "lat": "39.70286075",
            "lng": "141.13886286"
        },
        {
            "name": "NouvelleChinois萬花京",
            "type": [
                "中華料理"
            ],
            "address": "盛岡市菜園1-6-13 公園通りﾌﾟﾗｻﾞﾋﾞﾙ1階",
            "tel": "019-622-3766",
            "lat": "39.70148067",
            "lng": "141.14791482"
        },
        {
            "name": "東家大手先店",
            "type": [
                "和食",
                "そば"
            ],
            "address": "盛岡市内丸17-40",
            "tel": "0120-73-3130",
            "lat": "39.70433878",
            "lng": "141.15367812"
        },
        {
            "name": "東家駅前店",
            "type": [
                "和食",
                "そば"
            ],
            "address": "盛岡市盛岡駅前通8-11",
            "tel": "0120-73-3130",
            "lat": "39.70180804",
            "lng": "141.13770467"
        },
        {
            "name": "寿司処　こみや",
            "type": [
                "寿司"
            ],
            "address": "盛岡市中ﾉ橋通1-11-4",
            "tel": "019-622-5542",
            "lat": "39.69876725",
            "lng": "141.15749738"
        },
        {
            "name": "九十九草",
            "type": [
                "ダイニングバー"
            ],
            "address": "盛岡市中ﾉ橋通1-8-4",
            "tel": "0196-22-2253",
            "lat": "39.70052816",
            "lng": "141.15666963"
        },
        {
            "name": "シャトン",
            "type": [
                "洋食"
            ],
            "address": "盛岡市内丸16-16大手先ﾋﾞﾙ1F",
            "tel": "0196-53-0234",
            "lat": "39.70444712",
            "lng": "141.15448916"
        },
        {
            "name": "農家レストラン　さん食亭",
            "type": [
                "ランチバイキング"
            ],
            "address": "盛岡市北上市立花1地割43番地4",
            "tel": "0197-61-3911",
            "lat": "39.70186410",
            "lng": "141.15451150"
        },
        {
            "name": "いきなりステーキイオンモール盛岡店",
            "type": [
                "ステーキ"
            ],
            "address": "盛岡市前潟4-7-1",
            "tel": "019-908-7092",
            "lat": "39.71156124",
            "lng": "141.09866601"
        },
        {
            "name": "一喜亭",
            "type": [
                "ラーメン",
                "炒飯"
            ],
            "address": "盛岡市中ﾉ橋通1-10-2",
            "tel": "019-623-1120",
            "lat": "39.69953659",
            "lng": "141.15655300"
        },
        {
            "name": "大同苑 フェザン店",
            "type": [
                "焼肉",
                "冷麺"
            ],
            "address": "盛岡市駅前通1-44 盛岡駅ﾋﾞﾙﾌｪｻﾞﾝ おでんせ館1階",
            "tel": "019-601-5506",
            "lat": "39.70186410",
            "lng": "141.15451150"
        },
        {
            "name": "米沢ラーメン山形屋",
            "type": [
                "ラーメン"
            ],
            "address": "盛岡市寺林平森1-1",
            "tel": "TEL：",
            "lat": "39.90038393",
            "lng": "141.19964530"
        },
        {
            "name": "鮪一力",
            "type": [
                "日本料理",
                "寿司"
            ],
            "address": "盛岡市長田町11-4",
            "tel": "019-623-8958",
            "lat": "39.70724086",
            "lng": "141.14112365"
        },
        {
            "name": "トレンタ月が丘店",
            "type": [
                "洋食",
                "スパゲッティ",
                "ピザ"
            ],
            "address": "盛岡市月が丘3丁目40-80",
            "tel": "019-643-1230",
            "lat": "39.73916414",
            "lng": "141.10900049"
        },
        {
            "name": "旬肴旬菜　すづ禅",
            "type": [
                "和食"
            ],
            "address": "盛岡市中央通1-7-16 日の出ﾋﾞﾙ3･4F",
            "tel": "019-651-1631",
            "lat": "39.70363878",
            "lng": "141.14846193"
        },
        {
            "name": "三寿司　菜園店",
            "type": [
                "寿司"
            ],
            "address": "盛岡市菜園2-5-3",
            "tel": "019-623-5500",
            "lat": "39.70222775",
            "lng": "141.14539281"
        },
        {
            "name": "幸楽苑　盛岡上田店",
            "type": [
                "ラーメン"
            ],
            "address": "盛岡市上田四丁目12番25号",
            "tel": "019-604-8668",
            "lat": "39.72333306",
            "lng": "141.13223797"
        },
        {
            "name": "幸楽苑　盛岡西南店",
            "type": [
                "ラーメン"
            ],
            "address": "盛岡市本宮四丁目34番18号",
            "tel": "019-631-3034",
            "lat": "39.68529277",
            "lng": "141.13046700"
        },
        {
            "name": "中国料理　空（くう）",
            "type": [
                "中国料理"
            ],
            "address": "盛岡市菜園2丁目5-13 玉川ﾋﾞﾙ1F",
            "tel": "019-625-5336",
            "lat": "39.70236659",
            "lng": "141.14453733"
        },
        {
            "name": "びすとろ銀河",
            "type": [
                "洋食",
                "コーヒー",
                "宴会"
            ],
            "address": "盛岡市青山2丁目2-8",
            "tel": "019-601-4155",
            "lat": "39.72411320",
            "lng": "141.11753365"
        },
        {
            "name": "中華そば　正太郎",
            "type": [
                "ラーメン"
            ],
            "address": "盛岡市青山4丁目27-11",
            "tel": "019-643-7233",
            "lat": "39.73137067",
            "lng": "141.11516419"
        },
        {
            "name": "中華そば　二代目正太郎",
            "type": [
                "ラーメン"
            ],
            "address": "盛岡市上厨川字横長根38-1",
            "tel": "019-646-0017",
            "lat": "39.70756964",
            "lng": "141.08820302"
        },
        {
            "name": "幸楽苑　盛岡津志田店",
            "type": [
                "ラーメン"
            ],
            "address": "盛岡市津志田中央1丁目1番3号",
            "tel": "019-632-1006",
            "lat": "39.66318464",
            "lng": "141.15924284"
        },
        {
            "name": "魚ken",
            "type": [
                "居酒屋"
            ],
            "address": "盛岡市大通2-1-23 ｻﾝｸｨｰﾝﾋﾞﾙ1F",
            "tel": "019-652-7766",
            "lat": "39.70243611",
            "lng": "141.14665657"
        },
        {
            "name": "ココス盛岡みたけ店",
            "type": [
                "ファミリーレストラン"
            ],
            "address": "盛岡市みたけ3-2-43",
            "tel": "019-648-7575",
            "lat": "39.73614236",
            "lng": "141.11649172"
        },
        {
            "name": "手打ちそば極楽乃　中央公民館店",
            "type": [
                "そば",
                "天ぷら"
            ],
            "address": "盛岡市愛宕町14-1",
            "tel": "019-601-7273",
            "lat": "39.71074097",
            "lng": "141.16207444"
        },
        {
            "name": "焼鳥だいにんぐ　とりとん",
            "type": [
                "居酒屋"
            ],
            "address": "盛岡市大通2-1-23 ｻﾝｸｨｰﾝﾋﾞﾙ1F",
            "tel": "019-652-6522",
            "lat": "39.70243611",
            "lng": "141.14665657"
        },
        {
            "name": "中華そば　甚七",
            "type": [
                "ラーメン"
            ],
            "address": "盛岡市みたけ2丁目22-50",
            "tel": "019-647-7373",
            "lat": "39.74669976",
            "lng": "141.12852928"
        },
        {
            "name": "ごはん家　あっちゃん",
            "type": [
                "定食"
            ],
            "address": "盛岡市上田1丁目11-28ｶｰｻｸｱﾄﾛ上田",
            "tel": "019-613-3525",
            "lat": "39.71319574",
            "lng": "141.14367605"
        },
        {
            "name": "やきとりかつ",
            "type": [
                "焼鳥",
                "酒等"
            ],
            "address": "盛岡市青山4丁目27-4",
            "tel": "019-641-7380",
            "lat": "39.73123734",
            "lng": "141.11486978"
        },
        {
            "name": "大衆酒場　丸富士",
            "type": [
                "大衆酒場"
            ],
            "address": "盛岡市大通1丁目9-1 ﾁｽｶﾞﾋﾞﾙ1階-1",
            "tel": "019-656-6024",
            "lat": "39.70297497",
            "lng": "141.14820086"
        },
        {
            "name": "酒場　金の鳥",
            "type": [
                "居酒屋"
            ],
            "address": "盛岡市大通1-6-13 自遊空間TENﾋﾞﾙ2F",
            "tel": "019-653-1622",
            "lat": "39.70254724",
            "lng": "141.14847863"
        },
        {
            "name": "すしげん",
            "type": [
                "寿司"
            ],
            "address": "盛岡市盛岡駅前15ｰ14",
            "tel": "019-623-0189",
            "lat": "39.70464930",
            "lng": "141.13573811"
        },
        {
            "name": "モンテボッカ",
            "type": [
                "イタリアン"
            ],
            "address": "盛岡市開運橋通1-16-2階",
            "tel": "019-653-1415",
            "lat": "39.70244709",
            "lng": "141.14341799"
        },
        {
            "name": "大衆酒場　チョウチン",
            "type": [
                "大衆酒場"
            ],
            "address": "盛岡市大通1丁目7-12 柳ﾋﾞﾙ1階",
            "tel": "019-613-5200",
            "lat": "39.70298330",
            "lng": "141.14844251"
        },
        {
            "name": "串焼酒場　萬　-YOROZU-",
            "type": [
                "焼き鳥"
            ],
            "address": "盛岡市大通1丁目7-13 ｼｸﾞﾅｽﾋﾞﾙ1階",
            "tel": "019-681-1462",
            "lat": "39.70312218",
            "lng": "141.14848417"
        },
        {
            "name": "串揚酒場　栖-SUMIKA-",
            "type": [
                "串揚げ"
            ],
            "address": "盛岡市大通1丁目10-21 ﾋﾟﾎﾟｯﾄﾞ盛岡大通ﾋﾞﾙ1階",
            "tel": "019-613-3586",
            "lat": "39.70260278",
            "lng": "141.14806755"
        },
        {
            "name": "美術館内レストラン　パティオ",
            "type": [
                "洋食"
            ],
            "address": "盛岡市本宮松幅12-3",
            "tel": "019-658-0500",
            "lat": "39.69318348",
            "lng": "141.12458673"
        },
        {
            "name": "魚問屋　魚きんた",
            "type": [
                "居酒屋"
            ],
            "address": "盛岡市盛岡駅前通15-13 きんた駅前ﾋﾞﾙ",
            "tel": "019-654-0337",
            "lat": "39.70323005",
            "lng": "141.13632143"
        },
        {
            "name": "海鮮鮨　和食　鈴徳",
            "type": [
                "和食"
            ],
            "address": "盛岡市南大通1-11-17",
            "tel": "019-654-2727",
            "lat": "39.69670637",
            "lng": "141.15800017"
        },
        {
            "name": "大衆酒場　あげもんや　開運橋通店",
            "type": [
                "居酒屋"
            ],
            "address": "盛岡市開運橋通4-5",
            "tel": "019-681-3677",
            "lat": "39.70236095",
            "lng": "141.14240698"
        },
        {
            "name": "内丸メディカルセンター内地下１F　レストランパティオ",
            "type": [
                "和食",
                "洋食",
                "ラーメン等"
            ],
            "address": "盛岡市内丸19-1 地下1F",
            "tel": "019-651-3021",
            "lat": "39.70529418",
            "lng": "141.15156440"
        },
        {
            "name": "チャンチキ酒場",
            "type": [
                "和食",
                "やきとん",
                "ラーメン"
            ],
            "address": "盛岡市内丸5-1",
            "tel": "019-625-6161",
            "lat": "39.70201958",
            "lng": "141.15190890"
        },
        {
            "name": "盛岡市役所　地下1F食堂",
            "type": [
                "和食",
                "洋食",
                "ラーメン等"
            ],
            "address": "盛岡市内丸12-2",
            "tel": "019-626-4681",
            "lat": "39.70172243",
            "lng": "141.15422259"
        },
        {
            "name": "ゆ家　石垣別邸",
            "type": [
                "和食",
                "刺身",
                "ラーメン"
            ],
            "address": "盛岡市菜園1-7-24",
            "tel": "019-623-7677",
            "lat": "39.70073075",
            "lng": "141.14852590"
        },
        {
            "name": "ゆ家　菜園本舗",
            "type": [
                "和食",
                "刺身",
                "ラーメン"
            ],
            "address": "盛岡市菜園1-4-4",
            "tel": "019-606-3328",
            "lat": "39.70139181",
            "lng": "141.14924526"
        },