{
    "data": [
        {
            "name": "山鹿和栗洋菓子店An（杏）",
            "area": "⼭⿅市",
            "address": "熊本県山鹿市菊鹿町下内田733",
            "postal_code": "861-0406",
            "lat": "33.02894978",
            "lng": "130.77031277"
        },
        {
            "name": "湖鏡",
            "area": "熊本市",
            "address": "熊本県熊本市中央区神水本町6-73",
            "postal_code": "862-0955",
            "lat": "32.78252712",
            "lng": "130.73648413"
        },
        {
            "name": "ドラゴンキッチン益城本店",
            "area": "益城町",
            "address": "熊本県上益城郡益城町広崎1695-4",
            "postal_code": "861-2236",
            "lat": "32.79865438",
            "lng": "130.78168103"
        },
        {
            "name": "ANAクラウンプラザホテル熊本ニュースカイ　日本料理 光琳",
            "area": "熊本市",
            "address": "熊本県熊本市中央区東阿弥陀寺町２",
            "postal_code": "860-8575",
            "lat": "32.79360073",
            "lng": "130.69653959"
        },
        {
            "name": "彩食宴満　潤和　本店",
            "area": "熊本市",
            "address": "熊本県熊本市東区戸島西1-5-37",
            "postal_code": "861-8043",
            "lat": "32.81095311",
            "lng": "130.78297514"
        },
        {
            "name": "彩食宴満　隠れ家　潤和",
            "area": "熊本市",
            "address": "熊本県熊本市東区戸島西5-1-10パークシティ戸島内",
            "postal_code": "861-8043",
            "lat": "32.81339451",
            "lng": "130.79080780"
        },
        {
            "name": "飯場Jin",
            "area": "熊本市",
            "address": "熊本県熊本市中央区下通1-4-2オーラムビル2階",
            "postal_code": "860-0807",
            "lat": "32.80201380",
            "lng": "130.70792168"
        },
        {
            "name": "アイスクリーム専門工房　ついんスター",
            "area": "菊池市",
            "address": "熊本県菊池市旭志麓１５８４－４",
            "postal_code": "869-1202",
            "lat": "32.94125247",
            "lng": "130.87064288"
        },
        {
            "name": "オレンジ",
            "area": "八代市",
            "address": "熊本県八代市袋町3-28スカイビル1F",
            "postal_code": "866-0855",
            "lat": "32.50426476",
            "lng": "130.60602309"
        },
        {
            "name": "レストランひきの",
            "area": "玉名市",
            "address": "熊本県玉名市岩崎730",
            "postal_code": "865-0016",
            "lat": "32.93698377",
            "lng": "130.55705382"
        },
        {
            "name": "洋食屋出田",
            "area": "熊本市",
            "address": "熊本県熊本市中央区山崎町72",
            "postal_code": "860-0016",
            "lat": "32.79705042",
            "lng": "130.70168905"
        },
        {
            "name": "菅乃屋　銀座通り店",
            "area": "熊本市",
            "address": "熊本県熊本市中央区下通1丁目9-10TM21ビルBF",
            "postal_code": "860-0807",
            "lat": "32.80056950",
            "lng": "130.70788562"
        },
        {
            "name": "キャナリイ・ロウ熊本店",
            "area": "熊本市",
            "address": "熊本県熊本市東区佐土原3丁目12-10",
            "postal_code": "862-0916",
            "lat": "32.79482141",
            "lng": "130.78212828"
        },
        {
            "name": "うなぎ　かわ魚料理　かわ専",
            "area": "熊本市",
            "address": "熊本県熊本市東区佐土原1-12-1",
            "postal_code": "862-0916",
            "lat": "32.78944966",
            "lng": "130.77277339"
        },
        {
            "name": "炊き肉牛ちゃん熊本銀杏北通り店",
            "area": "熊本市",
            "address": "熊本県熊本市中央区花畑町11-24銀杏タワービル１階",
            "postal_code": "860-0806",
            "lat": "32.80174716",
            "lng": "130.70714676"
        },
        {
            "name": "旬彩",
            "area": "熊本市",
            "address": "熊本県熊本市中央区上通町5-40長安寺イーストンビル2F",
            "postal_code": "860-0845",
            "lat": "32.80381363",
            "lng": "130.71202687"
        },
        {
            "name": "バイキングレストラン　乙姫の森",
            "area": "阿蘇市",
            "address": "熊本県阿蘇市乙姫２０５２",
            "postal_code": "869-2226",
            "lat": "32.93422852",
            "lng": "131.04073425"
        },
        {
            "name": "祝・仏事料理（仕出し）　徳一",
            "area": "熊本市",
            "address": "熊本県熊本市中央区坪井4丁目20-31",
            "postal_code": "860-0863",
            "lat": "32.81679031",
            "lng": "130.71548213"
        },
        {
            "name": "イングリッシュガーデン南阿蘇",
            "area": "南阿蘇村",
            "address": "熊本県阿蘇郡南阿蘇村中松字上車鶴3880阿蘇郡南阿蘇村久石3700",
            "postal_code": "869-1505",
            "lat": "32.82866725",
            "lng": "131.05065490"
        },
        {
            "name": "宮原サービスエリア上り線レストラン／フードコート",
            "area": "氷川町",
            "address": "熊本県八代郡氷川町早尾683",
            "postal_code": "869-4606",
            "lat": "32.54406561",
            "lng": "130.68067412"
        },
        {
            "name": "茂平",
            "area": "熊本市",
            "address": "熊本県熊本市中央区中央街1-30",
            "postal_code": "860-0802",
            "lat": "32.80106944",
            "lng": "130.70998820"
        },
        {
            "name": "阿蘇料理 ひめ路",
            "area": "阿蘇市",
            "address": "熊本県阿蘇市乙姫1732-1",
            "postal_code": "869-2226",
            "lat": "32.93442574",
            "lng": "131.04151751"
        },
        {
            "name": "和心料理やまぐち",
            "area": "熊本市",
            "address": "熊本県熊本市中央区花畑町11-33RS2ビル1階",
            "postal_code": "860-0806",
            "lat": "32.80201936",
            "lng": "130.70723563"
        },
        {
            "name": "有限会社みはらし",
            "area": "熊本市",
            "address": "熊本県熊本市中央区水前寺公園6-1",
            "postal_code": "862-0956",
            "lat": "32.79127344",
            "lng": "130.73358410"
        },
        {
            "name": "奥之院門前  一心会館たんぽぽ堂",
            "area": "玉名市",
            "address": "熊本県玉名市築地字小岱1512-77蓮華院誕生寺奥之院門前",
            "postal_code": "865-0065",
            "lat": "32.93311723",
            "lng": "130.53080290"
        },
        {
            "name": "食楽さか本",
            "area": "熊本市",
            "address": "熊本県熊本市中央区安政町6-10スタイルセブンビル2階",
            "postal_code": "860-0801",
            "lat": "32.80128054",
            "lng": "130.71073536"
        },
        {
            "name": "火の国　華れ",
            "area": "熊本市",
            "address": "熊本県熊本市中央区花畑町9-6森苑ビル5F",
            "postal_code": "860-0806",
            "lat": "32.80256930",
            "lng": "130.70752725"
        },
        {
            "name": "うどんウエスト熊本店",
            "area": "北区",
            "address": "熊本県熊本市北区楠野町１０５７－１",
            "postal_code": "861-5511",
            "lat": "32.87809029",
            "lng": "130.70116281"
        },
        {
            "name": "TANPOPO",
            "area": "熊本市",
            "address": "熊本県熊本市東区広木町30-84",
            "postal_code": "862-0906",
            "lat": "32.76818718",
            "lng": "130.75866354"
        },
        {
            "name": "小豆カフェ",
            "area": "天草市",
            "address": "熊本県天草市新和町大宮地4780",
            "postal_code": "863-0103",
            "lat": "32.38672398",
            "lng": "130.18688254"
        },
        {
            "name": "本格炭火焼肉　七輪",
            "area": "菊陽町",
            "address": "熊本県菊池郡菊陽町津久礼2358-4",
            "postal_code": "869-1101",
            "lat": "32.86104559",
            "lng": "130.79880064"
        },
        {
            "name": "ナポリピッツァ研究所イルフォルノドーロ",
            "area": "菊池市",
            "address": "熊本県菊池市大琳寺１５１－１",
            "postal_code": "861-1306",
            "lat": "32.97288291",
            "lng": "130.80388655"
        },
        {
            "name": "展望レストランのどか（ピースフル優祐悠）",
            "area": "熊本市",
            "address": "熊本県熊本市東区下南部3丁目11-136ピースフル優祐悠3階",
            "postal_code": "861-8019",
            "lat": "32.82229887",
            "lng": "130.75949908"
        },
        {
            "name": "中華厨屯知",
            "area": "北区",
            "address": "熊本県熊本市北区清水新地1丁目5-30M’sビル1F",
            "postal_code": "861-8075",
            "lat": "32.85068478",
            "lng": "130.73215366"
        },
        {
            "name": "レストラン藤屋",
            "area": "阿蘇市",
            "address": "熊本県阿蘇市一の宮町宮地４７１８藤屋観光ビル",
            "postal_code": "869-2612",
            "lat": "32.93770437",
            "lng": "131.11765030"
        },
        {
            "name": "あや鶏熊本光の森店",
            "area": "菊陽町",
            "address": "熊本県菊池郡菊陽町光の森2-25-8",
            "postal_code": "869-1108",
            "lat": "32.85731837",
            "lng": "130.78207721"
        },
        {
            "name": "球磨食堂あまね",
            "area": "熊本市",
            "address": "熊本県熊本市中央区上通町4-1上田ビル地下１階",
            "postal_code": "860-8600",
            "lat": "32.80397748",
            "lng": "130.71023532"
        },
        {
            "name": "Pizza.肉.ワイン イルフォルノドーロ",
            "area": "熊本市",
            "address": "熊本県熊本市中央区手取本町３－９FANビル１Ｆ",
            "postal_code": "860-0808",
            "lat": "32.80320811",
            "lng": "130.70859658"
        },
        {
            "name": "りょうり亭多喜加和",
            "area": "熊本市",
            "address": "熊本県熊本市中央区水前寺公園13-4",
            "postal_code": "862-0956",
            "lat": "32.78873484",
            "lng": "130.73625342"
        },
        {
            "name": "焼肉館彩炉画図店",
            "area": "熊本市",
            "address": "熊本県熊本市東区画図町重富438-6",
            "postal_code": "862-0947",
            "lat": "32.76020413",
            "lng": "130.73144357"
        },
        {
            "name": "鉄板焼・お好み焼　大ちゃん",
            "area": "熊本市",
            "address": "熊本県熊本市中央区花畑町11-20水田ビル2Ｆ",
            "postal_code": "860-0806",
            "lat": "32.80134998",
            "lng": "130.70679403"
        },
        {
            "name": "道とん堀　麻生田店",
            "area": "北区",
            "address": "熊本県熊本市北区麻生田2丁目9-1",
            "postal_code": "861-8081",
            "lat": "32.84889905",
            "lng": "130.74530620"
        },
        {
            "name": "あか牛の館",
            "area": "南阿蘇村",
            "address": "熊本県南阿蘇村久石2815",
            "postal_code": "869-1412",
            "lat": "32.81839592",
            "lng": "131.04090054"
        },
        {
            "name": "酒とめしＲＩＫＩ",
            "area": "熊本市",
            "address": "熊本県熊本市中央区花畑町13-10パワーズビル３Ｆ",
            "postal_code": "860-0806",
            "lat": "32.80063617",
            "lng": "130.70662740"
        },
        {
            "name": "BUNZO（ブンゾー）",
            "area": "熊本市",
            "address": "熊本県熊本市中央区安政町2-24シガキビル１Ｆ",
            "postal_code": "860-0801",
            "lat": "32.80158606",
            "lng": "130.71067702"
        },
        {
            "name": "肥後串焼 塩だしおでん ひご屋",
            "area": "熊本市",
            "address": "熊本県熊本市中央区下通1丁目10-12",
            "postal_code": "860-0807",
            "lat": "32.80021953",
            "lng": "130.70938828"
        },
        {
            "name": "海鮮亭",
            "area": "八代市",
            "address": "熊本県八代市港町69-1",
            "postal_code": "866-0033",
            "lat": "32.50969115",
            "lng": "130.57396780"
        },
        {
            "name": "隠れ茶房　茶蔵カフェ",
            "area": "阿蘇市",
            "address": "熊本県阿蘇市蔵原625-1",
            "postal_code": "869-2224",
            "lat": "32.94097940",
            "lng": "131.08909051"
        },
        {
            "name": "ごはん処北里バラン",
            "area": "小国町",
            "address": "熊本県阿蘇郡小国町北里371-1北里バラン",
            "postal_code": "869-2505",
            "lat": "33.14108905",
            "lng": "131.09067087"
        },
        {
            "name": "城食堂",
            "area": "阿蘇市",
            "address": "熊本県阿蘇市内牧206",
            "postal_code": "869-2301",
            "lat": "32.97485527",
            "lng": "131.04209248"
        },
        {
            "name": "焼肉友宝",
            "area": "熊本市",
            "address": "熊本県熊本市東区新南部3-10-54",
            "postal_code": "861-8028",
            "lat": "32.81251062",
            "lng": "130.74942182"
        },
        {
            "name": "瀬の本レストハウス（2階レストラン・ナチュラルキッチン）",
            "area": "南小国町",
            "address": "熊本県阿蘇郡南小国町満願寺５６２１番地７瀬の本レストハウス",
            "postal_code": "869-2402",
            "lat": "33.07156780",
            "lng": "131.18732260"
        },
        {
            "name": "さしみや河丁",
            "area": "天草市",
            "address": "熊本県天草市志柿町7102",
            "postal_code": "863-0041",
            "lat": "32.45501264",
            "lng": "130.21400861"
        },
        {
            "name": "すみよし",
            "area": "南小国町",
            "address": "熊本県阿蘇郡南小国町満願寺6603",
            "postal_code": "869-2402",
            "lat": "33.07759268",
            "lng": "131.14086852"
        },
        {
            "name": "焼酎居酒屋カミナリ酒場",
            "area": "熊本市",
            "address": "熊本県熊本市中央区南坪井町６－１０竹永ビル１Ｆ",
            "postal_code": "860-0848",
            "lat": "32.80820770",
            "lng": "130.71255737"
        },
        {
            "name": "クシタニカフェ阿蘇店",
            "area": "南小国町",
            "address": "熊本県阿蘇郡南小国町満願寺５６２１番地７瀬の本レストハウス",
            "postal_code": "869-2402",
            "lat": "33.07156780",
            "lng": "131.18732260"
        },
        {
            "name": "南阿蘇そば道場",
            "area": "南阿蘇村",
            "address": "熊本県南阿蘇村久石2776",
            "postal_code": "869-1412",
            "lat": "32.81839592",
            "lng": "131.04090054"
        },
        {
            "name": "馬タン牛タン",
            "area": "熊本市",
            "address": "熊本県熊本市中央区下通1-11-17ライオン松藤ビルらいと館",
            "postal_code": "860-0807",
            "lat": "32.80001678",
            "lng": "130.70722181"
        },
        {
            "name": "栖",
            "area": "熊本市",
            "address": "熊本県熊本市中央区新市街1-12新市街バナービル2F",
            "postal_code": "860-0803",
            "lat": "32.79955295",
            "lng": "130.70573307"
        },
        {
            "name": "瀬の本レストハウス（外売り）",
            "area": "南小国町",
            "address": "熊本県阿蘇郡南小国町満願寺５６２１番地７瀬の本レストハウス",
            "postal_code": "869-2402",
            "lat": "33.07156780",
            "lng": "131.18732260"
        },
        {
            "name": "焼肉銀龍",
            "area": "熊本市",
            "address": "熊本県熊本市中央区安政町7-1",
            "postal_code": "860-0801",
            "lat": "32.80108890",
            "lng": "130.71139921"
        },
        {
            "name": "ベイサイド港カフェ",
            "area": "熊本市",
            "address": "熊本県熊本市西区新港1丁目1番熊本港フェリーターミナル内",
            "postal_code": "861-5274",
            "lat": "32.76352668",
            "lng": "130.59005279"
        },
        {
            "name": "かれー＆オムライスの店洋食亭",
            "area": "宇⼟市",
            "address": "熊本県宇土市花園町223－1",
            "postal_code": "869-0413",
            "lat": "32.68182151",
            "lng": "130.68308859"
        },
        {
            "name": "新屋敷　幸福論",
            "area": "熊本市",
            "address": "熊本県熊本市中央区新屋敷3-8-6",
            "postal_code": "862-0975",
            "lat": "32.80673293",
            "lng": "130.72400109"
        },
        {
            "name": "大漁市場こんぴら丸八代店",
            "area": "八代市",
            "address": "熊本県八代市田中町550-10",
            "postal_code": "866-0872",
            "lat": "32.51707499",
            "lng": "130.60857274"
        },
        {
            "name": "餃子屋にこ",
            "area": "熊本市",
            "address": "熊本県熊本市中央区新市街1-9カーナA3ビルB1",
            "postal_code": "860-0803",
            "lat": "32.79996957",
            "lng": "130.70586360"
        },
        {
            "name": "天草生うに本舗丸健水産",
            "area": "天草市",
            "address": "熊本県天草市五和町二江4662-5",
            "postal_code": "863-2421",
            "lat": "32.54794434",
            "lng": "130.11869235"
        },
        {
            "name": "酒湊",
            "area": "熊本市",
            "address": "熊本県熊本市中央区新市街4-18松下ビル1階",
            "postal_code": "860-0803",
            "lat": "32.79944740",
            "lng": "130.70602749"
        },
        {
            "name": "酒湊本店",
            "area": "熊本市",
            "address": "熊本県熊本市中央区新市街4-18松下ビル2F",
            "postal_code": "860-0803",
            "lat": "32.79944740",
            "lng": "130.70602749"
        },
        {
            "name": "寿司和食　喜久家",
            "area": "⼭⿅市",
            "address": "熊本県山鹿市山鹿1672-1",
            "postal_code": "861-0501",
            "lat": "33.01351679",
            "lng": "130.68886721"
        },
        {
            "name": "天外天ラーメン",
            "area": "熊本市",
            "address": "熊本県熊本市中央区安政町2-15河野ビル１F",
            "postal_code": "860-0801",
            "lat": "32.80155274",
            "lng": "130.71130198"
        },
        {
            "name": "ショコラトリー　ＡＳＯＦＯＲＥＴ",
            "area": "阿蘇市",
            "address": "熊本県阿蘇市乙姫２０５２コスギリゾート内",
            "postal_code": "869-2226",
            "lat": "32.93422852",
            "lng": "131.04073425"
        },
        {
            "name": "とんかつ＆カレー洋食屋",
            "area": "宇城市",
            "address": "熊本県宇城市小川町河江1048－2",
            "postal_code": "869-0606",
            "lat": "32.61308907",
            "lng": "130.70437892"
        },
        {
            "name": "天草水産研究所",
            "area": "熊本市",
            "address": "熊本県熊本市中央区下通1-9-26",
            "postal_code": "860-0807",
            "lat": "32.80051118",
            "lng": "130.70748010"
        },
        {
            "name": "家族食堂ぐれぇす",
            "area": "熊本市",
            "address": "熊本県熊本市中央区壺川2丁目10番7号",
            "postal_code": "860-0076",
            "lat": "32.81752636",
            "lng": "130.71018805"
        },
        {
            "name": "酒の穴",
            "area": "⼭⿅市",
            "address": "熊本県山鹿市昭和町６０８",
            "postal_code": "861-0515",
            "lat": "33.01223912",
            "lng": "130.68636469"
        },
        {
            "name": "天外天ラーメン熊本駅店",
            "area": "熊本市",
            "address": "熊本県熊本市西区春日3-15-30肥後よかもん市場内",
            "postal_code": "860-0047",
            "lat": "32.78976213",
            "lng": "130.68819320"
        },
        {
            "name": "cafe&books bibliotheque熊本・鶴屋",
            "area": "熊本市",
            "address": "熊本県中央区手取本町６－１鶴屋百貨店東館1階PARKTERiA",
            "postal_code": "860-0808",
            "lat": "32.80321367",
            "lng": "130.70844659"
        },
        {
            "name": "まるよし食堂",
            "area": "熊本市",
            "address": "熊本県熊本市西区島崎2-11-7坂本島崎本店",
            "postal_code": "860-0073",
            "lat": "32.80904656",
            "lng": "130.69116192"
        },
        {
            "name": "Glocal BAR Vibes",
            "area": "熊本市",
            "address": "熊本県熊本市中央区下通1-5-6アリタビル3F",
            "postal_code": "860-0807",
            "lat": "32.80158606",
            "lng": "130.70812168"
        },
        {
            "name": "かぶき炭火焼＆イタリアン",
            "area": "熊本市",
            "address": "熊本県熊本市中央区手取本町3-15ＭＫビル",
            "postal_code": "860-0808",
            "lat": "32.80329699",
            "lng": "130.70857714"
        },
        {
            "name": "ファミリーレストラン大門",
            "area": "玉名市",
            "address": "熊本県玉名市岱明町野口537-1",
            "postal_code": "869-0222",
            "lat": "32.92976199",
            "lng": "130.53489153"
        },
        {
            "name": "鏡　華月園",
            "area": "八代市",
            "address": "熊本県八代市鏡町内田324",
            "postal_code": "869-4202",
            "lat": "32.56615694",
            "lng": "130.65609112"
        },
        {
            "name": "ホテル日航熊本　日本料理「弁慶」",
            "area": "熊本市",
            "address": "熊本県熊本市中央区上通町2-1",
            "postal_code": "860-8536",
            "lat": "32.80351086",
            "lng": "130.71124081"
        },
        {
            "name": "カフェレストランわろく屋",
            "area": "南小国町",
            "address": "熊本県阿蘇郡南小国町満願寺6600-1",
            "postal_code": "869-2402",
            "lat": "33.07726219",
            "lng": "131.14147123"
        },
        {
            "name": "バル凡凡堂",
            "area": "熊本市",
            "address": "熊本県熊本市中央区水道町1-9イーストンビル１F",
            "postal_code": "860-0844",
            "lat": "32.80328035",
            "lng": "130.71273794"
        },
        {
            "name": "ホテルサンロード熊本",
            "area": "菊陽町",
            "address": "熊本県菊池郡菊陽町津久礼2350-5",
            "postal_code": "869-1101",
            "lat": "32.86217049",
            "lng": "130.79803124"
        },
        {
            "name": "和つかもと",
            "area": "熊本市",
            "address": "熊本県熊本市南区野口4丁目13-10",
            "postal_code": "861-4137",
            "lat": "32.76797197",
            "lng": "130.67155899"
        },
        {
            "name": "串カツ天草研究所",
            "area": "熊本市",
            "address": "熊本県熊本市中央区下通1-2-11丸愛ビル1階",
            "postal_code": "860-0807",
            "lat": "32.80231099",
            "lng": "130.70798556"
        },
        {
            "name": "味千拉麺イオンタウン田崎店",
            "area": "熊本市",
            "address": "熊本県熊本市西区田崎町下寄380",
            "postal_code": "860-0058",
            "lat": "32.78295702",
            "lng": "130.67703872"
        },
        {
            "name": "いけす料理　ふくずみ",
            "area": "上天草市",
            "address": "熊本県上天草市松島町合津4638",
            "postal_code": "861-6102",
            "lat": "32.51868813",
            "lng": "130.42263873"
        },
        {
            "name": "ハイボールがうまいだけの店",
            "area": "熊本市",
            "address": "熊本県熊本市中央区下通1-12-29浜田ビル1階",
            "postal_code": "860-0807",
            "lat": "32.80002789",
            "lng": "130.70818006"
        },
        {
            "name": "ふぐ乃小川",
            "area": "熊本市",
            "address": "熊本県熊本市中央区水前寺公園24-2",
            "postal_code": "862-0956",
            "lat": "32.79237338",
            "lng": "130.73752548"
        },
        {
            "name": "tutti",
            "area": "熊本市",
            "address": "熊本県熊本市中央区安政町2-29セントラルビル３F",
            "postal_code": "860-0801",
            "lat": "32.80175548",
            "lng": "130.71025482"
        },
        {
            "name": "博多一番どり居食家あらい秋津店",
            "area": "熊本市",
            "address": "熊本県熊本市東区秋津町秋田3446-28",
            "postal_code": "861-2105",
            "lat": "32.76251274",
            "lng": "130.76918805"
        },
        {
            "name": "山の里",
            "area": "産山村",
            "address": "熊本県阿蘇郡産山村田尻202",
            "postal_code": "869-2704",
            "lat": "33.03317553",
            "lng": "131.17733446"
        },
        {
            "name": "和心旬彩燈",
            "area": "熊本市",
            "address": "熊本県熊本市中央区下通1丁目8ー7ポプラビル1F2F",
            "postal_code": "860-0807",
            "lat": "32.80072504",
            "lng": "130.70907718"
        },
        {
            "name": "大阿蘇レストラン",
            "area": "南阿蘇村",
            "address": "熊本県阿蘇郡南阿蘇村河陽5579-3阿蘇ファームランド内",
            "postal_code": "869-1404",
            "lat": "32.89801499",
            "lng": "131.00664333"
        },
        {
            "name": "Brioche Doree & Cafe",
            "area": "熊本市",
            "address": "熊本県熊本市中央区下通１丁目３－８ＣＯＣＯＳＡ１Ｆ",
            "postal_code": "860-0807",
            "lat": "32.80232209",
            "lng": "130.70881326"
        },
        {
            "name": "レッフェル武蔵ヶ丘店",
            "area": "北区",
            "address": "熊本県熊本市北区武蔵ケ丘1-4-5",
            "postal_code": "861-8001",
            "lat": "32.85152974",
            "lng": "130.76717336"
        },
        {
            "name": "仕出し 宴会いわや",
            "area": "美里町",
            "address": "熊本県下益城郡美里町佐俣123",
            "postal_code": "861-4412",
            "lat": "32.62285180",
            "lng": "130.81755541"
        },
        {
            "name": "きのこ亭",
            "area": "南阿蘇村",
            "address": "熊本県阿蘇郡南阿蘇村河陽5579-3阿蘇ファームランド内",
            "postal_code": "869-1404",
            "lat": "32.89801499",
            "lng": "131.00664333"
        },
        {
            "name": "すし割烹吟松",
            "area": "熊本市",
            "address": "熊本県熊本市中央区下通1-4-3宇野ビル２Ｆ",
            "postal_code": "860-0807",
            "lat": "32.80203324",
            "lng": "130.70788280"
        },
        {
            "name": "ラーメン赤組　城見町店",
            "area": "熊本市",
            "address": "熊本県熊本市中央区下通１丁目４－１城見ビル１Ｆ",
            "postal_code": "860-0807",
            "lat": "32.80203324",
            "lng": "130.70781891"
        },
        {
            "name": "焼肉港がるてん",
            "area": "熊本市",
            "address": "熊本県熊本市東区戸島２丁目２－１",
            "postal_code": "861-8041",
            "lat": "32.81572757",
            "lng": "130.79288810"
        },
        {
            "name": "熊本ホルモン",
            "area": "熊本市",
            "address": "熊本県熊本市中央区新市街3-11ロゼ花畑館1F",
            "postal_code": "860-0803",
            "lat": "32.79978625",
            "lng": "130.70730514"
        },
        {
            "name": "くいだおれ酒場",
            "area": "熊本市",
            "address": "熊本県熊本市中央区下通2-1-32ODAビル",
            "postal_code": "860-0807",
            "lat": "32.79961405",
            "lng": "130.70806064"
        },
        {
            "name": "中華の広東龍田店",
            "area": "北区",
            "address": "熊本県熊本市北区龍田3-2739-1",
            "postal_code": "861-8006",
            "lat": "32.83558615",
            "lng": "130.74175880"
        },
        {
            "name": "WILD-COUNTRY 2nd",
            "area": "宇⼟市",
            "address": "熊本県宇土市本町4-18KEN-1ビル2F",
            "postal_code": "869-0431",
            "lat": "32.68495402",
            "lng": "130.66123453"
        },
        {
            "name": "やき鳥たい",
            "area": "菊陽町",
            "address": "熊本県菊池郡菊陽町津久礼2334-12第1みちのくハイツ1階",
            "postal_code": "869-1101",
            "lat": "32.86122338",
            "lng": "130.79558424"
        },
        {
            "name": "親どりバカ一代益城店",
            "area": "益城町",
            "address": "熊本県上益城郡益城町惣領1429-6",
            "postal_code": "861-2233",
            "lat": "32.78490801",
            "lng": "130.80261879"
        },
        {
            "name": "chang-PLANT",
            "area": "西原村",
            "address": "熊本県阿蘇郡西原村小森３６０２－５",
            "postal_code": "861-2402",
            "lat": "32.83813826",
            "lng": "130.88833873"
        },
        {
            "name": "美食酒家　ゆめぜん　熊本八代店",
            "area": "八代市",
            "address": "熊本県八代市旭中央通２３－１ホテルウィングインターナショナル1F",
            "postal_code": "866-0844",
            "lat": "32.50426755",
            "lng": "130.60637861"
        },
        {
            "name": "福田農場レストランバレンシア館",
            "area": "水俣市",
            "address": "熊本県水俣市陳内2525",
            "postal_code": "867-0000",
            "lat": "32.22781082",
            "lng": "130.41808521"
        },
        {
            "name": "浜崎鮮魚浜んくら",
            "area": "上天草市",
            "address": "熊本県上天草市大矢野町中4416-13浜んくら",
            "postal_code": "869-3603",
            "lat": "32.55093553",
            "lng": "130.43776682"
        },
        {
            "name": "桂花ラーメン本店",
            "area": "熊本市",
            "address": "熊本県熊本市中央区花畑町11-9K-1ビル1F",
            "postal_code": "860-0806",
            "lat": "32.80187493",
            "lng": "130.70737729"
        },
        {
            "name": "KOREAN　DINING　ハヌルオンマ",
            "area": "熊本市",
            "address": "熊本県熊本市中央区下通1丁目9-13IKEZONOビル2F",
            "postal_code": "860-0807",
            "lat": "32.80055006",
            "lng": "130.70804950"
        },
        {
            "name": "リンガーハット熊本富合店",
            "area": "熊本市",
            "address": "熊本県熊本市南区富合町清藤45-1",
            "postal_code": "861-4151",
            "lat": "32.71686541",
            "lng": "130.67665185"
        },
        {
            "name": "フランス料理　塩胡椒",
            "area": "熊本市",
            "address": "熊本県熊本市中央区中唐人町13",
            "postal_code": "860-0028",
            "lat": "32.79714208",
            "lng": "130.69821990"
        },
        {
            "name": "ダイニングTanpopo",
            "area": "玉名市",
            "address": "熊本県玉名市両迫間308新玉名駅内",
            "postal_code": "865-0006",
            "lat": "32.94222231",
            "lng": "130.57399155"
        },
        {
            "name": "ひなたまこっこ",
            "area": "熊本市",
            "address": "熊本県熊本市南区城南町今吉野1000-1",
            "postal_code": "861-4211",
            "lat": "32.71542471",
            "lng": "130.73494482"
        },
        {
            "name": "居酒屋　さくら",
            "area": "熊本市",
            "address": "熊本県熊本市東区東本町1-93",
            "postal_code": "862-0902",
            "lat": "32.77945571",
            "lng": "130.76154365"
        },
        {
            "name": "青柳",
            "area": "熊本市",
            "address": "熊本県熊本市中央区下通1丁目2-10",
            "postal_code": "860-0807",
            "lat": "32.80224433",
            "lng": "130.70794945"
        },
        {
            "name": "レッフェル流通団地店",
            "area": "熊本市",
            "address": "熊本県熊本市南区流通団地2-6",
            "postal_code": "862-0967",
            "lat": "32.76849747",
            "lng": "130.70416751"
        },
        {
            "name": "カフェレスト　ポケット",
            "area": "宇⼟市",
            "address": "熊本県宇土市新松原町49-3",
            "postal_code": "869-0419",
            "lat": "32.68799292",
            "lng": "130.67258084"
        },
        {
            "name": "情報発信館  湯のまち茶屋",
            "area": "⼭⿅市",
            "address": "熊本県山鹿市山鹿1737-1",
            "postal_code": "861-0501",
            "lat": "33.01218357",
            "lng": "130.68825063"
        },
        {
            "name": "瑞恵",
            "area": "熊本市",
            "address": "熊本県熊本市安政町2丁目26川崎ビル1階",
            "postal_code": "860-0801",
            "lat": "32.80322480",
            "lng": "130.70819110"
        },
        {
            "name": "十徳や水前寺店",
            "area": "熊本市",
            "address": "熊本県熊本市中央区水前寺公園7-45",
            "postal_code": "862-0956",
            "lat": "32.78949306",
            "lng": "130.73355637"
        },
        {
            "name": "カンパーニュ",
            "area": "熊本市",
            "address": "熊本県熊本市中央区上通町4-18第3井上ビル5階",
            "postal_code": "860-0845",
            "lat": "32.80415525",
            "lng": "130.71042141"
        },
        {
            "name": "季節料理とお酒　日々季",
            "area": "熊本市",
            "address": "熊本県熊本市中央区下通1丁目11-15春雨堂ビル３Ｆ",
            "postal_code": "860-0807",
            "lat": "32.79993068",
            "lng": "130.70776899"
        },
        {
            "name": "やまが門前美術館",
            "area": "⼭⿅市",
            "address": "熊本県山鹿市山鹿1585",
            "postal_code": "861-0501",
            "lat": "33.01602491",
            "lng": "130.68843109"
        },
        {
            "name": "白玉っ子甘味茶屋",
            "area": "南小国町",
            "address": "熊本県阿蘇郡南小国町満願寺6600-2",
            "postal_code": "869-2402",
            "lat": "33.07728163",
            "lng": "131.14131570"
        },
        {
            "name": "Korean Kitchen 8th",
            "area": "熊本市",
            "address": "熊本県熊本市中央区新市街3-12城後ビル2F",
            "postal_code": "860-0803",
            "lat": "32.79968626",
            "lng": "130.70757735"
        },
        {
            "name": "ダイニング伍乃40",
            "area": "熊本市",
            "address": "熊本県熊本市中央区下通1-9-7キュリオシティビル1F",
            "postal_code": "860-0807",
            "lat": "32.80060283",
            "lng": "130.70743566"
        },
        {
            "name": "喜槍鮨",
            "area": "⼭⿅市",
            "address": "熊本県山鹿市中央通1101",
            "postal_code": "861-0516",
            "lat": "33.01430004",
            "lng": "130.68416484"
        },
        {
            "name": "ステーキマニア浜線店",
            "area": "熊本市",
            "address": "熊本県熊本市東区画図町大字重富441-2",
            "postal_code": "862-0947",
            "lat": "32.76108460",
            "lng": "130.73070192"
        },
        {
            "name": "れすとらん　ボナペティ",
            "area": "熊本市",
            "address": "熊本県熊本市中央区水前寺公園7-45",
            "postal_code": "862-0956",
            "lat": "32.78949306",
            "lng": "130.73355637"
        },
        {
            "name": "十徳やけやき通店",
            "area": "熊本市",
            "address": "熊本県熊本市南区馬渡2-13-8",
            "postal_code": "862-0968",
            "lat": "32.77208061",
            "lng": "130.70776713"
        },
        {
            "name": "菜な　熊本店",
            "area": "熊本市",
            "address": "熊本県熊本市中央区新市街2-8新市街パーキング１Ｆ",
            "postal_code": "860-0803",
            "lat": "32.79970848",
            "lng": "130.70623024"
        },
        {
            "name": "華の番台",
            "area": "⼭⿅市",
            "address": "熊本県山鹿市平山陣の内4998",
            "postal_code": "861-0556",
            "lat": "33.05080477",
            "lng": "130.66009074"
        },
        {
            "name": "Moff animal cafe",
            "area": "熊本市",
            "address": "熊本県熊本市中央区下通１丁目３－８ＣＯＣＯＳＡ３Ｆ",
            "postal_code": "860-0807",
            "lat": "32.80232209",
            "lng": "130.70881326"
        },
        {
            "name": "居酒屋蔵",
            "area": "天草市",
            "address": "熊本県天草市中央新町2-9",
            "postal_code": "863-0023",
            "lat": "32.45638754",
            "lng": "130.19074884"
        },
        {
            "name": "PIZZERIA Tre Passo",
            "area": "南小国町",
            "address": "熊本県阿蘇郡南小国町満願寺7910-1",
            "postal_code": "869-2402",
            "lat": "33.08322229",
            "lng": "131.10743167"
        },
        {
            "name": "馬肉ダイニング 馬桜下通り店",
            "area": "熊本市",
            "address": "熊本県熊本市中央区下通1丁目12-1光園ビル2階",
            "postal_code": "860-0807",
            "lat": "32.80008344",
            "lng": "130.70821894"
        },
        {
            "name": "テルオンチ",
            "area": "熊本市",
            "address": "熊本県熊本市中央区花畑町11-30モニカビルB1",
            "postal_code": "860-0803",
            "lat": "32.80181382",
            "lng": "130.70705788"
        },
        {
            "name": "cafeTerrace　miami",
            "area": "玉名市",
            "address": "熊本県玉名市亀甲34",
            "postal_code": "865-0015",
            "lat": "32.92665415",
            "lng": "130.55509869"
        },
        {
            "name": "Cafe&Meal MUJI",
            "area": "熊本市",
            "address": "熊本県熊本市中央区下通１丁目３－８ＣＯＣＯＳＡ４Ｆ",
            "postal_code": "860-0807",
            "lat": "32.80232209",
            "lng": "130.70881326"
        },
        {
            "name": "トラットリア　ロッカフォルテ　熊本",
            "area": "熊本市",
            "address": "熊本県熊本市中央区草葉町4-10エトワール草葉１０１",
            "postal_code": "860-0843",
            "lat": "32.80633009",
            "lng": "130.71369897"
        },
        {
            "name": "料亭ほりうち",
            "area": "宇城市",
            "address": "熊本県宇城市不知火町高良2578",
            "postal_code": "869-0552",
            "lat": "32.64964910",
            "lng": "130.67177652"
        },
        {
            "name": "馬肉ダイニング 馬桜銀座通り店",
            "area": "熊本市",
            "address": "熊本県熊本市中央区下通１丁目１０－３銀座プレイス熊本３階",
            "postal_code": "860-0807",
            "lat": "32.80026675",
            "lng": "130.70865779"
        },
        {
            "name": "Bouche’sCafe",
            "area": "熊本市",
            "address": "熊本県熊本市中央区上通り町５－１０桜井ビル２Ｆ",
            "postal_code": "860-0845",
            "lat": "32.80423303",
            "lng": "130.71137969"
        },
        {
            "name": "ちゅうぼう隆",
            "area": "天草市",
            "address": "熊本県天草市牛深町13",
            "postal_code": "863-1901",
            "lat": "32.19458312",
            "lng": "130.02523485"
        },
        {
            "name": "武蔵乃",
            "area": "熊本市",
            "address": "熊本県熊本市中央区水前寺5丁目17番15号",
            "postal_code": "862-0950",
            "lat": "32.79658407",
            "lng": "130.73748373"
        },
        {
            "name": "天ぷら天重",
            "area": "熊本市",
            "address": "熊本県熊本市西区二本木2-1-15-1",
            "postal_code": "860-0051",
            "lat": "32.78604860",
            "lng": "130.69214851"
        },
        {
            "name": "炙り焼き　火蓮",
            "area": "熊本市",
            "address": "熊本県熊本市中央区新市街3-11ロゼ花畑間３Ｆ４Ｆ",
            "postal_code": "860-0803",
            "lat": "32.79978625",
            "lng": "130.70730514"
        },
        {
            "name": "肉バル×PIZZそうせき",
            "area": "八代市",
            "address": "熊本県八代市本町1丁目6－20２nd.RITAビル",
            "postal_code": "866-0861",
            "lat": "32.50454520",
            "lng": "130.60356496"
        },
        {
            "name": "ご縁カフェ",
            "area": "熊本市",
            "address": "熊本県熊本市中央区新町2丁目９－１",
            "postal_code": "860-0004",
            "lat": "32.79904190",
            "lng": "130.69919199"
        },
        {
            "name": "お料理まじま",
            "area": "熊本市",
            "address": "熊本県熊本市南区川尻４丁目１３－３４",
            "postal_code": "861-4115",
            "lat": "32.73653035",
            "lng": "130.68273676"
        },
        {
            "name": "ニュー佳楽",
            "area": "宇城市",
            "address": "熊本県宇城市松橋町松橋792番地8",
            "postal_code": "869-0502",
            "lat": "32.65508489",
            "lng": "130.68092021"
        },
        {
            "name": "kichijien cafe",
            "area": "北区",
            "address": "熊本県熊本市北区植木町木留556-1",
            "postal_code": "861-0151",
            "lat": "32.87615408",
            "lng": "130.66105190"
        },
        {
            "name": "餃子の王将　西原店",
            "area": "熊本市",
            "address": "熊本県熊本市東区西原1-11-36",
            "postal_code": "861-8029",
            "lat": "32.81591313",
            "lng": "130.75117452"
        },
        {
            "name": "夢菜や　僚華",
            "area": "熊本市",
            "address": "熊本県熊本市中央区花畑町11-30モニカビル1F",
            "postal_code": "860-0806",
            "lat": "32.80181382",
            "lng": "130.70705788"
        },
        {
            "name": "ドラゴンキッチンダイナスティ光の森店",
            "area": "菊陽町",
            "address": "熊本県菊池郡菊陽町光の森7丁目8番9号",
            "postal_code": "869-1108",
            "lat": "32.86275109",
            "lng": "130.78485736"
        },
        {
            "name": "有限会社料理三昧彦六",
            "area": "⼈吉市・球磨郡",
            "address": "熊本県球磨郡あさぎり町免田東1497-13",
            "postal_code": "868-0408",
            "lat": "32.23468541",
            "lng": "130.89287395"
        },
        {
            "name": "居酒家　金之助",
            "area": "八代市",
            "address": "熊本県八代市本町1丁目2－31",
            "postal_code": "866-0861",
            "lat": "32.50491188",
            "lng": "130.60468430"
        },
        {
            "name": "西銀ぼたん",
            "area": "熊本市",
            "address": "熊本県熊本市中央区新市街2-6サンタカラヤビル１Ｆ",
            "postal_code": "860-0803",
            "lat": "32.79992513",
            "lng": "130.70608858"
        },
        {
            "name": "豆腐レストラン花唐符",
            "area": "南小国町",
            "address": "熊本県阿蘇郡南小国町中原846-3",
            "postal_code": "869-2403",
            "lat": "33.05323107",
            "lng": "131.06667741"
        },
        {
            "name": "餃子の王将　熊本近見店",
            "area": "熊本市",
            "address": "熊本県熊本市南区近見6-1-40",
            "postal_code": "861-4101",
            "lat": "32.76663067",
            "lng": "130.69170464"
        },
        {
            "name": "レストラン しゃくなげ",
            "area": "山都町",
            "address": "熊本県上益城郡山都町長原192-1国民宿舎通潤山荘1階",
            "postal_code": "861-3661",
            "lat": "32.68010853",
            "lng": "130.99199059"
        },
        {
            "name": "居酒屋勘吉",
            "area": "嘉島町",
            "address": "熊本県上益城郡嘉島町大字鯰1869-1",
            "postal_code": "861-3101",
            "lat": "32.74484446",
            "lng": "130.74004626"
        },
        {
            "name": "餃子ゆでタンANTONIO",
            "area": "熊本市",
            "address": "熊本県熊本市中央区下通2-2-30",
            "postal_code": "860-0807",
            "lat": "32.79903633",
            "lng": "130.70783012"
        },
        {
            "name": "光の森ごちそう　金之助",
            "area": "菊陽町",
            "address": "熊本県菊池郡菊陽町光の森7丁目25－3",
            "postal_code": "869-1108",
            "lat": "32.86267607",
            "lng": "130.78921809"
        },
        {
            "name": "美味彩館　味千美よし",
            "area": "天草市",
            "address": "熊本県天草市久玉町5711-18",
            "postal_code": "863-1902",
            "lat": "32.20772940",
            "lng": "130.02974236"
        },
        {
            "name": "座敷　僚華",
            "area": "熊本市",
            "address": "熊本県熊本市中央区花畑町11-30モニカビル3F",
            "postal_code": "860-0806",
            "lat": "32.80181382",
            "lng": "130.70705788"
        },
        {
            "name": "焼肉ウエスト熊本店",
            "area": "北区",
            "address": "熊本県熊本市北区楠野町１０５７－１",
            "postal_code": "861-5511",
            "lat": "32.87809029",
            "lng": "130.70116281"
        },
        {
            "name": "山本食堂",
            "area": "八代市",
            "address": "熊本県八代市本町1丁目６－８",
            "postal_code": "866-0861",
            "lat": "32.50436190",
            "lng": "130.60401492"
        },
        {
            "name": "親どりバカ一代大津店",
            "area": "大津町",
            "address": "熊本県菊池郡大津町室401-10",
            "postal_code": "869-1235",
            "lat": "32.87282631",
            "lng": "130.86600666"
        },
        {
            "name": "うどんウエスト富合店",
            "area": "熊本市",
            "address": "熊本県熊本市南区富合町田尻１６３",
            "postal_code": "861-4156",
            "lat": "32.70462476",
            "lng": "130.67324144"
        },
        {
            "name": "四季の味わらく",
            "area": "菊池市",
            "address": "熊本県菊池市七城町清水63番地2",
            "postal_code": "861-1341",
            "lat": "32.95595097",
            "lng": "130.77440067"
        },
        {
            "name": "肥後大津ごちそう　金之助",
            "area": "大津町",
            "address": "熊本県菊池郡大津町大津1094",
            "postal_code": "869-1233",
            "lat": "32.87931467",
            "lng": "130.86888685"
        },
        {
            "name": "餃子の王将　下通店",
            "area": "熊本市",
            "address": "熊本県熊本市中央区下通1-11-12田尻ビル1F",
            "postal_code": "860-0807",
            "lat": "32.80017788",
            "lng": "130.70786064"
        },
        {
            "name": "焼肉ふじの蔵",
            "area": "菊陽町",
            "address": "熊本県菊池郡菊陽町津久礼2145－1",
            "postal_code": "869-1101",
            "lat": "32.85795434",
            "lng": "130.79172631"
        },
        {
            "name": "炭火・焼鳥鶫",
            "area": "熊本市",
            "address": "熊本県熊本市中央区新市街ヴィラキムラビル1F",
            "postal_code": "860-0803",
            "lat": "32.79856971",
            "lng": "130.70604974"
        },
        {
            "name": "親どりバカ一代新水前寺駅前店",
            "area": "熊本市",
            "address": "熊本県熊本市中央区国府１丁目11-3",
            "postal_code": "862-0949",
            "lat": "32.79318430",
            "lng": "130.72695394"
        },
        {
            "name": "うどんウエスト大津バイパス店",
            "area": "菊陽町",
            "address": "熊本県菊池郡菊陽町原水２９４５",
            "postal_code": "869-1102",
            "lat": "32.87557267",
            "lng": "130.85196913"
        },
        {
            "name": "ほこすぎあるくカフェ",
            "area": "小国町",
            "address": "熊本県阿蘇郡小国町宮原1492ほこすぎあるくカフェ",
            "postal_code": "869-2501",
            "lat": "33.12614756",
            "lng": "131.06378528"
        },
        {
            "name": "センターリバーｊｒ",
            "area": "熊本市",
            "address": "熊本県熊本市西区春日3丁目15-30肥後よかモン市場内",
            "postal_code": "860-0047",
            "lat": "32.78976213",
            "lng": "130.68819320"
        },
        {
            "name": "ANAクラウンプラザホテル熊本ニュースカイ　レストランサンシエロ",
            "area": "熊本市",
            "address": "熊本県熊本市中央区東阿弥陀寺町２",
            "postal_code": "860-8575",
            "lat": "32.79360073",
            "lng": "130.69653959"
        },
        {
            "name": "そば幸茶屋　浜線店",
            "area": "熊本市",
            "address": "熊本県熊本市東区画図町重富430-1",
            "postal_code": "862-0947",
            "lat": "32.75980695",
            "lng": "130.73175745"
        },
        {
            "name": "ANAクラウンプラザホテル熊本ニュースカイ　フェリーチェ",
            "area": "熊本市",
            "address": "熊本県熊本市中央区東阿弥陀寺町２",
            "postal_code": "860-8575",
            "lat": "32.79360073",
            "lng": "130.69653959"
        },
        {
            "name": "焼とり　幸光",
            "area": "北区",
            "address": "熊本県熊本市北区龍田1-1-1",
            "postal_code": "861-8006",
            "lat": "32.82865092",
            "lng": "130.75392733"
        },
        {
            "name": "居酒屋一喜",
            "area": "玉名市",
            "address": "熊本県玉名市繁根木283-4",
            "postal_code": "865-0051",
            "lat": "32.92662640",
            "lng": "130.55895696"
        },
        {
            "name": "料理屋八",
            "area": "熊本市",
            "address": "熊本県熊本市中央区新市街3-28長嶋ビル１Ｆ",
            "postal_code": "860-0803",
            "lat": "32.79970571",
            "lng": "130.70707183"
        },
        {
            "name": "焼肉ウエスト大津バイパス店",
            "area": "菊陽町",
            "address": "熊本県菊池郡菊陽町原水２９４５",
            "postal_code": "869-1102",
            "lat": "32.87557267",
            "lng": "130.85196913"
        },
        {
            "name": "門限やぶり熊本光の森店",
            "area": "北区",
            "address": "熊本県熊本市北区武蔵ケ丘1-15-6",
            "postal_code": "861-8001",
            "lat": "32.85278797",
            "lng": "130.76802601"
        },
        {
            "name": "チャイナダイニング天翔",
            "area": "熊本市",
            "address": "熊本県熊本市西区二本木3-4-25",
            "postal_code": "860-0051",
            "lat": "32.78424317",
            "lng": "130.69047092"
        },
        {
            "name": "mio camino AMAKUSA　カフェ",
            "area": "上天草市",
            "address": "熊本県上天草市松島町合津6215-17",
            "postal_code": "861-6102",
            "lat": "32.52710694",
            "lng": "130.42586038"
        },
        {
            "name": "そば幸　清水店",
            "area": "北区",
            "address": "熊本県熊本市北区山室5丁目5-1",
            "postal_code": "860-0084",
            "lat": "32.84498791",
            "lng": "130.71644875"
        },
        {
            "name": "岡田珈琲サテライト店",
            "area": "熊本市",
            "address": "熊本県熊本市中央区上通町1-20　2F",
            "postal_code": "860-0845",
            "lat": "32.80334420",
            "lng": "130.71038531"
        },
        {
            "name": "炭火焼肉喰会",
            "area": "宇⼟市",
            "address": "熊本県宇土市善道寺町163",
            "postal_code": "869-0418",
            "lat": "32.68369604",
            "lng": "130.67022001"
        },
        {
            "name": "缶詰BAR kan缶",
            "area": "水俣市",
            "address": "熊本県水俣市浜町1丁目1番17号中村ビル1階",
            "postal_code": "867-0065",
            "lat": "32.21075434",
            "lng": "130.40240670"
        },
        {
            "name": "白水温泉竹の倉山荘",
            "area": "南阿蘇村",
            "address": "熊本県阿蘇郡南阿蘇村中松2065番地",
            "postal_code": "869-1505",
            "lat": "32.84402113",
            "lng": "131.04429665"
        },
        {
            "name": "T-FLOWERS GIFT&CAFE",
            "area": "熊本市",
            "address": "熊本県熊本市西区二本木5丁目３ー61階",
            "postal_code": "860-0051",
            "lat": "32.78074065",
            "lng": "130.68839896"
        },
        {
            "name": "mio camino AMAKUSA　バーベキュー",
            "area": "上天草市",
            "address": "熊本県上天草市松島町合津6215-17",
            "postal_code": "861-6102",
            "lat": "32.52710694",
            "lng": "130.42586038"
        },
        {
            "name": "餃子の王将　ゆめタウンはません店",
            "area": "熊本市",
            "address": "熊本県熊本市南区田井島1丁目2-1ゆめタウンはません1階",
            "postal_code": "862-0965",
            "lat": "32.77173083",
            "lng": "130.72643242"
        },
        {
            "name": "十徳や近見店",
            "area": "熊本市",
            "address": "熊本県熊本市南区日吉2-1-45",
            "postal_code": "861-4109",
            "lat": "32.75983939",
            "lng": "130.68788290"
        },
        {
            "name": "Brooklyn",
            "area": "熊本市",
            "address": "熊本県熊本市中央区新市街13-12上野ビル1F",
            "postal_code": "860-0803",
            "lat": "32.79756426",
            "lng": "130.70680804"
        },
        {
            "name": "焼肉ウエスト荒尾店",
            "area": "荒尾市",
            "address": "熊本県荒尾市荒尾４１８６－１３３",
            "postal_code": "864-0041",
            "lat": "32.98545788",
            "lng": "130.46628927"
        },
        {
            "name": "スターライトカフェ",
            "area": "熊本市",
            "address": "熊本県熊本市中央区出水7-95-3",
            "postal_code": "862-0941",
            "lat": "32.77069485",
            "lng": "130.72929058"
        },
        {
            "name": "あや鶏熊本下通店",
            "area": "熊本市",
            "address": "熊本県熊本市中央区安政町6-4-2ルナファ－ストビル2F",
            "postal_code": "860-0801",
            "lat": "32.80135552",
            "lng": "130.71032427"
        },
        {
            "name": "熊本ホテルキャッスル　1F　キャッスルクラブ　エルドラード",
            "area": "熊本市",
            "address": "熊本県熊本市中央区城東町４番２号",
            "postal_code": "860-8565",
            "lat": "32.80504684",
            "lng": "130.70992423"
        },
        {
            "name": "VIKING BAKERY F 熊本店",
            "area": "熊本市",
            "address": "熊本県熊本市中央区新市街13-26山田ビル1F",
            "postal_code": "860-0803",
            "lat": "32.79779479",
            "lng": "130.70614142"
        },
        {
            "name": "センターリバー　石原店",
            "area": "熊本市",
            "address": "熊本県熊本市東区石原2丁目3番1号",
            "postal_code": "861-8014",
            "lat": "32.84100575",
            "lng": "130.78061098"
        },
        {
            "name": "十徳や田崎市場店",
            "area": "熊本市",
            "address": "熊本県熊本市西区春日７丁目１９－３４",
            "postal_code": "860-0047",
            "lat": "32.78506245",
            "lng": "130.68129666"
        },
        {
            "name": "二十四節季　菜な　みずき",
            "area": "熊本市",
            "address": "熊本県熊本市中央区下通2丁目1-31味万ビル２Ｆ",
            "postal_code": "860-0807",
            "lat": "32.79957238",
            "lng": "130.70819118"
        },
        {
            "name": "酒菜家 吾ノ倉庫",
            "area": "熊本市",
            "address": "熊本県熊本市西区上熊本1-3-17",
            "postal_code": "860-0079",
            "lat": "32.81282955",
            "lng": "130.70134989"
        },
        {
            "name": "焼肉ウエスト山鹿店",
            "area": "⼭⿅市",
            "address": "熊本県山鹿市方保田２８４０",
            "postal_code": "861-0382",
            "lat": "33.00605679",
            "lng": "130.71662053"
        },
        {
            "name": "味千拉麺　光の森店",
            "area": "菊陽町",
            "address": "熊本県菊池郡菊陽町光の森2-23-5",
            "postal_code": "869-1108",
            "lat": "32.85821549",
            "lng": "130.78247993"
        },
        {
            "name": "Steak Saloon薔薇亭",
            "area": "熊本市",
            "address": "熊本県熊本市中央区下通1丁目7番24号サンスポットマツフジビル2階",
            "postal_code": "860-0807",
            "lat": "32.80116389",
            "lng": "130.70734954"
        },
        {
            "name": "御料理　晴屋",
            "area": "玉名市",
            "address": "熊本県玉名市岱明町野口1154-3",
            "postal_code": "869-0222",
            "lat": "32.91693498",
            "lng": "130.52024538"
        },
        {
            "name": "火の国ハイツ　レストランはなしのぶ",
            "area": "熊本市",
            "address": "熊本県熊本市東区石原2丁目2-28",
            "postal_code": "861-8046",
            "lat": "32.84056967",
            "lng": "130.78174697"
        },
        {
            "name": "岡田珈琲グランガーデン店",
            "area": "熊本市",
            "address": "熊本県熊本市中央区城東町4-7グランガーデン熊本ビル　1F",
            "postal_code": "860-0846",
            "lat": "32.80553291",
            "lng": "130.71008254"
        },
        {
            "name": "うどんウエスト山鹿店",
            "area": "⼭⿅市",
            "address": "熊本県山鹿市方保田２８４０",
            "postal_code": "861-0382",
            "lat": "33.00605679",
            "lng": "130.71662053"
        },
        {
            "name": "道とん堀　熊本インター店",
            "area": "熊本市",
            "address": "熊本県熊本市東区石原1丁目1-130",
            "postal_code": "861-8046",
            "lat": "32.83768100",
            "lng": "130.77840291"
        },
        {
            "name": "魚粋",
            "area": "熊本市",
            "address": "熊本県熊本市中央区新市街９番1号ハローレデイビルＢ1",
            "postal_code": "860-0803",
            "lat": "32.79871414",
            "lng": "130.70660802"
        },
        {
            "name": "うまかっさい",
            "area": "熊本市",
            "address": "熊本県熊本市中央区下通1-7-7GMビル1階D号",
            "postal_code": "860-0807",
            "lat": "32.80123055",
            "lng": "130.70776617"
        },
        {
            "name": "温泉邸湯～庵　「和楽」",
            "area": "北区",
            "address": "熊本県熊本市北区植木町亀甲1526-1温泉邸湯～庵２Ｆ",
            "postal_code": "861-0127",
            "lat": "32.93568649",
            "lng": "130.72491347"
        },
        {
            "name": "焼鳥華備",
            "area": "熊本市",
            "address": "熊本県熊本市中央区花畑町13-26第一銀杏ビル1F",
            "postal_code": "860-0806",
            "lat": "32.80060562",
            "lng": "130.70638020"
        },
        {
            "name": "松海苑",
            "area": "宇城市",
            "address": "熊本県宇城市不知火町永尾197",
            "postal_code": "869-3471",
            "lat": "32.63090797",
            "lng": "130.61243652"
        },
        {
            "name": "しゃぶしゃぶ ばら亭",
            "area": "熊本市",
            "address": "熊本県熊本市中央区下通1丁目7番24号サンスポットマツフジビル4階",
            "postal_code": "860-0807",
            "lat": "32.80116389",
            "lng": "130.70734954"
        },
        {
            "name": "200円BAR 秘密基地アジト熊本",
            "area": "熊本市",
            "address": "熊本県熊本市中央区新市街6-20玉屋通り",
            "postal_code": "860-0803",
            "lat": "32.79929186",
            "lng": "130.70692464"
        },
        {
            "name": "和酒バー凛音",
            "area": "熊本市",
            "address": "熊本県熊本市中央区新市街3-11ロゼ花畑館5Ｆ",
            "postal_code": "860-0803",
            "lat": "32.79978625",
            "lng": "130.70730514"
        },
        {
            "name": "道とん堀　西熊本店",
            "area": "熊本市",
            "address": "熊本県熊本市南区島町3丁目1-1イオンタウン敷地内",
            "postal_code": "861-4133",
            "lat": "32.76444315",
            "lng": "130.68271457"
        },
        {
            "name": "旬和食と郷土料理季凛",
            "area": "熊本市",
            "address": "熊本県熊本市中央区花畑町13-49第3リキビルBF1",
            "postal_code": "860-0806",
            "lat": "32.80081948",
            "lng": "130.70679127"
        },
        {
            "name": "かごめ家",
            "area": "熊本市",
            "address": "熊本県熊本市中央区安政町2-29セントラルビル２Ｆ",
            "postal_code": "860-0801",
            "lat": "32.80175548",
            "lng": "130.71025482"
        },
        {
            "name": "道とん堀　健軍店",
            "area": "熊本市",
            "address": "熊本県熊本市東区健軍本町21-1",
            "postal_code": "862-0910",
            "lat": "32.78808538",
            "lng": "130.75661603"
        },
        {
            "name": "黒龍紅ラーメン駅前本店",
            "area": "熊本市",
            "address": "熊本県熊本市西区春日2-5-7",
            "postal_code": "860-0047",
            "lat": "32.78732902",
            "lng": "130.68995700"
        },
        {
            "name": "串あげきよた",
            "area": "熊本市",
            "address": "熊本県熊本市中央区草葉町4番10号エトワール草葉１階103-Ｂ号",
            "postal_code": "860-0843",
            "lat": "32.80633009",
            "lng": "130.71369897"
        },
        {
            "name": "焼鳥　平蔵",
            "area": "熊本市",
            "address": "熊本県熊本市中央区下通1-11-20丁半ビル2F",
            "postal_code": "860-0807",
            "lat": "32.80008622",
            "lng": "130.70741624"
        },
        {
            "name": "前川珈琲店",
            "area": "熊本市",
            "address": "熊本県熊本市東区戸島西2丁目4-30",
            "postal_code": "861-8043",
            "lat": "32.81310010",
            "lng": "130.78300564"
        },
        {
            "name": "熊本ホテルキャッスル　1F　ダイニングキッチン　九曜杏",
            "area": "熊本市",
            "address": "熊本県熊本市中央区城東町４番２号ホテルキャッスル1F",
            "postal_code": "860-8565",
            "lat": "32.80504684",
            "lng": "130.70992423"
        },
        {
            "name": "FLAVEDO par LISETTE",
            "area": "熊本市",
            "address": "熊本県熊本市中央区水道町４番２号T-brioビル地階",
            "postal_code": "860-0844",
            "lat": "32.80474689",
            "lng": "130.71313235"
        },
        {
            "name": "水とり熊本",
            "area": "熊本市",
            "address": "熊本県熊本市南区江越２丁目22-33",
            "postal_code": "860-0834",
            "lat": "32.77211930",
            "lng": "130.69922889"
        },
        {
            "name": "日本料理　白式尉",
            "area": "熊本市",
            "address": "熊本県熊本市東区花立5-10-15",
            "postal_code": "862-0918",
            "lat": "32.78912745",
            "lng": "130.77379277"
        },
        {
            "name": "地菜地食ふるしょう",
            "area": "合志市",
            "address": "熊本県合志市御代志2086-32",
            "postal_code": "861-1104",
            "lat": "32.89093402",
            "lng": "130.74250145"
        },
        {
            "name": "熊本ホテルキャッスル　BF　中国四川料理　桃花源",
            "area": "熊本市",
            "address": "熊本県熊本市中央区城東町４番２号",
            "postal_code": "860-8565",
            "lat": "32.80504684",
            "lng": "130.70992423"
        },
        {
            "name": "漁師割烹　頼藤",
            "area": "八代市",
            "address": "熊本県八代市港町69-2",
            "postal_code": "866-0033",
            "lat": "32.50963283",
            "lng": "130.57417611"
        },
        {
            "name": "お好み焼あたりや",
            "area": "熊本市",
            "address": "熊本県熊本市中央区水前寺三丁目30-27フェリーチェ水前寺1F",
            "postal_code": "862-0950",
            "lat": "32.79813388",
            "lng": "130.73389505"
        },
        {
            "name": "熊本炉端安坐",
            "area": "熊本市",
            "address": "熊本県熊本市中央区下通1丁目10-3銀座プレイスKUMAMOTO2F",
            "postal_code": "860-0807",
            "lat": "32.80026675",
            "lng": "130.70865779"
        },
        {
            "name": "すき焼　加茂川",
            "area": "熊本市",
            "address": "熊本県熊本市中央区上通町2-6",
            "postal_code": "860-0845",
            "lat": "32.80361641",
            "lng": "130.71077973"
        },
        {
            "name": "宮原サービスエリア下り線いきなりステーキ／フードコート",
            "area": "氷川町",
            "address": "熊本県八代郡氷川町早尾1051",
            "postal_code": "869-4606",
            "lat": "32.54244918",
            "lng": "130.68219629"
        },
        {
            "name": "もなか",
            "area": "熊本市",
            "address": "熊本県熊本市中央区下通1丁目6-12天神壱番館2Ｆ",
            "postal_code": "860-0807",
            "lat": "32.80119165",
            "lng": "130.70970211"
        },
        {
            "name": "海鮮レストランやまがや",
            "area": "⼭⿅市",
            "address": "熊本県山鹿市古閑1031-1",
            "postal_code": "861-0533",
            "lat": "33.00877309",
            "lng": "130.71116261"
        },
        {
            "name": "阿蘇くまもと空港フードコート　くすのき",
            "area": "益城町",
            "address": "熊本県上益城郡益城町小谷1802-2",
            "postal_code": "861-2204",
            "lat": "32.83472672",
            "lng": "130.85913024"
        },
        {
            "name": "ホルモンマン",
            "area": "熊本市",
            "address": "熊本県熊本市中央区下通1丁目6-12天神壱番館1Ｆ",
            "postal_code": "860-0807",
            "lat": "32.80119165",
            "lng": "130.70970211"
        },
        {
            "name": "馬肉郷土料理けんぞう",
            "area": "熊本市",
            "address": "熊本県熊本市中央区下通1丁目8－24七光ビルB1",
            "postal_code": "860-0807",
            "lat": "32.80073059",
            "lng": "130.70871888"
        },
        {
            "name": "バードマン",
            "area": "熊本市",
            "address": "熊本県熊本市中央区下通1丁目9-8エクストールイン熊本銀座通1Ｆ",
            "postal_code": "860-0807",
            "lat": "32.80065005",
            "lng": "130.70759676"
        },
        {
            "name": "阿蘇くまもと空港フードコート　りんどう",
            "area": "益城町",
            "address": "熊本県上益城郡益城町小谷1802-2",
            "postal_code": "861-2204",
            "lat": "32.83472672",
            "lng": "130.85913024"
        },
        {
            "name": "グリル末松",
            "area": "熊本市",
            "address": "熊本県熊本市中央区中央街4番1号",
            "postal_code": "860-0802",
            "lat": "32.80066948",
            "lng": "130.70986878"
        },
        {
            "name": "和食　詩織",
            "area": "熊本市",
            "address": "熊本県熊本市中央区下通1丁目4-24正清ビル１階",
            "postal_code": "860-0807",
            "lat": "32.80184715",
            "lng": "130.70801612"
        },
        {
            "name": "パーラーヒバリ",
            "area": "熊本市",
            "address": "熊本県熊本市中央区新市街1-12新市街バナービル1Ｆ",
            "postal_code": "860-0803",
            "lat": "32.79955295",
            "lng": "130.70573307"
        },
        {
            "name": "とんかつ勝烈亭新市街本店",
            "area": "熊本市",
            "address": "熊本県熊本市中央区新市街8-18",
            "postal_code": "860-0803",
            "lat": "32.79862248",
            "lng": "130.70584975"
        },
        {
            "name": "ひづき",
            "area": "熊本市",
            "address": "熊本県熊本市中央区新市街6-2グリーンライト5ビル1F",
            "postal_code": "860-0803",
            "lat": "32.79935574",
            "lng": "130.70718017"
        },
        {
            "name": "来来亭本山店",
            "area": "熊本市",
            "address": "熊本県熊本市中央区本山町131番地来来亭",
            "postal_code": "860-0822",
            "lat": "32.78516267",
            "lng": "130.70102280"
        },
        {
            "name": "阿蘇くまもと空港フードコート　空福亭",
            "area": "益城町",
            "address": "熊本県上益城郡益城町小谷1802-2",
            "postal_code": "861-2204",
            "lat": "32.83472672",
            "lng": "130.85913024"
        },
        {
            "name": "星のバル",
            "area": "熊本市",
            "address": "熊本県熊本市中央区下通1-8-15ありあビル地下1階",
            "postal_code": "860-0807",
            "lat": "32.80055839",
            "lng": "130.70952992"
        },
        {
            "name": "とんかつ勝烈亭　南熊本店",
            "area": "熊本市",
            "address": "熊本県熊本市中央区萩原町2-5",
            "postal_code": "860-0832",
            "lat": "32.78308800",
            "lng": "130.70978606"
        },
        {
            "name": "阿蘇白水温泉瑠璃　レストランくらら",
            "area": "南阿蘇村",
            "address": "熊本県阿蘇郡南阿蘇村一関1260-1",
            "postal_code": "869-1504",
            "lat": "32.83526947",
            "lng": "131.06914760"
        },
        {
            "name": "彩Dining炭大",
            "area": "熊本市",
            "address": "熊本県熊本市中央区出水1丁目6番4号水前寺奥村ビル1F",
            "postal_code": "862-0941",
            "lat": "32.78943473",
            "lng": "130.73272865"
        },
        {
            "name": "ホテル日航熊本　広東料理「桃李」",
            "area": "熊本市",
            "address": "熊本県熊本市上通町2-1",
            "postal_code": "860-8536",
            "lat": "32.80322480",
            "lng": "130.70819110"
        },
        {
            "name": "ホテル日航熊本　ブッフェダイニング「アソシェッド」",
            "area": "熊本市",
            "address": "熊本県熊本市上通町2-1-2F",
            "postal_code": "860-8536",
            "lat": "32.80322480",
            "lng": "130.70819110"
        },
        {
            "name": "韓国食堂十八番　並木坂店",
            "area": "熊本市",
            "address": "熊本県熊本市中央区上林町3-33こむらさき本店ビル1F-2号室",
            "postal_code": "860-0847",
            "lat": "32.80817992",
            "lng": "130.71198518"
        },
        {
            "name": "ま～ちゃん食堂",
            "area": "熊本市",
            "address": "熊本県熊本市西区蓮台寺1-11-26",
            "postal_code": "860-0055",
            "lat": "32.77660487",
            "lng": "130.68885737"
        },
        {
            "name": "韓国食堂十八番　保田窪店",
            "area": "熊本市",
            "address": "熊本県熊本市東区保田窪3-1-1",
            "postal_code": "862-0926",
            "lat": "32.80748051",
            "lng": "130.74868297"
        },
        {
            "name": "ホテル日航熊本　フランス料理「レ・セレブリテ」",
            "area": "熊本市",
            "address": "熊本県熊本市上通町2-1",
            "postal_code": "860-8536",
            "lat": "32.80322480",
            "lng": "130.70819110"
        },
        {
            "name": "熊本労災病院外来食堂グリル",
            "area": "八代市",
            "address": "熊本県八代市竹原町１６７０",
            "postal_code": "866-8533",
            "lat": "32.51647319",
            "lng": "130.62742732"
        },
        {
            "name": "ホテル日航熊本　ティー＆カクテルラウンジ「ファウンテン」",
            "area": "熊本市",
            "address": "熊本県熊本市上通町2-1",
            "postal_code": "860-8536",
            "lat": "32.80322480",
            "lng": "130.70819110"
        },
        {
            "name": "ホルモンマン平成店",
            "area": "熊本市",
            "address": "熊本県熊本市南区馬渡2-9-5",
            "postal_code": "862-0968",
            "lat": "32.77484706",
            "lng": "130.70793092"
        },
        {
            "name": "イタリア料理アンティコカステッロ",
            "area": "熊本市",
            "address": "熊本県熊本市中央区桜町2-31津下ビル1F",
            "postal_code": "860-0805",
            "lat": "32.80085839",
            "lng": "130.70127231"
        },
        {
            "name": "熊本居酒屋いわ幸",
            "area": "熊本市",
            "address": "熊本県熊本市中央区黒髪2丁目34ー3",
            "postal_code": "860-0862",
            "lat": "32.81386560",
            "lng": "130.72449266"
        },
        {
            "name": "懐食田しろ",
            "area": "熊本市",
            "address": "熊本県熊本市中央区城東町2-６モアーズビル３１F",
            "postal_code": "860-0846",
            "lat": "32.80425246",
            "lng": "130.70950482"
        },
        {
            "name": "とり鉄熊本下通店",
            "area": "熊本市",
            "address": "熊本県熊本市中央区下通1丁目4-7熊本ビル1階",
            "postal_code": "860-0807",
            "lat": "32.80212768",
            "lng": "130.70773836"
        },
        {
            "name": "熊本串カツ　わさもん酒場",
            "area": "熊本市",
            "address": "熊本県熊本市東区若葉1丁目12-1オカムラビル　1階",
            "postal_code": "862-0903",
            "lat": "32.77767807",
            "lng": "130.76086872"
        },
        {
            "name": "阿蘇カフェSOSUI（南阿蘇菓子処　蘇水）",
            "area": "高森町",
            "address": "熊本県阿蘇郡高森町高森1293-2",
            "postal_code": "869-1602",
            "lat": "32.81689897",
            "lng": "131.12591617"
        },
        {
            "name": "仕出し・宴会　日本酒ダイニング　赤ほこ",
            "area": "熊本市",
            "address": "熊本県熊本市東区戸島２－６－６４",
            "postal_code": "861-8041",
            "lat": "32.81884387",
            "lng": "130.79698483"
        },
        {
            "name": "焼肉さぼたん",
            "area": "熊本市",
            "address": "熊本県熊本市中央区九品寺4丁目２－２１ロータスビル１F",
            "postal_code": "862-0976",
            "lat": "32.79613389",
            "lng": "130.71422974"
        },
        {
            "name": "ニュー魚かし",
            "area": "熊本市",
            "address": "熊本県熊本市東区新南部3丁目10ー53",
            "postal_code": "861-8028",
            "lat": "32.81293836",
            "lng": "130.74934683"
        },
        {
            "name": "笑らか",
            "area": "熊本市",
            "address": "熊本県熊本市東区若葉1丁目14-4ピアクレスUB号室",
            "postal_code": "862-0903",
            "lat": "32.77649762",
            "lng": "130.76094930"
        },
        {
            "name": "満潮",
            "area": "熊本市",
            "address": "熊本県熊本市中央区水前寺6－33－19",
            "postal_code": "862-0950",
            "lat": "32.78870996",
            "lng": "130.74420289"
        },
        {
            "name": "家庭料理　ぶるぶる",
            "area": "熊本市",
            "address": "熊本県熊本市東区戸島７丁目８－７",
            "postal_code": "861-8041",
            "lat": "32.81741070",
            "lng": "130.80232618"
        },
        {
            "name": "ステーキマニア光の森店",
            "area": "菊陽町",
            "address": "熊本県菊池郡菊陽町光の森2丁目16-1",
            "postal_code": "869-1108",
            "lat": "32.86052631",
            "lng": "130.78135219"
        },
        {
            "name": "海女ちゃん食堂乙姫屋",
            "area": "上天草市",
            "address": "熊本県上天草市湯島509",
            "postal_code": "869-3711",
            "lat": "32.58741880",
            "lng": "130.43052920"
        },
        {
            "name": "お食事処坊中亭",
            "area": "阿蘇市",
            "address": "熊本県阿蘇市黒川字山下無番地ＪＲ阿蘇駅構内",
            "postal_code": "869-2225",
            "lat": "32.93374313",
            "lng": "131.07927775"
        },
        {
            "name": "酒蔵角松",
            "area": "熊本市",
            "address": "熊本県熊本市中央区練兵町10",
            "postal_code": "860-0017",
            "lat": "32.79798922",
            "lng": "130.70383606"
        },
        {
            "name": "味処お川",
            "area": "熊本市",
            "address": "熊本県熊本市中央区上通町４ー１０とらやビル３Ｆ",
            "postal_code": "860-0845",
            "lat": "32.80454410",
            "lng": "130.71045474"
        },
        {
            "name": "博多一番どり居食家あらい上熊本店",
            "area": "熊本市",
            "address": "熊本県熊本市西区上熊本3丁目16-13",
            "postal_code": "860-0079",
            "lat": "32.82467303",
            "lng": "130.69865556"
        },
        {
            "name": "kitchen明ヵ里",
            "area": "北区",
            "address": "熊本県熊本市北区植木町亀甲259-4",
            "postal_code": "861-0127",
            "lat": "32.93121416",
            "lng": "130.69895995"
        },
        {
            "name": "㈲阿蘇山上茶店",
            "area": "南阿蘇村",
            "address": "熊本県阿蘇郡南阿蘇村中松8845-12",
            "postal_code": "869-1505",
            "lat": "32.87980307",
            "lng": "131.07398193"
        },
        {
            "name": "ワインバー ソムリエ築田",
            "area": "熊本市",
            "address": "熊本県熊本市中央区花畑町13-28トライビル3F",
            "postal_code": "860-0806",
            "lat": "32.80085003",
            "lng": "130.70641074"
        },
        {
            "name": "旬菜旬魚悠旗",
            "area": "熊本市",
            "address": "熊本県熊本市東区長嶺南3丁目8-80",
            "postal_code": "861-8039",
            "lat": "32.81086690",
            "lng": "130.77014274"
        },
        {
            "name": "創作和食ダイニング善",
            "area": "玉名市",
            "address": "熊本県玉名市中1591-8",
            "postal_code": "865-0064",
            "lat": "32.92856501",
            "lng": "130.54542956"
        },
        {
            "name": "リップルランド",
            "area": "天草市",
            "address": "熊本県天草市有明町上津浦１９５５",
            "postal_code": "861-7311",
            "lat": "32.50551882",
            "lng": "130.30576013"
        },
        {
            "name": "割烹仕出しほんだ",
            "area": "北区",
            "address": "熊本県熊本市北区植木町一木170-2",
            "postal_code": "861-0135",
            "lat": "32.90248543",
            "lng": "130.69146619"
        },
        {
            "name": "居酒屋座忘",
            "area": "八代市",
            "address": "熊本県八代市古閑中町1207",
            "postal_code": "866-0898",
            "lat": "32.52742417",
            "lng": "130.60662553"
        },
        {
            "name": "もぐり漁師の店天草海士宴",
            "area": "熊本市",
            "address": "熊本県熊本市中央区花畑町13-17甚兵衛ビル地下",
            "postal_code": "860-0806",
            "lat": "32.80016399",
            "lng": "130.70658575"
        },
        {
            "name": "大阪王将菊陽店",
            "area": "菊陽町",
            "address": "熊本県菊池郡菊陽町津久礼2191-3",
            "postal_code": "869-1101",
            "lat": "32.85942641",
            "lng": "130.79130687"
        },
        {
            "name": "博多一番どり健軍店",
            "area": "熊本市",
            "address": "熊本県熊本市東区花立5丁目9-19",
            "postal_code": "862-0918",
            "lat": "32.78851638",
            "lng": "130.77300116"
        },
        {
            "name": "博多一番どり戸島店",
            "area": "熊本市",
            "address": "熊本県熊本市東区戸島西２－５－３０",
            "postal_code": "861-8043",
            "lat": "32.81189468",
            "lng": "130.78392782"
        },
        {
            "name": "ビストロバンボッシュ",
            "area": "水俣市",
            "address": "熊本県水俣市大黒町2丁目3-8",
            "postal_code": "867-0043",
            "lat": "32.20997107",
            "lng": "130.40086798"
        },
        {
            "name": "CAFE AZUR",
            "area": "熊本市",
            "address": "熊本県熊本市東区小峯2丁目5-10-101",
            "postal_code": "862-0933",
            "lat": "32.80379831",
            "lng": "130.77484251"
        },
        {
            "name": "博多一番どり合志店",
            "area": "合志市",
            "address": "熊本県合志市幾久富1758‐53",
            "postal_code": "861-1112",
            "lat": "32.86645338",
            "lng": "130.78112980"
        },
        {
            "name": "遊食亭えくぼ新市街店",
            "area": "熊本市",
            "address": "熊本県熊本市中央区新市街6-13タテイシビル2F",
            "postal_code": "860-0803",
            "lat": "32.79904188",
            "lng": "130.70732461"
        },
        {
            "name": "遊食亭えくぼ熊本下通店",
            "area": "熊本市",
            "address": "熊本県熊本市中央区下通1丁目３ー1NADELビル2F",
            "postal_code": "860-0807",
            "lat": "32.80261373",
            "lng": "130.70893546"
        },
        {
            "name": "そば処ほおずき",
            "area": "南阿蘇村",
            "address": "熊本県阿蘇郡南阿蘇村中松3890－3",
            "postal_code": "869-1505",
            "lat": "32.83815243",
            "lng": "131.05904268"
        },
        {
            "name": "ペッパーランチゆめタウン光の森店",
            "area": "菊陽町",
            "address": "熊本県菊池郡菊陽町光の森７丁目３３－１ゆめタウン光の森南館２階フードコート内",
            "postal_code": "869-1108",
            "lat": "32.86030138",
            "lng": "130.78430470"
        },
        {
            "name": "おむらいす亭ゆめタウンサンピアン店",
            "area": "熊本市",
            "address": "熊本県熊本市東区上南部２丁目２－２ゆめタウンサンピアン３階フードコート内",
            "postal_code": "861-8010",
            "lat": "32.82714015",
            "lng": "130.76339327"
        },
        {
            "name": "KIJIYA",
            "area": "熊本市",
            "address": "熊本県熊本市中央区南坪井町7-17オツヅキビル1階-C",
            "postal_code": "860-0848",
            "lat": "32.80829103",
            "lng": "130.71271291"
        },
        {
            "name": "焼肉　肉や郎",
            "area": "⼭⿅市",
            "address": "熊本県山鹿市宗方通604-1",
            "postal_code": "861-0518",
            "lat": "33.01242796",
            "lng": "130.68269278"
        },
        {
            "name": "（株）熊本文化の森",
            "area": "大津町",
            "address": "熊本県菊池郡大津町引水７５９",
            "postal_code": "869-1234",
            "lat": "32.88083208",
            "lng": "130.89079017"
        },
        {
            "name": "手打そば優心",
            "area": "小国町",
            "address": "熊本県阿蘇郡小国町宮原１６３５ー５",
            "postal_code": "869-2501",
            "lat": "33.12017610",
            "lng": "131.07182379"
        },
        {
            "name": "玉名温泉つかさの湯",
            "area": "玉名市",
            "address": "熊本県玉名市立願寺656-1",
            "postal_code": "865-0061",
            "lat": "32.93870860",
            "lng": "130.55598983"
        },
        {
            "name": "菅乃屋　新市街店",
            "area": "熊本市",
            "address": "熊本県熊本市中央区新市街2-10コンフォートホテル熊本１F",
            "postal_code": "860-0803",
            "lat": "32.79956683",
            "lng": "130.70624969"
        },
        {
            "name": "てんしの森",
            "area": "菊陽町",
            "address": "熊本県菊池郡菊陽町新山1丁目9-1新山1-9-1",
            "postal_code": "869-1109",
            "lat": "32.86425368",
            "lng": "130.78786817"
        },
        {
            "name": "うどんウエスト宮原店",
            "area": "氷川町",
            "address": "熊本県八代郡氷川町今２０５－１",
            "postal_code": "869-4601",
            "lat": "32.55020656",
            "lng": "130.67889060"
        },
        {
            "name": "ボンボリ",
            "area": "熊本市",
            "address": "熊本県熊本市中央区中央街1-2",
            "postal_code": "860-0802",
            "lat": "32.80108333",
            "lng": "130.71006041"
        },
        {
            "name": "卯乃屋",
            "area": "熊本市",
            "address": "熊本県熊本市中央区水前寺公園4-3",
            "postal_code": "862-0956",
            "lat": "32.79101513",
            "lng": "130.73269250"
        },
        {
            "name": "うどんウエスト熊本長嶺南国体道路店",
            "area": "熊本市",
            "address": "熊本県熊本市東区長嶺南６－２３－１",
            "postal_code": "861-8039",
            "lat": "32.81123083",
            "lng": "130.77803661"
        },
        {
            "name": "センターリバー　清水店",
            "area": "北区",
            "address": "熊本県熊本市北区高平2-26-24",
            "postal_code": "860-0085",
            "lat": "32.83606646",
            "lng": "130.72004300"
        },
        {
            "name": "馬刺・串焼　なわや",
            "area": "八代市",
            "address": "熊本県八代市本町1丁目6-3",
            "postal_code": "866-0861",
            "lat": "32.50483130",
            "lng": "130.60403436"
        },
        {
            "name": "お好み焼　大文字",
            "area": "熊本市",
            "address": "熊本県熊本市中央区手取本町５－６加藤ビル2階・3階",
            "postal_code": "860-0808",
            "lat": "32.80271371",
            "lng": "130.71032422"
        },
        {
            "name": "創作郷料理　坪井庭",
            "area": "熊本市",
            "address": "熊本県熊本市中央区坪井4丁目20-39",
            "postal_code": "860-0863",
            "lat": "32.81640701",
            "lng": "130.71519327"
        },
        {
            "name": "居酒屋紅葉亭",
            "area": "大津町",
            "address": "熊本県菊池郡大津町室147大新ビル１階",
            "postal_code": "869-1235",
            "lat": "32.87783694",
            "lng": "130.86643991"
        },
        {
            "name": "うどんウエスト熊本第二空港店",
            "area": "熊本市",
            "address": "熊本県熊本市東区桜木６－４９６－２",
            "postal_code": "861-2101",
            "lat": "32.79031898",
            "lng": "130.77949795"
        },
        {
            "name": "ひゃくしょう茶屋",
            "area": "熊本市",
            "address": "熊本県熊本市中央区下通1-4-9ニコニコビル2Ｆ・3Ｆ",
            "postal_code": "860-0807",
            "lat": "32.80183603",
            "lng": "130.70850775"
        },
        {
            "name": "串ダイニング笑家",
            "area": "北区",
            "address": "熊本県熊本市四方寄町506－1",
            "postal_code": "861-5515",
            "lat": "32.80322480",
            "lng": "130.70819110"
        },
        {
            "name": "うどんウエスト南熊本店",
            "area": "熊本市",
            "address": "熊本県熊本市中央区南熊本３－１－１６",
            "postal_code": "860-0812",
            "lat": "32.78824304",
            "lng": "130.71388558"
        },
        {
            "name": "イタリア小料理コラッジオ",
            "area": "芦北町",
            "address": "熊本県葦北郡芦北町芦北2592－15",
            "postal_code": "869-5461",
            "lat": "32.29545286",
            "lng": "130.49376638"
        },
        {
            "name": "司ロイヤルホテル　四季庭",
            "area": "玉名市",
            "address": "熊本県玉名市立願寺５０－１",
            "postal_code": "865-0061",
            "lat": "32.93757537",
            "lng": "130.55607047"
        },
        {
            "name": "うどんウエスト尾ノ上店",
            "area": "熊本市",
            "address": "熊本県熊本市東区尾ノ上３－１－１",
            "postal_code": "862-0913",
            "lat": "32.79572898",
            "lng": "130.75361608"
        },
        {
            "name": "白玉屋新三郎",
            "area": "氷川町",
            "address": "熊本県八代郡氷川町吉本72",
            "postal_code": "869-4803",
            "lat": "32.58435892",
            "lng": "130.70541412"
        },
        {
            "name": "フォルクス熊本東バイパス店",
            "area": "熊本市",
            "address": "熊本県熊本市東区新南部3丁目10-48",
            "postal_code": "861-8028",
            "lat": "32.81330777",
            "lng": "130.74942738"
        },
        {
            "name": "うどんウエスト世安店",
            "area": "熊本市",
            "address": "熊本県熊本市中央区世安町２００－３",
            "postal_code": "860-0823",
            "lat": "32.78208511",
            "lng": "130.69724542"
        },
        {
            "name": "センターリバー　下通店",
            "area": "熊本市",
            "address": "熊本県熊本市中央区新市街3丁目14番",
            "postal_code": "860-0803",
            "lat": "32.79952517",
            "lng": "130.70759679"
        },
        {
            "name": "はたけ山",
            "area": "熊本市",
            "address": "熊本県熊本市中央区南坪井町5-30畠山ビル一階奥",
            "postal_code": "860-0848",
            "lat": "32.80773830",
            "lng": "130.71286846"
        },
        {
            "name": "伊達祭",
            "area": "大津町",
            "address": "熊本県菊池郡大津町室533-1",
            "postal_code": "869-1235",
            "lat": "32.87567866",
            "lng": "130.86288197"
        },
        {
            "name": "大戸屋ごはん処ゆめタウンはません店",
            "area": "熊本市",
            "address": "熊本県熊本市南区田井島１丁目２－１ゆめタウンはません別館1F",
            "postal_code": "862-0965",
            "lat": "32.77173083",
            "lng": "130.72643242"
        },
        {
            "name": "居酒屋鳥ぎん 一村店",
            "area": "荒尾市",
            "address": "熊本県荒尾市荒尾８１４－１",
            "postal_code": "864-0041",
            "lat": "32.98446308",
            "lng": "130.43192534"
        },
        {
            "name": "うどんウエスト玉名店",
            "area": "玉名市",
            "address": "熊本県玉名市岱明町野口３３－１",
            "postal_code": "869-0222",
            "lat": "32.92916484",
            "lng": "130.53681916"
        },
        {
            "name": "すたみな太郎熊本インター店",
            "area": "熊本市",
            "address": "熊本県熊本市東区御領8-3-1",
            "postal_code": "861-8035",
            "lat": "32.82967612",
            "lng": "130.76987603"
        },
        {
            "name": "通潤酒造寛政蔵",
            "area": "山都町",
            "address": "熊本県上益城郡山都町浜町54番地",
            "postal_code": "861-3518",
            "lat": "32.68492174",
            "lng": "130.98741014"
        },
        {
            "name": "ハングリータイガー",
            "area": "熊本市",
            "address": "熊本県熊本市中央区八王寺町34番16号1F",
            "postal_code": "860-0831",
            "lat": "32.78091603",
            "lng": "130.71511351"
        },
        {
            "name": "うどんウエスト中の瀬店",
            "area": "熊本市",
            "address": "熊本県熊本市東区画図町下無田１５１３－３",
            "postal_code": "862-0945",
            "lat": "32.75424083",
            "lng": "130.73680727"
        },
        {
            "name": "麦うさぎ",
            "area": "熊本市",
            "address": "熊本県熊本市中央区安政町6-4-2ルナファーストビル1Ｆ",
            "postal_code": "860-0801",
            "lat": "32.80135552",
            "lng": "130.71032427"
        },
        {
            "name": "海鮮家福伸",
            "area": "上天草市",
            "address": "熊本県上天草市松島町合津６００３－１",
            "postal_code": "861-6102",
            "lat": "32.52203232",
            "lng": "130.42133593"
        },
        {
            "name": "松石庵",
            "area": "小国町",
            "address": "熊本県阿蘇郡小国町宮原１７５７－１",
            "postal_code": "869-2501",
            "lat": "33.12288661",
            "lng": "131.06483821"
        },
        {
            "name": "うどんウエスト菊南店",
            "area": "北区",
            "address": "熊本県熊本市北区鶴羽田１－１１－１",
            "postal_code": "861-5517",
            "lat": "32.85611202",
            "lng": "130.72655372"
        },
        {
            "name": "山の洋食屋フレール",
            "area": "南阿蘇村",
            "address": "熊本県阿蘇郡南阿蘇村久石2839-3",
            "postal_code": "869-1412",
            "lat": "32.81907359",
            "lng": "131.03934510"
        },
        {
            "name": "うどんウエスト八代店",
            "area": "八代市",
            "address": "熊本県八代市萩原町１－５００－７",
            "postal_code": "866-0831",
            "lat": "32.50114361",
            "lng": "130.62436068"
        },
        {
            "name": "手打百藝中の森",
            "area": "熊本市",
            "address": "熊本県熊本市中央区水前寺3-6-2",
            "postal_code": "862-0950",
            "lat": "32.79703951",
            "lng": "130.73102859"
        },
        {
            "name": "焼肉　川のほとり",
            "area": "熊本市",
            "address": "熊本県熊本市南区砂原町345-1",
            "postal_code": "861-5255",
            "lat": "32.76470271",
            "lng": "130.66014889"
        },
        {
            "name": "うどんウエスト湖東店",
            "area": "熊本市",
            "address": "熊本県熊本市中央区湖東３－１－１",
            "postal_code": "862-0909",
            "lat": "32.78283003",
            "lng": "130.74635011"
        },
        {
            "name": "居酒屋　こもれび家",
            "area": "熊本市",
            "address": "熊本県熊本市中央区下通1-9-4ＳＨＩＧＥＯＫＡ０１ビル１Ｆ",
            "postal_code": "860-0807",
            "lat": "32.80053340",
            "lng": "130.70728568"
        },
        {
            "name": "ビアスタンド　スピリット",
            "area": "熊本市",
            "address": "熊本県熊本市中央区花畑町13番21号おかよしビル1階奥",
            "postal_code": "860-0806",
            "lat": "32.80026121",
            "lng": "130.70619967"
        },
        {
            "name": "酔虎伝新水前寺駅前",
            "area": "熊本市",
            "address": "熊本県熊本市中央区国府1丁目11-2サンアイ水前寺ビル1Ｆ",
            "postal_code": "862-0949",
            "lat": "32.79324818",
            "lng": "130.72683173"
        },
        {
            "name": "以和貴",
            "area": "荒尾市",
            "address": "熊本県荒尾市荒尾920-1",
            "postal_code": "864-0041",
            "lat": "32.98379930",
            "lng": "130.43406683"
        },
        {
            "name": "琉球",
            "area": "菊陽町",
            "address": "熊本県菊池郡菊陽町新山2丁目11番33号",
            "postal_code": "869-1109",
            "lat": "32.86702555",
            "lng": "130.78242411"
        },
        {
            "name": "あそ路",
            "area": "阿蘇市",
            "address": "熊本県阿蘇市的石１４７６－１",
            "postal_code": "869-2237",
            "lat": "32.92817869",
            "lng": "131.00818721"
        },
        {
            "name": "熊本地酒と郷土料理おてもやん",
            "area": "熊本市",
            "address": "熊本県熊本市中央区下通1-12-3高津ビル2階",
            "postal_code": "860-0807",
            "lat": "32.79997512",
            "lng": "130.70850225"
        },
        {
            "name": "食事処あじわい館",
            "area": "南阿蘇村",
            "address": "熊本県阿蘇郡南阿蘇村久石2801番地",
            "postal_code": "869-1412",
            "lat": "32.81839592",
            "lng": "131.04090054"
        },
        {
            "name": "生そばウエスト熊本下通店",
            "area": "熊本市",
            "address": "熊本県熊本市中央区下通２－２－３２",
            "postal_code": "860-0807",
            "lat": "32.79925297",
            "lng": "130.70784678"
        },
        {
            "name": "プレートカフェリゾラ",
            "area": "上天草市",
            "address": "熊本県上天草市松島町合津6215-16",
            "postal_code": "861-6102",
            "lat": "32.52748747",
            "lng": "130.42640477"
        },
        {
            "name": "生そばあずま白山通り店",
            "area": "熊本市",
            "address": "熊本県熊本市中央区九品寺５－５－１０",
            "postal_code": "862-0976",
            "lat": "32.79037062",
            "lng": "130.71709916"
        },
        {
            "name": "大衆中華　平陽珍",
            "area": "熊本市",
            "address": "熊本県熊本市東区戸島西2-4-25",
            "postal_code": "861-8043",
            "lat": "32.81296400",
            "lng": "130.78250568"
        },
        {
            "name": "アイランドスタンド",
            "area": "上天草市",
            "address": "熊本県上天草市松島町合津6215-16",
            "postal_code": "861-6102",
            "lat": "32.52748747",
            "lng": "130.42640477"
        },
        {
            "name": "陽だまりの家",
            "area": "南小国町",
            "address": "熊本県阿蘇郡南小国町満願寺北黒川6552番2",
            "postal_code": "869-2402",
            "lat": "33.07777879",
            "lng": "131.14113515"
        },
        {
            "name": "リゾラビーチバー",
            "area": "上天草市",
            "address": "熊本県上天草市松島町合津6215-16",
            "postal_code": "861-6102",
            "lat": "32.52748747",
            "lng": "130.42640477"
        },
        {
            "name": "はなまるうどん熊本下通り店",
            "area": "熊本市",
            "address": "熊本県熊本市中央区安政町1丁目28番地下川ビル2階",
            "postal_code": "860-0801",
            "lat": "32.80234709",
            "lng": "130.70951875"
        },
        {
            "name": "藍のあまくさ村",
            "area": "上天草市",
            "address": "熊本県上天草市大矢野町登立910",
            "postal_code": "869-3601",
            "lat": "32.59730448",
            "lng": "130.43481158"
        },
        {
            "name": "焼肉千盛",
            "area": "熊本市",
            "address": "熊本県熊本市東区石原1丁目1番8号",
            "postal_code": "861-8046",
            "lat": "32.83753934",
            "lng": "130.77790297"
        },
        {
            "name": "前川珈琲Restaurant　光の森店",
            "area": "菊陽町",
            "address": "熊本県菊池郡菊陽町光の森6-18",
            "postal_code": "869-1108",
            "lat": "32.86322325",
            "lng": "130.78673496"
        },
        {
            "name": "天草パールセンター　海鮮レストラン多幸海鮮",
            "area": "上天草市",
            "address": "熊本県上天草市松島町合津6225-8",
            "postal_code": "861-6102",
            "lat": "32.52816797",
            "lng": "130.42715746"
        },
        {
            "name": "博多一番どり神水店",
            "area": "熊本市",
            "address": "熊本県熊本市中央区神水2丁目8-8",
            "postal_code": "862-0954",
            "lat": "32.78766568",
            "lng": "130.74732770"
        },
        {
            "name": "前川水軍　桜木店",
            "area": "熊本市",
            "address": "熊本県熊本市東区桜木6-5-1",
            "postal_code": "861-2101",
            "lat": "32.79026064",
            "lng": "130.78045066"
        },
        {
            "name": "The Fahrenheit",
            "area": "人吉市",
            "address": "熊本県人吉市麓町6-2",
            "postal_code": "868-0051",
            "lat": "32.20966244",
            "lng": "130.76479812"
        },
        {
            "name": "味香　吉兆庵",
            "area": "熊本市",
            "address": "熊本県熊本市南区城南町舞原257-6",
            "postal_code": "861-4214",
            "lat": "32.70776446",
            "lng": "130.74576662"
        },
        {
            "name": "博多一番どり薄場店",
            "area": "熊本市",
            "address": "熊本県熊本市南区薄場3丁目4番20号",
            "postal_code": "861-4131",
            "lat": "32.76490278",
            "lng": "130.67571706"
        },
        {
            "name": "うなぎ　日本料理　とくなが",
            "area": "嘉島町",
            "address": "熊本県上益城郡嘉島町鯰2025-1",
            "postal_code": "861-3101",
            "lat": "32.74484446",
            "lng": "130.74004626"
        },
        {
            "name": "あまみや",
            "area": "熊本市",
            "address": "熊本県熊本市中央区上通町4-16タバラビル2F",
            "postal_code": "860-0845",
            "lat": "32.80430246",
            "lng": "130.71061862"
        },
        {
            "name": "前川水軍",
            "area": "熊本市",
            "address": "熊本県熊本市中央区花畑町12-11グリーンホテル１Ｆ",
            "postal_code": "860-0806",
            "lat": "32.80078893",
            "lng": "130.70603022"
        },
        {
            "name": "KOKUZO",
            "area": "熊本市",
            "address": "熊本県熊本市東区小山2丁目24－1",
            "postal_code": "861-8045",
            "lat": "32.83124534",
            "lng": "130.78908803"
        },
        {
            "name": "とり吉 光の森店",
            "area": "菊陽町",
            "address": "熊本県菊池郡菊陽町光の森7丁目23-7",
            "postal_code": "869-1108",
            "lat": "32.86283718",
            "lng": "130.78734325"
        },
        {
            "name": "ゆのまえ温泉湯楽里",
            "area": "⼈吉市・球磨郡",
            "address": "熊本県球磨郡湯前町1588番地の７",
            "postal_code": "868-0600",
            "lat": "32.27106018",
            "lng": "131.00016977"
        },
        {
            "name": "福伸　はなれ利久",
            "area": "天草市",
            "address": "熊本県天草市東町45",
            "postal_code": "863-0033",
            "lat": "32.45069640",
            "lng": "130.19925409"
        },
        {
            "name": "きなこーや",
            "area": "熊本市",
            "address": "熊本県熊本市中央区新屋敷2丁目27-14",
            "postal_code": "862-0975",
            "lat": "32.80749674",
            "lng": "130.72351222"
        },
        {
            "name": "中華そばSANYO",
            "area": "熊本市",
            "address": "熊本県熊本市中央区南坪井町7-17オツヅキビル1階-A",
            "postal_code": "860-0848",
            "lat": "32.80829103",
            "lng": "130.71271291"
        },
        {
            "name": "あか牛と馬刺し居酒屋ぐーぐー　下通店",
            "area": "熊本市",
            "address": "熊本県熊本市中央区下通2-3-3ナルオビル１F",
            "postal_code": "860-0807",
            "lat": "32.79866137",
            "lng": "130.70779125"
        },
        {
            "name": "餃子屋　弐ノ弐　中央店",
            "area": "熊本市",
            "address": "熊本県熊本市中央区下通１丁目３－１ＮＡＤＥＬビル１Ｆ",
            "postal_code": "860-0807",
            "lat": "32.80261373",
            "lng": "130.70893546"
        },
        {
            "name": "居酒屋ぐー　世安本店",
            "area": "熊本市",
            "address": "熊本県熊本市中央区本山町78",
            "postal_code": "860-0822",
            "lat": "32.78765965",
            "lng": "130.70000892"
        },
        {
            "name": "味千拉麺　東バイパス店",
            "area": "熊本市",
            "address": "熊本県熊本市東区下南部3丁目13番57号",
            "postal_code": "862-8019",
            "lat": "32.82310994",
            "lng": "130.76100176"
        },
        {
            "name": "嘉島水春亭",
            "area": "嘉島町",
            "address": "熊本県上益城郡嘉島町上島字長池2232イオンモール熊本内",
            "postal_code": "861-3106",
            "lat": "32.74218088",
            "lng": "130.74578484"
        },
        {
            "name": "博多一番どり八代店",
            "area": "八代市",
            "address": "熊本県八代市通町6-53",
            "postal_code": "866-0856",
            "lat": "32.50828663",
            "lng": "130.60499812"
        },
        {
            "name": "まんまどんな",
            "area": "熊本市",
            "address": "熊本県熊本市中央区黒髪6-9-12",
            "postal_code": "860-0862",
            "lat": "32.81468230",
            "lng": "130.73543922"
        },
        {
            "name": "そば茶屋吹上庵人吉店",
            "area": "錦町",
            "address": "熊本県球磨郡錦町西字打越715-105",
            "postal_code": "868-0303",
            "lat": "32.19713480",
            "lng": "130.81933248"
        },
        {
            "name": "味千拉麺　富合店",
            "area": "熊本市",
            "address": "熊本県熊本市南区富合町志々水49-1",
            "postal_code": "861-4163",
            "lat": "32.71375177",
            "lng": "130.67592149"
        },
        {
            "name": "博多三氣　薄場店",
            "area": "熊本市",
            "address": "熊本県熊本市南区薄場3丁目4番25号",
            "postal_code": "861-4131",
            "lat": "32.76486112",
            "lng": "130.67534765"
        },
        {
            "name": "創作料理更紗",
            "area": "熊本市",
            "address": "熊本県熊本市東区下南部3－11－150",
            "postal_code": "861-8019",
            "lat": "32.82190445",
            "lng": "130.75908521"
        },
        {
            "name": "焼肉なべしま合志光の森店",
            "area": "合志市",
            "address": "熊本県合志市幾久富1656-31",
            "postal_code": "861-1112",
            "lat": "32.86910584",
            "lng": "130.78068808"
        },
        {
            "name": "焼肉なべしま熊本インター店",
            "area": "熊本市",
            "address": "熊本県熊本市東区御領8丁目4-84",
            "postal_code": "861-8035",
            "lat": "32.83061216",
            "lng": "130.77090094"
        },
        {
            "name": "ニュー入船レストラン",
            "area": "上天草市",
            "address": "熊本県上天草市大矢野町登立4060番地2",
            "postal_code": "869-3601",
            "lat": "32.61550881",
            "lng": "130.44362085"
        },
        {
            "name": "味千ラーメン鹿本店",
            "area": "⼭⿅市",
            "address": "熊本県山鹿市鹿本町津袋40-1",
            "postal_code": "861-0302",
            "lat": "33.01106258",
            "lng": "130.75622540"
        },
        {
            "name": "博多麺屋一連",
            "area": "熊本市",
            "address": "熊本県熊本市中央区大江4-10-4大江事務所",
            "postal_code": "862-0971",
            "lat": "32.80363596",
            "lng": "130.72069578"
        },
        {
            "name": "博多三氣　八代店",
            "area": "八代市",
            "address": "熊本県八代市松江町字江前241-1",
            "postal_code": "866-0883",
            "lat": "32.51426924",
            "lng": "130.59797362"
        },
        {
            "name": "焼肉なべしま健軍店",
            "area": "熊本市",
            "address": "熊本県熊本市東区花立5丁目9番15号",
            "postal_code": "862-0918",
            "lat": "32.78863026",
            "lng": "130.77240953"
        },
        {
            "name": "かぐら",
            "area": "熊本市",
            "address": "熊本県熊本市南区平成2丁目5-15",
            "postal_code": "860-0833",
            "lat": "32.77785781",
            "lng": "130.70245903"
        },
        {
            "name": "焼肉なべしま大津店",
            "area": "大津町",
            "address": "熊本県菊池郡大津町室785",
            "postal_code": "869-1235",
            "lat": "32.87581446",
            "lng": "130.85578266"
        },
        {
            "name": "さくら庵",
            "area": "南小国町",
            "address": "熊本県阿蘇郡南小国町満願寺6695",
            "postal_code": "869-2402",
            "lat": "33.07833427",
            "lng": "131.14066297"
        },
        {
            "name": "焼肉なべしま十禅寺店",
            "area": "熊本市",
            "address": "熊本県熊本市中央区十禅寺2丁目8番5号",
            "postal_code": "860-0824",
            "lat": "32.77983809",
            "lng": "130.69768434"
        },
        {
            "name": "博多麺王　田崎",
            "area": "熊本市",
            "address": "熊本県熊本市西区上代1丁目21-17",
            "postal_code": "860-0068",
            "lat": "32.78245702",
            "lng": "130.67294462"
        },
        {
            "name": "焼肉館彩炉御領店",
            "area": "熊本市",
            "address": "熊本県熊本市東区御領2丁目27-8",
            "postal_code": "861-8035",
            "lat": "32.82410432",
            "lng": "130.76330436"
        },
        {
            "name": "焼肉なべしま麻生田店",
            "area": "北区",
            "address": "熊本県熊本市北区麻生田3丁目14-25",
            "postal_code": "861-8081",
            "lat": "32.84922679",
            "lng": "130.74502841"
        },
        {
            "name": "料理方秘　神の水",
            "area": "熊本市",
            "address": "熊本県熊本市中央区水前寺公園3ー4土山天祐堂ビル１階",
            "postal_code": "862-0956",
            "lat": "32.79095401",
            "lng": "130.73117038"
        },
        {
            "name": "炙り番や東町店",
            "area": "熊本市",
            "address": "熊本県熊本市東区東町4丁目2番52号",
            "postal_code": "862-0901",
            "lat": "32.78619402",
            "lng": "130.76114078"
        },
        {
            "name": "あっぱれ家　荒尾",
            "area": "荒尾市",
            "address": "熊本県荒尾市原万田660-4",
            "postal_code": "864-0001",
            "lat": "33.00060319",
            "lng": "130.43878292"
        },
        {
            "name": "焼肉館彩炉南高江店",
            "area": "熊本市",
            "address": "熊本県熊本市南区南高江5丁目7-84",
            "postal_code": "861-4106",
            "lat": "32.74870142",
            "lng": "130.68808599"
        },