{
    "data": [
        {
            "name": "カレーハウスCoCo壱番屋　鳴門黒崎店",
            "address": "鳴門市撫養町斎田字北浜194",
            "time": "11:00～22:00",
            "regular_holiday": "その他",
            "tel": "088-683-1182",
            "lat": "34.18292150",
            "lng": "134.60103394"
        },
        {
            "name": "土佐わら焼き龍神丸　イオンモール徳島店",
            "address": "徳島県徳島市南末広町4番1号　イオンモール徳島",
            "time": "11:00～22:00",
            "regular_holiday": "無休",
            "tel": "088-676-3853",
            "lat": "34.06187899",
            "lng": "134.57311948"
        },
        {
            "name": "タン次郎　イオンモール徳島店",
            "address": "徳島県徳島市南末広町4番1号　イオンモール徳島",
            "time": "11:00～22:00",
            "regular_holiday": "無休",
            "tel": "088-676-2115",
            "lat": "34.06187899",
            "lng": "134.57311948"
        },
        {
            "name": "焼肉でん イオンモール徳島店",
            "address": "徳島県徳島市南末広町4番1号　イオンモール徳島",
            "time": "11:00～22:00",
            "regular_holiday": "無休",
            "tel": "088-676-2502",
            "lat": "34.06187899",
            "lng": "134.57311948"
        },
        {
            "name": "おむらいす亭　イオンモール徳島店",
            "address": "徳島県徳島市南末広町4番1号　イオンモール徳島",
            "time": "11:00～22:00",
            "regular_holiday": "無休",
            "tel": "088-676-3322",
            "lat": "34.06187899",
            "lng": "134.57311948"
        },
        {
            "name": "いきなりステーキ　イオンモール徳島店",
            "address": "徳島県徳島市南末広町4番1号　イオンモール徳島",
            "time": "11:00～22:00",
            "regular_holiday": "無休",
            "tel": "088-676-2929",
            "lat": "34.06187899",
            "lng": "134.57311948"
        },
        {
            "name": "東京純豆腐　イオンモール徳島店",
            "address": "徳島県徳島市南末広町4番1号　イオンモール徳島",
            "time": "11:00～22:00",
            "regular_holiday": "無休",
            "tel": "088-678-2522",
            "lat": "34.06187899",
            "lng": "134.57311948"
        },
        {
            "name": "海の穂まれ　イオンモール徳島店",
            "address": "徳島県徳島市南末広町4番1号　イオンモール徳島",
            "time": "11:00～22:00",
            "regular_holiday": "無休",
            "tel": "088-676-2808",
            "lat": "34.06187899",
            "lng": "134.57311948"
        },
        {
            "name": "しゃぶしゃぶ美山 イオンモール徳島店",
            "address": "徳島県徳島市南末広町4番1号　イオンモール徳島",
            "time": "11:00～22:00",
            "regular_holiday": "無休",
            "tel": "088-676-3606",
            "lat": "34.06187899",
            "lng": "134.57311948"
        },
        {
            "name": "鳴門舩本 イオンモール徳島店",
            "address": "徳島県徳島市南末広町4番1号　イオンモール徳島",
            "time": "11:00～22:00",
            "regular_holiday": "無休",
            "tel": "088-653-2710",
            "lat": "34.06187899",
            "lng": "134.57311948"
        },
        {
            "name": "かつ楽 イオンモール徳島店",
            "address": "徳島県徳島市南末広町4番1号　イオンモール徳島",
            "time": "11:00～22:00",
            "regular_holiday": "無休",
            "tel": "088-622-3001",
            "lat": "34.06187899",
            "lng": "134.57311948"
        },
        {
            "name": "MIRAIYA Bookmark Lounge cafe　イオンモール徳島店",
            "address": "徳島県徳島市南末広町4番1号　イオンモール徳島",
            "time": "10:00～21:00",
            "regular_holiday": "無休",
            "tel": "088-676-2775",
            "lat": "34.06187899",
            "lng": "134.57311948"
        },
        {
            "name": "サーティワンアイスクリーム　イオンモール徳島店",
            "address": "徳島県徳島市南末広町4番1号　イオンモール徳島",
            "time": "10:00～21:00",
            "regular_holiday": "無休",
            "tel": "088-676-3100",
            "lat": "34.06187899",
            "lng": "134.57311948"
        },
        {
            "name": "ミスタードーナツ　イオンモール徳島店",
            "address": "徳島県徳島市南末広町4番1号　イオンモール徳島",
            "time": "10:00～21:00",
            "regular_holiday": "無休",
            "tel": "088-676-2311",
            "lat": "34.06187899",
            "lng": "134.57311948"
        },
        {
            "name": "ちゃんぽん亭総本家　イオンモール徳島店",
            "address": "徳島県徳島市南末広町4番1号　イオンモール徳島",
            "time": "10:00～21:00",
            "regular_holiday": "無休",
            "tel": "088-602-7765",
            "lat": "34.06187899",
            "lng": "134.57311948"
        },
        {
            "name": "ペッパーランチ　イオンモール徳島店",
            "address": "徳島県徳島市南末広町4番1号　イオンモール徳島",
            "time": "10:00～21:00",
            "regular_holiday": "無休",
            "tel": "088-678-5029",
            "lat": "34.06187899",
            "lng": "134.57311948"
        },
        {
            "name": "ロッテリア　イオンモール徳島店",
            "address": "徳島県徳島市南末広町4番1号　イオンモール徳島",
            "time": "10:00～21:00",
            "regular_holiday": "無休",
            "tel": "088-676-3177",
            "lat": "34.06187899",
            "lng": "134.57311948"
        },
        {
            "name": "はなまるうどん　イオンモール徳島店",
            "address": "徳島県徳島市南末広町4番1号　イオンモール徳島",
            "time": "10:00～21:00",
            "regular_holiday": "無休",
            "tel": "088-676-3870",
            "lat": "34.06187899",
            "lng": "134.57311948"
        },
        {
            "name": "鳥さく　イオンモール徳島店",
            "address": "徳島県徳島市南末広町4番1号　イオンモール徳島",
            "time": "10:00～21:00",
            "regular_holiday": "無休",
            "tel": "088-612-8003",
            "lat": "34.06187899",
            "lng": "134.57311948"
        },
        {
            "name": "IPPUDO RAMEN　EXPRESS　イオンモール徳島店",
            "address": "徳島県徳島市南末広町4番1号　イオンモール徳島",
            "time": "10:00～21:00",
            "regular_holiday": "無休",
            "tel": "088-602-8809",
            "lat": "34.06187899",
            "lng": "134.57311948"
        },
        {
            "name": "揚げ天まる　イオンモール徳島店",
            "address": "徳島県徳島市南末広町4番1号　イオンモール徳島",
            "time": "10:00～21:00",
            "regular_holiday": "無休",
            "tel": "088-676-2505",
            "lat": "34.06187899",
            "lng": "134.57311948"
        },
        {
            "name": "築地　銀だこ　イオンモール徳島店",
            "address": "徳島県徳島市南末広町4番1号　イオンモール徳島",
            "time": "10:00～21:00",
            "regular_holiday": "無休",
            "tel": "088-679-9766",
            "lat": "34.06187899",
            "lng": "134.57311948"
        },
        {
            "name": "サンマルクカフェ　イオンモール徳島店",
            "address": "徳島県徳島市南末広町4番1号　イオンモール徳島",
            "time": "10:00～21:00",
            "regular_holiday": "無休",
            "tel": "088-678-8309",
            "lat": "34.06187899",
            "lng": "134.57311948"
        },
        {
            "name": "petit bonheur　イオンモール徳島店",
            "address": "徳島県徳島市南末広町4番1号　イオンモール徳島",
            "time": "10:00～21:00",
            "regular_holiday": "無休",
            "tel": "088-602-7087",
            "lat": "34.06187899",
            "lng": "134.57311948"
        },
        {
            "name": "スターバックスコーヒー イオンモール徳島店",
            "address": "徳島県徳島市南末広町4番1号　イオンモール徳島",
            "time": "10:00～21:00",
            "regular_holiday": "無休",
            "tel": "088-622-5195",
            "lat": "34.06187899",
            "lng": "134.57311948"
        },
        {
            "name": "久世福茶寮　イオンモール徳島店",
            "address": "徳島県徳島市南末広町4番1号　イオンモール徳島",
            "time": "10:00～21:00",
            "regular_holiday": "無休",
            "tel": "088-676-3577",
            "lat": "34.06187899",
            "lng": "134.57311948"
        },
        {
            "name": "Wonder Fruits　イオンモール徳島店",
            "address": "徳島県徳島市南末広町4番1号　イオンモール徳島",
            "time": "10:00～21:00",
            "regular_holiday": "無休",
            "tel": "088-676-2012",
            "lat": "34.06187899",
            "lng": "134.57311948"
        },
        {
            "name": "ロワゾー・ブリュー　イオンモール徳島店",
            "address": "徳島県徳島市南末広町4番1号　イオンモール徳島",
            "time": "10:00～21:00",
            "regular_holiday": "無休",
            "tel": "088-602-7307",
            "lat": "34.06187899",
            "lng": "134.57311948"
        },
        {
            "name": "和田の屋　イオンモール徳島店",
            "address": "徳島県徳島市南末広町4番1号　イオンモール徳島",
            "time": "10:00～21:00",
            "regular_holiday": "無休",
            "tel": "088-602-8810",
            "lat": "34.06187899",
            "lng": "134.57311948"
        },
        {
            "name": "CHU CHU CHURROS CAFE　イオンモール徳島店",
            "address": "徳島県徳島市南末広町4番1号　イオンモール徳島",
            "time": "10:00～21:00",
            "regular_holiday": "無休",
            "tel": "088-679-1147",
            "lat": "34.06187899",
            "lng": "134.57311948"
        },
        {
            "name": "道の駅どなり",
            "address": "阿波市土成町宮川内字平間28-2",
            "time": "10:00～17:00",
            "regular_holiday": "月",
            "tel": "088-695-5405",
            "lat": "34.15094180",
            "lng": "134.35244320"
        },
        {
            "name": "cafe Tasse",
            "address": "徳島市かちどき橋1丁目46番地",
            "time": "07:30～16:00",
            "regular_holiday": "日, その他",
            "tel": "088-654-8876",
            "lat": "34.06457009",
            "lng": "134.55616533"
        },
        {
            "name": "炭火焼肉肉匠たいら　池田店",
            "address": "徳島県三好市池田町サラダ1161-1　ティーダビル２F",
            "time": "17:00～23:00",
            "regular_holiday": "不定休",
            "tel": "0883-87-8229",
            "lat": "34.02772643",
            "lng": "133.80588824"
        },
        {
            "name": "キッチンなかがわ",
            "address": "徳島市佐古8番町6番3号",
            "time": "11:00～15:00，18:00～23:00",
            "regular_holiday": "日",
            "tel": "088-624-2739",
            "lat": "34.07817366",
            "lng": "134.52142679"
        },
        {
            "name": "スシロー徳島西新浜店",
            "address": "徳島市西新浜町二丁目3番94号",
            "time": "11:00～23:00（平日），10:30～23:00（土日祝）",
            "regular_holiday": "その他",
            "tel": "088-636-1201",
            "lat": "34.04143673",
            "lng": "134.55940698"
        },
        {
            "name": "スシロー徳島出来島店",
            "address": "徳島市南出来島町2丁目6番",
            "time": "11:00～23:00（平日），10:30～23:00（土日祝）",
            "regular_holiday": "その他",
            "tel": "088-626-6011",
            "lat": "34.07701297",
            "lng": "134.54498548"
        },
        {
            "name": "スシロー吉野川店",
            "address": "吉野川市鴨島町上下島字松元374-3",
            "time": "11:00～23:00（平日），10:30～23:00（土日祝）",
            "regular_holiday": "その他",
            "tel": "0883-24-3713",
            "lat": "34.06889531",
            "lng": "134.34823449"
        },
        {
            "name": "スシロー小松島店",
            "address": "小松島市大林町字森ノ本5-2",
            "time": "11:00～23:00（平日），10:30～23:00（土日祝）",
            "regular_holiday": "その他",
            "tel": "0885-35-6171",
            "lat": "33.97574827",
            "lng": "134.61345158"
        },
        {
            "name": "スシロー徳島応神店",
            "address": "徳島市応神町東貞方字貞光240-1",
            "time": "11:00～23:00（平日），10:30～23:00（土日祝）",
            "regular_holiday": "その他",
            "tel": "088-683-3066",
            "lat": "34.11581672",
            "lng": "134.51959286"
        },
        {
            "name": "スシロー徳島安宅店",
            "address": "徳島市大和町2丁目3-22",
            "time": "11:00～22:00（平日），10:30～23:00（土日祝）",
            "regular_holiday": "その他",
            "tel": "088-657-6333",
            "lat": "34.06814214",
            "lng": "134.57425537"
        },
        {
            "name": "TOMMY",
            "address": "徳島市寺島本町西一丁目59 1F",
            "time": "09:30～18:30",
            "regular_holiday": "無休",
            "tel": "088-653-1911",
            "lat": "34.07500491",
            "lng": "134.54909349"
        },
        {
            "name": "がってん",
            "address": "徳島市中常三島町3丁目14-22",
            "time": "17:00～01:00",
            "regular_holiday": "不定休",
            "tel": "088-678-9929",
            "lat": "34.07937680",
            "lng": "134.56568926"
        },
        {
            "name": "リバーダンス",
            "address": "徳島市両国本町2丁目17　両国橋ビル１階",
            "time": "11:00～16:00，19:00～00:00",
            "regular_holiday": "火",
            "tel": "080-1997-4759",
            "lat": "34.06959168",
            "lng": "134.55154059"
        },
        {
            "name": "くいものや柚",
            "address": "徳島市元町2丁目5-1　キャッチビル1F",
            "time": "17:30～01:00",
            "regular_holiday": "月",
            "tel": "088-602-4222",
            "lat": "34.07233856",
            "lng": "134.54995179"
        },
        {
            "name": "天丼・天ぷら本舗　さん天　徳島川内店",
            "address": "徳島市川内町大松74番地３",
            "time": "10:30～00:00",
            "regular_holiday": "その他",
            "tel": "088-665-3108",
            "lat": "34.11300916",
            "lng": "134.57707648"
        },
        {
            "name": "九州魂　徳島店",
            "address": "徳島市一番町3-7　サンステージ一番町ビル２F",
            "time": "17:00～01:00",
            "regular_holiday": "月",
            "tel": "088-602-2830",
            "lat": "34.07270243",
            "lng": "134.55155166"
        },
        {
            "name": "遊楽酒房　月うさ",
            "address": "徳島市紺屋町20あわやビル1F 南側",
            "time": "17:30～23:00",
            "regular_holiday": "月",
            "tel": "088-661-4704",
            "lat": "34.06696414",
            "lng": "134.54798815"
        },
        {
            "name": "BAR SCAPER",
            "address": "仲之町1丁目48-1　エルパセオビル2 1F",
            "time": "18:00～3:00",
            "regular_holiday": "日",
            "tel": "088-653-4052",
            "lat": "34.06640313",
            "lng": "134.55036020"
        },
        {
            "name": "麺屋頂点松茂店",
            "address": "板野郡松茂町笹木野字八北開拓106-4",
            "time": "11:00～22:00",
            "regular_holiday": "その他",
            "tel": "088-699-5852",
            "lat": "34.13758162",
            "lng": "134.58786929"
        },
        {
            "name": "麺屋頂点鴨島本店",
            "address": "吉野川市鴨島町知恵島1656-3",
            "time": "11:00～15:00，17:00～22:00",
            "regular_holiday": "その他",
            "tel": "0883-36-1811",
            "lat": "34.08137171",
            "lng": "134.36795532"
        },
        {
            "name": "Cafepolestar",
            "address": "勝浦郡上勝町大字福原字平間32番地1",
            "time": "10:00(月～水)～15:00，10:00(土日祝)～17:00",
            "regular_holiday": "木,金",
            "tel": "0885-46-0338",
            "lat": "33.88437638",
            "lng": "134.41546102"
        },
        {
            "name": "ラーメンまこと屋イオンモール徳島店",
            "address": "徳島市南末広町4番1号　イオンモール徳島5階",
            "time": "11:00～22:00",
            "regular_holiday": "その他",
            "tel": "088-624-8333",
            "lat": "34.06187899",
            "lng": "134.57311948"
        },
        {
            "name": "割烹富陵",
            "address": "吉野川市鴨島町鴨島469番地14",
            "time": "17:00～23:00",
            "regular_holiday": "日",
            "tel": "0883ｰ24ｰ1215",
            "lat": "34.07311708",
            "lng": "134.35720052"
        },
        {
            "name": "やじろべえ",
            "address": "那賀郡那賀町和食郷字南川147-1",
            "time": "10:00～14:00，17:00～19:00",
            "regular_holiday": "その他",
            "tel": "0884-62-2356",
            "lat": "33.85727901",
            "lng": "134.49709909"
        },
        {
            "name": "魚幸",
            "address": "那賀郡那賀町和食字町51",
            "time": "11:00～21:00",
            "regular_holiday": "不定休",
            "tel": "0884-62-2004",
            "lat": "33.85871503",
            "lng": "134.49857947"
        },
        {
            "name": "若竹",
            "address": "那賀郡那賀町土佐字南町134-1",
            "time": "16:00～22:00",
            "regular_holiday": "不定休",
            "tel": "0884-62-0318",
            "lat": "33.85817347",
            "lng": "134.49349671"
        },
        {
            "name": "SteakDining　琥珀",
            "address": "徳島県徳島市南新町1丁目24",
            "time": "11:30～14:30，17:00～22:00",
            "regular_holiday": "月",
            "tel": "088-679-7117",
            "lat": "34.07006656",
            "lng": "134.54682151"
        },
        {
            "name": "YRG cafe HoME",
            "address": "徳島市南庄町5丁目61-21",
            "time": "11:30～18:00",
            "regular_holiday": "木, その他",
            "tel": "088-602-7839",
            "lat": "34.06810502",
            "lng": "134.50656467"
        },
        {
            "name": "Karlito’s BB MEX",
            "address": "徳島市富田町２丁目38　西山ビル１Ｆオク",
            "time": "18:00～02:00",
            "regular_holiday": "不定休",
            "tel": "088-600-8107",
            "lat": "34.06778906",
            "lng": "134.54880474"
        },
        {
            "name": "話食Bar凛",
            "address": "徳島市紺屋町5-3　アクティ21 4F",
            "time": "20:00～03:00",
            "regular_holiday": "月,日",
            "tel": "088-655-5558",
            "lat": "34.06671697",
            "lng": "134.54946026"
        },
        {
            "name": "居酒家ごち",
            "address": "三好市池田町マチ2189-13",
            "time": "17:00～23:30",
            "regular_holiday": "日",
            "tel": "0883-72-3083",
            "lat": "34.02866801",
            "lng": "133.80672978"
        },
        {
            "name": "一天たらいうどん",
            "address": "阿波市土成町宮川内字上畑93の3",
            "time": "10:30～15:00，16:30～19:00",
            "regular_holiday": "その他",
            "tel": "088-695-2257",
            "lat": "34.16310687",
            "lng": "134.35051783"
        },
        {
            "name": "ギャラリー花杏豆",
            "address": "徳島市八万町上長谷81-3",
            "time": "09:30～17:00，09:30～21:00（金土日）",
            "regular_holiday": "無休",
            "tel": "088-668-6465",
            "lat": "34.05174587",
            "lng": "134.51178382"
        },
        {
            "name": "ほら鮨",
            "address": "徳島市栄町１丁目４１番　栗栖ビル１階",
            "time": "18:00～22:00",
            "regular_holiday": "日, 祝日",
            "tel": "088-653-2229",
            "lat": "34.06529212",
            "lng": "134.54860758"
        },
        {
            "name": "カルネ屋",
            "address": "徳島市栄町1丁目65",
            "time": "17:00～02:00  日曜日は00:00まで",
            "regular_holiday": "火",
            "tel": "088-622-5203",
            "lat": "34.06665586",
            "lng": "134.54881587"
        },
        {
            "name": "活魚水産 紺屋町店",
            "address": "徳島市紺屋町21-4",
            "time": "17:00～00:00",
            "regular_holiday": "不定休",
            "tel": "088-655-3359",
            "lat": "34.06696692",
            "lng": "134.54792149"
        },
        {
            "name": "Chinese restaurant bar 龍飯 ～LONHAN～",
            "address": "吉野川市鴨島町上下島128-5　秋山ビル1階東",
            "time": "17:00～22:30",
            "regular_holiday": "水,その他",
            "tel": "0883-26-0550",
            "lat": "34.06844547",
            "lng": "134.35349252"
        },
        {
            "name": "旬彩処酒菜亭",
            "address": "徳島市川内町大松178-3",
            "time": "11:30～14:00，18:00～21:00",
            "regular_holiday": "水,日",
            "tel": "088-665-7657",
            "lat": "34.11615318",
            "lng": "134.57450160"
        },
        {
            "name": "喫茶みのり",
            "address": "徳島市北沖洲4丁目1-38",
            "time": "05:00～14:00",
            "regular_holiday": "水,日",
            "tel": "088-628-2426",
            "lat": "34.06795895",
            "lng": "134.59219521"
        },
        {
            "name": "HAPPINESS",
            "address": "徳島市南昭和町5-99-1浜の前マンション2棟105号",
            "time": "11:00～14:00，18:00～21:00",
            "regular_holiday": "月",
            "tel": "088-656-3383",
            "lat": "34.05516850",
            "lng": "134.56074847"
        },
        {
            "name": "MIROKU SPICE",
            "address": "徳島市沖浜3-30　第二みずほビル101",
            "time": "11:00～16:00(ﾗｽﾄｵｰﾀﾞｰ15:30)",
            "regular_holiday": "月, その他",
            "tel": "088-602-7539",
            "lat": "34.04961613",
            "lng": "134.55107156"
        },
        {
            "name": "glaccitta cafe",
            "address": "徳島市八百屋町2-19",
            "time": "10:00～19:00",
            "regular_holiday": "木",
            "tel": "088-678-2114",
            "lat": "34.07210806",
            "lng": "134.55209051"
        },
        {
            "name": "鰻屋　つつみ",
            "address": "鳴門市大津町矢倉字東堤９８－１",
            "time": "11:00～14:30",
            "regular_holiday": "水, 日",
            "tel": "088-686-2020",
            "lat": "34.15626307",
            "lng": "134.59346844"
        },
        {
            "name": "長崎ちゃんぽん十鉄　ゆめタウン徳島店",
            "address": "板野郡藍住町奥野東中須88-1　ゆめタウン徳島2階",
            "time": "11:00～20:30",
            "regular_holiday": "不定休",
            "tel": "089-679-6137",
            "lat": "34.11910694",
            "lng": "134.50111364"
        },
        {
            "name": "のどけや",
            "address": "美馬市脇町大字脇町117-1",
            "time": "10:00～16:00，18:00～22:00",
            "regular_holiday": "不定休",
            "tel": "090-4922-1821",
            "lat": "34.06869521",
            "lng": "134.14575204"
        },
        {
            "name": "焼そば専門店 突貫亭 佐古店",
            "address": "徳島市佐古七番町3-27",
            "time": "10:00～22:00",
            "regular_holiday": "その他",
            "tel": "080-3923-8353",
            "lat": "34.07789318",
            "lng": "134.52420703"
        },
        {
            "name": "焼そば専門店 突貫亭 金沢本店",
            "address": "徳島市金沢2-2-37",
            "time": "10:00～22:00",
            "regular_holiday": "その他",
            "tel": "088-664-0423",
            "lat": "34.07178627",
            "lng": "134.58661801"
        },
        {
            "name": "COPA",
            "address": "徳島市一番町3-5",
            "time": "19:00～00:30",
            "regular_holiday": "日, 祝日",
            "tel": "088-622-5779",
            "lat": "34.07263855",
            "lng": "134.55162387"
        },
        {
            "name": "やきとり弁慶",
            "address": "徳島市秋田町2-11　港ビル1F",
            "time": "17:00～23:00",
            "regular_holiday": "日",
            "tel": "088-623-2722",
            "lat": "34.06441723",
            "lng": "134.54966307"
        },
        {
            "name": "自然食品店ぱんぷきん",
            "address": "徳島市佐古五番町11-3",
            "time": "11:30～15:00",
            "regular_holiday": "日, 祝日",
            "tel": "088-653-3330",
            "lat": "34.07934312",
            "lng": "134.53175337"
        },
        {
            "name": "まいどおおきに　徳島石井食堂",
            "address": "名西郡石井町高川原544－1",
            "time": "11:00～21:00",
            "regular_holiday": "その他",
            "tel": "088-674-8665",
            "lat": "34.07306418",
            "lng": "134.44498421"
        },
        {
            "name": "まいどおおきに　徳島きたじま食堂",
            "address": "板野郡北島町江尻字柳池28－5",
            "time": "11:00～22:00",
            "regular_holiday": "その他",
            "tel": "088-698-8169",
            "lat": "34.12300749",
            "lng": "134.55073106"
        },
        {
            "name": "マクドナルド　矢三店",
            "address": "徳島市北矢三町３－２－１０",
            "time": "07:00～01:00",
            "regular_holiday": "その他",
            "tel": "088-634-1415",
            "lat": "34.08457292",
            "lng": "134.51957974"
        },
        {
            "name": "麺工房わたる",
            "address": "板野郡藍住町勝瑞字成長111の1",
            "time": "11:00～20:00",
            "regular_holiday": "木",
            "tel": "088-641-3757",
            "lat": "34.12604618",
            "lng": "134.51899544"
        },
        {
            "name": "かぐら",
            "address": "徳島市富田町1丁目20番地検番ビル2F",
            "time": "18:00～00:00",
            "regular_holiday": "日",
            "tel": "088-622-2003",
            "lat": "34.06801404",
            "lng": "134.54901583"
        },
        {
            "name": "タン次郎北矢三店",
            "address": "徳島市北矢三町3丁目3-815番4",
            "time": "11:00～20:30",
            "regular_holiday": "無休",
            "tel": "088-677-9733",
            "lat": "34.08782257",
            "lng": "134.51991855"
        },
        {
            "name": "タン次郎藍住店",
            "address": "板野郡藍住町東中富字朏傍示22番1",
            "time": "11:00～20:30",
            "regular_holiday": "無休",
            "tel": "088-624-8158",
            "lat": "34.12879486",
            "lng": "134.47515003"
        },
        {
            "name": "(有)古谷",
            "address": "三好市池田町サラダ1786-4",
            "time": "10:00～14:00，17:00～21:00",
            "regular_holiday": "不定休",
            "tel": "0883-72-0414",
            "lat": "34.02762093",
            "lng": "133.80762138"
        },
        {
            "name": "まちなか交流スペースぎんざ和囲和囲",
            "address": "三好市池田町マチ2175番地",
            "time": "11:30～14:30",
            "regular_holiday": "木日その他",
            "tel": "0883-72-2131",
            "lat": "34.02814583",
            "lng": "133.80586878"
        },
        {
            "name": "いづみや",
            "address": "三好市池田町州津大深田635",
            "time": "12:00～15:00，18:00～22:00",
            "regular_holiday": "不定休",
            "tel": "0883-72-0375",
            "lat": "34.03968467",
            "lng": "133.84753033"
        },
        {
            "name": "鮨ひらい",
            "address": "三好市池田町マチ2413-3",
            "time": "17:00～21:00",
            "regular_holiday": "不定休",
            "tel": "0883-72-5011",
            "lat": "34.03000126",
            "lng": "133.81050987"
        },
        {
            "name": "Cafe & Bal uno",
            "address": "徳島市末広二丁目1-16　西山第一ビル101号",
            "time": "11:00～14:30，18:00～00:00",
            "regular_holiday": "月, その他",
            "tel": "088-678-8202",
            "lat": "34.06601183",
            "lng": "134.57336660"
        },
        {
            "name": "そばごめ屋",
            "address": "徳島市幸町3-83　中洲総合水産市場",
            "time": "10:00～19:00",
            "regular_holiday": "その他",
            "tel": "088-678-7655",
            "lat": "34.06845852",
            "lng": "134.55471814"
        },
        {
            "name": "Bar葉田",
            "address": "徳島市秋田町1-30　松本ビル1階",
            "time": "19:00～02:00",
            "regular_holiday": "不定休",
            "tel": "088-655-6028",
            "lat": "34.06509492",
            "lng": "134.54923809"
        },
        {
            "name": "味道筋",
            "address": "徳島市鷹匠町3丁目5-1",
            "time": "11:00～20:00",
            "regular_holiday": "火",
            "tel": "088-623-1800",
            "lat": "34.06361174",
            "lng": "134.54807432"
        },
        {
            "name": "餃子工房",
            "address": "吉野川市山川町川田802-1",
            "time": "09:00～19:00",
            "regular_holiday": "不定休",
            "tel": "0883-42-2515",
            "lat": "34.06016349",
            "lng": "134.21495860"
        },
        {
            "name": "御食事処十郎兵衛",
            "address": "徳島市川内町平石古田278-1",
            "time": "11:30～14:30，予約制～",
            "regular_holiday": "月,水",
            "tel": "088-665-6769",
            "lat": "34.10756547",
            "lng": "134.58268726"
        },
        {
            "name": "のぶ",
            "address": "美馬市穴吹町穴吹字市ノ須賀14-1",
            "time": "10:30～14:00",
            "regular_holiday": "木",
            "tel": "0883-53-6650",
            "lat": "34.05495820",
            "lng": "134.16663275"
        },
        {
            "name": "わSakaba凛",
            "address": "徳島市秋田町1丁目32　Y’Sビル1F",
            "time": "18:00～00:00",
            "regular_holiday": "水",
            "tel": "088-625-2779",
            "lat": "34.06521713",
            "lng": "134.54921031"
        },
        {
            "name": "小料理矢の",
            "address": "徳島市鷹匠町1丁目35(JAPANBLUEBLDG)1F　ジャパンブルービルディング",
            "time": "18:00～22:00",
            "regular_holiday": "土日",
            "tel": "088-626-3868",
            "lat": "34.06590870",
            "lng": "134.54798262"
        },
        {
            "name": "孔明館",
            "address": "徳島市安宅2丁目6番地10号地",
            "time": "11:00～15:00，17:00～21:00",
            "regular_holiday": "水",
            "tel": "088-623-1707",
            "lat": "34.07066962",
            "lng": "134.57481361"
        },
        {
            "name": "青柳",
            "address": "吉野川市鴨島町鴨島851",
            "time": "11:00～14:00，17:00～21:00",
            "regular_holiday": "不定休",
            "tel": "0883-24-1709",
            "lat": "34.07607485",
            "lng": "134.35128135"
        },
        {
            "name": "炭火焼・玄",
            "address": "鳴門市大津町矢倉東の越1-8",
            "time": "11:30～13:15，17:15～21:15",
            "regular_holiday": "月火水",
            "tel": "090-5916-9817",
            "lat": "34.14794449",
            "lng": "134.59356024"
        },
        {
            "name": "まつや",
            "address": "美馬郡つるぎ町貞光字町46-2",
            "time": "11:30～14:00，17:00～20:00",
            "regular_holiday": "無休",
            "tel": "0883-62-4047",
            "lat": "34.03732918",
            "lng": "134.06312365"
        },
        {
            "name": "食処 芭花",
            "address": "美馬郡つるぎ町貞光字町59",
            "time": "11:30～14:00，17:00～22:00",
            "regular_holiday": "不定休",
            "tel": "0883-62-5025",
            "lat": "34.03626818",
            "lng": "134.06265701"
        },
        {
            "name": "飯田食堂",
            "address": "美馬郡つるぎ町貞光24の1",
            "time": "11:00～14:00",
            "regular_holiday": "日",
            "tel": "0883-62-2025",
            "lat": "34.03710143",
            "lng": "134.06327087"
        },
        {
            "name": "とみなが",
            "address": "美馬郡つるぎ町貞光字馬出4番地",
            "time": "10:30～13:00，17:00～22:30",
            "regular_holiday": "不定休",
            "tel": "0883-62-2004",
            "lat": "34.04089265",
            "lng": "134.06034328"
        },
        {
            "name": "榎食堂",
            "address": "美馬市穴吹町三島字三谷348-15",
            "time": "17:00～22:00",
            "regular_holiday": "月，木",
            "tel": "0883-52-1933",
            "lat": "34.05644647",
            "lng": "134.12798486"
        },
        {
            "name": "味処あらし",
            "address": "鳴門市撫養町大桑島字北の浜51-1",
            "time": "11:00～21:00",
            "regular_holiday": "水",
            "tel": "088-686-0005",
            "lat": "34.18910413",
            "lng": "134.60360862"
        },
        {
            "name": "珈琲び～んず",
            "address": "美馬市美馬町喜来市42",
            "time": "8:30~17:30",
            "regular_holiday": "月",
            "tel": "0883-63-4880",
            "lat": "34.05190796",
            "lng": "134.05571593"
        },
        {
            "name": "有限会社 ふじよし",
            "address": "美馬市美馬町字銀杏木4番地",
            "time": "10:30~18:30",
            "regular_holiday": "日",
            "tel": "0883-63-3041",
            "lat": "34.05590195",
            "lng": "134.05888244"
        },
        {
            "name": "民宿竹ヶ島",
            "address": "海部郡海陽町宍喰浦字竹ヶ島1-1",
            "time": "12:00～14:00,18:00～20:00",
            "regular_holiday": "不定休",
            "tel": "0884-76-3657",
            "lat": "33.54665185",
            "lng": "134.31810303"
        },
        {
            "name": "の～となり",
            "address": "海部郡海陽町奥浦字鹿ヶ谷28-1",
            "time": "11:30~14:00, 19:00~22:00",
            "regular_holiday": "月, 日-夜休み",
            "tel": "0884-73-1554",
            "lat": "33.59123548",
            "lng": "134.35191256"
        },
        {
            "name": "レックスカフェ",
            "address": "海部郡海陽町鞆浦字山下10-12",
            "time": "11:00～16:00",
            "regular_holiday": "月,火,水",
            "tel": "0884-73-2963",
            "lat": "33.59551552",
            "lng": "134.35842311"
        },
        {
            "name": "松の実",
            "address": "海部郡海陽町大里松原32-132",
            "time": "17:00~23:30",
            "regular_holiday": "日, 第３月, その他",
            "tel": "0884-73-1403",
            "lat": "33.60954156",
            "lng": "134.36704190"
        },
        {
            "name": "めしや",
            "address": "海部郡海陽町宍喰浦那佐276-1オーシャンハウス1F",
            "time": "9:30～14:30,17:30～20:30",
            "regular_holiday": "水",
            "tel": "0884-76-2908",
            "lat": "33.58296944",
            "lng": "134.32200224"
        },
        {
            "name": "雅",
            "address": "海部郡海陽町多良字大道東15",
            "time": "17:00～00:00",
            "regular_holiday": "火",
            "tel": "0884-73-4333",
            "lat": "33.60187862",
            "lng": "134.34927142"
        },
        {
            "name": "リストランテ・ペルトナーレ",
            "address": "勝浦郡上勝町大字福原字平間62",
            "time": "12:00～15:00,18:00～21:00",
            "regular_holiday": "月,火",
            "tel": "090-2897-8704",
            "lat": "33.88459856",
            "lng": "134.41827188"
        },
        {
            "name": "焼き鳥 縁",
            "address": "海部郡海陽町四方原字町西143-1",
            "time": "17:30~23:00",
            "regular_holiday": "月",
            "tel": "0884-70-2288",
            "lat": "33.60702246",
            "lng": "134.35111856"
        },
        {
            "name": "十二万石",
            "address": "小松島市小松島町字中筋14-11",
            "time": "11:00~14:00, 17:00~23:00",
            "regular_holiday": "不定休",
            "tel": "0885-33-2744",
            "lat": "34.00424933",
            "lng": "134.58892080"
        },
        {
            "name": "ルペルル",
            "address": "海部郡海陽町大里字松の本51-6",
            "time": "8:15~20:00",
            "regular_holiday": "水",
            "tel": "0884-73-3167",
            "lat": "33.59965389",
            "lng": "134.35153780"
        },
        {
            "name": "食いもん屋 一家",
            "address": "海部郡海陽町奥浦字西分1-5",
            "time": "11:00~14:00, 18:00~21:30",
            "regular_holiday": "その他, 月末水",
            "tel": "080-2986-7023",
            "lat": "33.59391848",
            "lng": "134.35236258"
        },
        {
            "name": "辰巳家",
            "address": "小松島市松島町1-28",
            "time": "11:30~14:30",
            "regular_holiday": "日",
            "tel": "0885-32-0275",
            "lat": "34.00678235",
            "lng": "134.58618478"
        },
        {
            "name": "一番亭 脇町店",
            "address": "美馬市脇町拝原1777-6",
            "time": "（平日）11:00~01:00, （日）11:00~00:00",
            "regular_holiday": "不定休",
            "tel": "0883-53-2655",
            "lat": "34.06280994",
            "lng": "134.16858810"
        },
        {
            "name": "一番亭 羽ノ浦店",
            "address": "小松島市大林町高橋141-1",
            "time": "11:00~00:00",
            "regular_holiday": "不定休",
            "tel": "0885-37-2227",
            "lat": "33.96521699",
            "lng": "134.61913064"
        },
        {
            "name": "お食事処天野屋",
            "address": "鳴門市撫養町小桑島字前浜171番地",
            "time": "11:00～14:00,17:00～20:30",
            "regular_holiday": "木，(水曜日は午前中のみ営業)",
            "tel": "088-685-1955",
            "lat": "34.18206335",
            "lng": "134.60396138"
        },
        {
            "name": "イタリアンジェラート　ドルチェ",
            "address": "阿波市阿波町大道北190-1",
            "time": "10:00～19:00",
            "regular_holiday": "火",
            "tel": "0883-35-3912",
            "lat": "34.07461505",
            "lng": "134.23265949"
        },
        {
            "name": "うまいもん茶屋心助",
            "address": "板野郡藍住町矢上字北分82-1",
            "time": "11:00～14:30,17:00～00:00",
            "regular_holiday": "水",
            "tel": "088-678-6002",
            "lat": "34.13533652",
            "lng": "134.49583668"
        },
        {
            "name": "ぼんじゅうる",
            "address": "徳島市佐古三番町8-6",
            "time": "7:00～22:00",
            "regular_holiday": "その他",
            "tel": "088-623-7205",
            "lat": "34.07826830",
            "lng": "134.53630567"
        },
        {
            "name": "Gallery Cafe Rosemary’s",
            "address": "鳴門市鳴門町高島字竹島382-2",
            "time": "10:00～18:00",
            "regular_holiday": "月",
            "tel": "088-687-0933",
            "lat": "34.20781828",
            "lng": "134.59262370"
        },
        {
            "name": "珈琲日出蔵本店",
            "address": "板野郡北島町中村字上地10-2",
            "time": "10:00～21:00",
            "regular_holiday": "その他",
            "tel": "088-698-6622",
            "lat": "34.12746245",
            "lng": "134.54778943"
        },
        {
            "name": "柳鮨",
            "address": "徳島市大道1丁目17-1",
            "time": "17:30～23:00",
            "regular_holiday": "その他",
            "tel": "088-655-5505",
            "lat": "34.06641142",
            "lng": "134.54759097"
        },
        {
            "name": "とば作　昭和店",
            "address": "徳島市昭和町6-25",
            "time": "10:00～22:00",
            "regular_holiday": "不定休",
            "tel": "088-625-3909",
            "lat": "34.06011799",
            "lng": "134.56540631"
        },
        {
            "name": "レストランコックドールかげやま",
            "address": "徳島市八万町弐丈26-1",
            "time": "11:00～15:00,17:00～21:00",
            "regular_holiday": "月",
            "tel": "088-668-1535",
            "lat": "34.04458317",
            "lng": "134.54444166"
        },
        {
            "name": "情熱ホルモン 佐古酒場",
            "address": "徳島市佐古七番町4-23",
            "time": "（平日）17:00~01:00, （土・日）16:00~00:00",
            "regular_holiday": "不定休",
            "tel": "088-623-0817",
            "lat": "34.07805428",
            "lng": "134.52444866"
        },
        {
            "name": "居酒家　和さび",
            "address": "三好市池田町マチ2185-22",
            "time": "17:00～23:00",
            "regular_holiday": "日",
            "tel": "0883-72-1446",
            "lat": "34.02882354",
            "lng": "133.80652424"
        },
        {
            "name": "みどり旅館",
            "address": "小松島市小松島町字外開7‐5",
            "time": "11:00~",
            "regular_holiday": "その他",
            "tel": "0885-32-3633",
            "lat": "34.00993748",
            "lng": "134.58545406"
        },
        {
            "name": "タンタン",
            "address": "徳島市末広2-1-16 西山第一ビル102",
            "time": "11:00～19:00",
            "regular_holiday": "木",
            "tel": "088-654-4221",
            "lat": "34.06601183",
            "lng": "134.57336660"
        },
        {
            "name": "レストラン ペティ イゾラ",
            "address": "徳島市大原町小神子山6-7",
            "time": "11:00~17:00, 17:30~21:00",
            "regular_holiday": "木",
            "tel": "0885-38-6111",
            "lat": "34.01773921",
            "lng": "134.59899969"
        },
        {
            "name": "総本家　橋本　そば蔵",
            "address": "徳島市新蔵町1丁目77",
            "time": "11:00～21:00",
            "regular_holiday": "不定休",
            "tel": "088-655-1001",
            "lat": "34.07023889",
            "lng": "134.55694293"
        },
        {
            "name": "亀井製麺所",
            "address": "板野郡上板町神宅字小柿7-3",
            "time": "11:00~15:00",
            "regular_holiday": "不定休",
            "tel": "088-635-8455",
            "lat": "34.12840223",
            "lng": "134.40869551"
        },
        {
            "name": "阿波地鶏　竹の家　富田町店",
            "address": "徳島市富田町二丁目34番地　富田町ビル",
            "time": "17:00～01:00",
            "regular_holiday": "日",
            "tel": "088-652-0232",
            "lat": "34.06785017",
            "lng": "134.54858809"
        },
        {
            "name": "鳥ろく 藍住店",
            "address": "板野郡藍住町笠木字東野63-1",
            "time": "11:00~21:00",
            "regular_holiday": "無休",
            "tel": "088-637-3266",
            "lat": "34.13413415",
            "lng": "134.50802149"
        },
        {
            "name": "天山閣 中吉野店",
            "address": "徳島市中吉野町１丁目13",
            "time": "17:00~00:00",
            "regular_holiday": "無休",
            "tel": "088-678-4029",
            "lat": "34.08314014",
            "lng": "134.55752602"
        },
        {
            "name": "天山閣 国府店",
            "address": "徳島市国府町井戸字堂ノ裏38-5",
            "time": "11:30~15:00, 17:00~23:00",
            "regular_holiday": "無休",
            "tel": "088-679-8929",
            "lat": "34.08624935",
            "lng": "134.48445261"
        },
        {
            "name": "牛福 藍住店",
            "address": "板野郡藍住町笠木字東野69-1",
            "time": "17:00~00:00",
            "regular_holiday": "無休",
            "tel": "088-693-0388",
            "lat": "34.13377867",
            "lng": "134.51000184"
        },
        {
            "name": "焼肉酒家　あぶり亭　本店",
            "address": "三好郡東みよし町中庄1334-1",
            "time": "11:30～14:00,17:00～22:30",
            "regular_holiday": "不定休",
            "tel": "0883-82-6229",
            "lat": "34.03583282",
            "lng": "133.95910745"
        },
        {
            "name": "天満",
            "address": "板野郡板野町下ノ庄天満30番地",
            "time": "10:00~13:00, 17:00~22:00",
            "regular_holiday": "不定休",
            "tel": "088-672-3113",
            "lat": "34.12106181",
            "lng": "134.44426165"
        },
        {
            "name": "らーめん 福福",
            "address": "吉野川市山川町前川216-38",
            "time": "11:00~14:30, 17:00~19:00",
            "regular_holiday": "水",
            "tel": "0883-42-2514",
            "lat": "34.05755565",
            "lng": "134.23571567"
        },
        {
            "name": "日本料理 うなぎ ふぐ 山口屋",
            "address": "徳島市南二軒屋町1丁目2番14号",
            "time": "11:30～14:00，17:00～19:30",
            "regular_holiday": "水",
            "tel": "088-652-8244",
            "lat": "34.05504317",
            "lng": "134.54582748"
        },
        {
            "name": "月ヶ谷温泉",
            "address": "勝浦郡上勝町大字福原字平間71番地1",
            "time": "11:30～14:00，16:30～19:30",
            "regular_holiday": "不定休",
            "tel": "0885-46-0203",
            "lat": "33.88499572",
            "lng": "134.41831076"
        },
        {
            "name": "アジュール 昭吾堂",
            "address": "海部郡美波町奥河内字寺前237-4",
            "time": "09:00~17:00",
            "regular_holiday": "木",
            "tel": "0884-77-0126",
            "lat": "33.73135564",
            "lng": "134.52936887"
        },
        {
            "name": "籠屋町 鳴帆渡",
            "address": "徳島市籠屋町2丁目25番地",
            "time": "17:00～23:30",
            "regular_holiday": "月",
            "tel": "0886-22-3668",
            "lat": "34.06813346",
            "lng": "134.54796313"
        },
        {
            "name": "南阿波サンラインモビレージ",
            "address": "海部郡美波町山河内字明丸1-1",
            "time": "11:00~17:00",
            "regular_holiday": "不定休",
            "tel": "0884-70-0709",
            "lat": "33.69234941",
            "lng": "134.48950323"
        },
        {
            "name": "まめぼんカフェ",
            "address": "海部郡美波町奥河内字寺前100-9",
            "time": "11:00~17:00",
            "regular_holiday": "火",
            "tel": "0884-70-1372",
            "lat": "33.73254161",
            "lng": "134.53020492"
        },
        {
            "name": "民宿 ゆき荘",
            "address": "海部郡美波町西由岐字愛宕山13-19",
            "time": "11:00~15:00, 16:00~20:00",
            "regular_holiday": "無休",
            "tel": "0884-78-0513",
            "lat": "33.77110713",
            "lng": "134.59057381"
        },
        {
            "name": "ふなつき",
            "address": "海部郡美波町奥河内字寺前165",
            "time": "10:00~22:00",
            "regular_holiday": "不定休",
            "tel": "0884-77-0168",
            "lat": "33.73190003",
            "lng": "134.53172699"
        },
        {
            "name": "ドン・ガバチョ",
            "address": "徳島市元町一丁目5番地1",
            "time": "11:30～14:30，17:00～22:00",
            "regular_holiday": "不定休",
            "tel": "088-653-7888",
            "lat": "34.07322180",
            "lng": "134.55069616"
        },
        {
            "name": "山茂",
            "address": "阿南市羽ノ浦町宮倉羽ノ浦居内97",
            "time": "10:00~14:00, 16:00~22:00",
            "regular_holiday": "不定休",
            "tel": "0884-44-2006",
            "lat": "33.95762627",
            "lng": "134.62684617"
        },
        {
            "name": "茜どき　徳島駅前店",
            "address": "徳島市元町一丁目5番地1",
            "time": "17:00～22:00",
            "regular_holiday": "不定休",
            "tel": "088-611-8868",
            "lat": "34.07322180",
            "lng": "134.55069616"
        },
        {
            "name": "タリーズコーヒー　徳島駅前店",
            "address": "徳島市元町一丁目5番地1",
            "time": "07:00～21:00",
            "regular_holiday": "無休",
            "tel": "088-611-3915",
            "lat": "34.07322180",
            "lng": "134.55069616"
        },
        {
            "name": "志美津",
            "address": "徳島市富田町2丁目32",
            "time": "18:00～23:00",
            "regular_holiday": "日",
            "tel": "088-626-3344",
            "lat": "34.06781683",
            "lng": "134.54841310"
        },
        {
            "name": "炭火焼鳥 とり笑",
            "address": "阿南市羽ノ浦町宮倉太田6-1須藤テナント102",
            "time": "17:00~00:00",
            "regular_holiday": "水",
            "tel": "0884-21-8821",
            "lat": "33.96409217",
            "lng": "134.61993049"
        },
        {
            "name": "竹の瀬",
            "address": "徳島市鷹匠町１丁目10-1 ヴィラ鷹匠２F",
            "time": "17:00~00:00",
            "regular_holiday": "日",
            "tel": "088-654-6465",
            "lat": "34.06661141",
            "lng": "134.54826036"
        },
        {
            "name": "炉庵 松阪",
            "address": "徳島市篭屋町２丁目18",
            "time": "17:00~21:30",
            "regular_holiday": "日, 祝, その他",
            "tel": "088-625-4465",
            "lat": "34.06755574",
            "lng": "134.54788537"
        },
        {
            "name": "Ebisu CAFE",
            "address": "徳島市八万町大坪126",
            "time": "11:00~15:00, 17:00~20:30",
            "regular_holiday": "月P.M., 火",
            "tel": "088-668-6167",
            "lat": "34.04710204",
            "lng": "134.52811824"
        },
        {
            "name": "かめのや",
            "address": "三好郡東みよし町昼間3677-1",
            "time": "09:00~14:00, 18:00~22:00",
            "regular_holiday": "不定休",
            "tel": "0883-79-2146",
            "lat": "34.04212879",
            "lng": "133.86665828"
        },
        {
            "name": "福助うどん",
            "address": "名西郡石井町石井字石井444-1",
            "time": "10:00~20:00",
            "regular_holiday": "水",
            "tel": "088-674-0075",
            "lat": "34.06705385",
            "lng": "134.44304838"
        },
        {
            "name": "京もつ鍋ホルモン朱々 徳島石井",
            "address": "名西郡石井町高川原字加茂野312-1",
            "time": "17:00~00:00",
            "regular_holiday": "木",
            "tel": "088-676-3277",
            "lat": "34.08417334",
            "lng": "134.45743838"
        },
        {
            "name": "デュラム",
            "address": "名西郡石井町石井字城ノ内187-1",
            "time": "08:00~17:00",
            "regular_holiday": "月",
            "tel": "088-674-7111",
            "lat": "34.06533462",
            "lng": "134.43343548"
        },
        {
            "name": "割烹 ふじもと",
            "address": "名西郡石井町浦庄字下浦85",
            "time": "予約のみ, 17:00~23:00",
            "regular_holiday": "月曜日",
            "tel": "088-674-8548",
            "lat": "34.06771782",
            "lng": "134.42281132"
        },
        {
            "name": "紺屋町 よしこの",
            "address": "徳島市紺屋町5-6 アクティ21 8F",
            "time": "17:30~00:00",
            "regular_holiday": "不定休",
            "tel": "088-654-1694",
            "lat": "34.06671697",
            "lng": "134.54946026"
        },
        {
            "name": "吉野川サービスエリア(上り線)",
            "address": "三好郡東みよし町足代字柳ノ坪1377",
            "time": "07:00～22:00",
            "regular_holiday": "その他",
            "tel": "0883-76-5550",
            "lat": "34.04258430",
            "lng": "133.89406057"
        },
        {
            "name": "居酒屋 八ん茶屋",
            "address": "名西郡石井町石井字石井499-1",
            "time": "17:00~00:00",
            "regular_holiday": "月",
            "tel": "088-674-8938",
            "lat": "34.06851755",
            "lng": "134.44875056"
        },
        {
            "name": "水谷珈琲店",
            "address": "徳島市中吉野町４丁目34の20",
            "time": "09:00～20:00",
            "regular_holiday": "火",
            "tel": "088-633-1878",
            "lat": "34.08505094",
            "lng": "134.54907116"
        },
        {
            "name": "西洋膳所やすなが",
            "address": "徳島市富田町１丁目２７",
            "time": "18:00～22:00",
            "regular_holiday": "日，その他",
            "tel": "088-624-5201",
            "lat": "34.06808347",
            "lng": "134.54846587"
        },
        {
            "name": "ホテルサンオーシャン",
            "address": "阿南市富岡町滝ノ下42-4",
            "time": "11:00～14:00，17:00～21:00",
            "regular_holiday": "その他",
            "tel": "0884-23-2222",
            "lat": "33.91596185",
            "lng": "134.66493955"
        },
        {
            "name": "安兵衛",
            "address": "徳島市一番町3-22",
            "time": "11:00～21:30",
            "regular_holiday": "その他",
            "tel": "088-622-5387",
            "lat": "34.07309404",
            "lng": "134.55099336"
        },
        {
            "name": "鯛丸海月",
            "address": "鳴門市鳴門町土佐泊浦福池15-33",
            "time": "11:00～14:00，17:30～21:00",
            "regular_holiday": "その他",
            "tel": "088-687-1001",
            "lat": "34.22893230",
            "lng": "134.63641302"
        },
        {
            "name": "中国家庭料理 福林",
            "address": "徳島市富田浜1-52-2 草庵ビル1F",
            "time": "11:00~14:30, 17:00~23:00",
            "regular_holiday": "不定休",
            "tel": "088-654-7018",
            "lat": "34.06805572",
            "lng": "134.55038794"
        },
        {
            "name": "海鮮レストラン乙姫",
            "address": "徳島県阿南市橘町幸田92-2",
            "time": "11:00～14:30，17:30～22:00",
            "regular_holiday": "月",
            "tel": "088-427-2027",
            "lat": "33.86403586",
            "lng": "134.63206594"
        },
        {
            "name": "フリットふくみ",
            "address": "徳島市昭和町６丁目３０－２",
            "time": "11:00～14:30，17:30～21:30",
            "regular_holiday": "水，その他",
            "tel": "088-657-7031",
            "lat": "34.05966805",
            "lng": "134.56630068"
        },
        {
            "name": "キャトルアンファン",
            "address": "徳島市新浜町2丁目4-25シティコート新浜南",
            "time": "11:00～15:00，17:30～21:00",
            "regular_holiday": "水",
            "tel": "088-679-6430",
            "lat": "34.05011923",
            "lng": "134.56770908"
        },
        {
            "name": "お好みはうす樹樹",
            "address": "阿南市富岡町内町209-2",
            "time": "11:30~14:00, 17:00~22:00",
            "regular_holiday": "水, 日",
            "tel": "0884-22-8591",
            "lat": "33.92121943",
            "lng": "134.65664587"
        },
        {
            "name": "江戸屋珈琲 石井店",
            "address": "名西郡石井町高川原字加茂野276-5",
            "time": "08:00~22:00",
            "regular_holiday": "その他",
            "tel": "088-679-7827",
            "lat": "34.08414827",
            "lng": "134.45884935"
        },
        {
            "name": "個室居酒屋　日本一　本店",
            "address": "徳島市南新町2丁目10",
            "time": "17:00～22:00",
            "regular_holiday": "不定休",
            "tel": "088-625-1847",
            "lat": "34.06897781",
            "lng": "134.54764925"
        },
        {
            "name": "ごくらく酒蔵　あぐら",
            "address": "板野郡藍住町奥野字矢上前50-1",
            "time": "17:00～01:00",
            "regular_holiday": "火",
            "tel": "088-692-6397",
            "lat": "34.12739289",
            "lng": "134.49600624"
        },
        {
            "name": "レストラン ジョワ",
            "address": "徳島市南新町２丁目17",
            "time": "11:00~15:30, 17:00~23:00",
            "regular_holiday": "火",
            "tel": "088-655-9117",
            "lat": "34.06836398",
            "lng": "134.54752983"
        },
        {
            "name": "廻る寿し祭り　沖浜店",
            "address": "徳島市八万町沖須賀1-1",
            "time": "11:00～21:30",
            "regular_holiday": "その他",
            "tel": "088-667-1282",
            "lat": "34.04671093",
            "lng": "134.55231593"
        },
        {
            "name": "ラーメン東大　ゆめタウン店",
            "address": "板野郡藍住町奥野字東中須８８－１ゆめタウン徳島　２階",
            "time": "10:00～21:00",
            "regular_holiday": "その他",
            "tel": "088-678-6463",
            "lat": "34.11910694",
            "lng": "134.50111364"
        },
        {
            "name": "廻る寿し祭り　応神店",
            "address": "徳島市応神町西貞方字仁徳69-2",
            "time": "11:00～21:00",
            "regular_holiday": "その他",
            "tel": "088-683-3505",
            "lat": "34.11649992",
            "lng": "134.50900510"
        },
        {
            "name": "ラーメン東大　沖浜店",
            "address": "徳島市八万町沖須賀60-6",
            "time": "11:00～00:00",
            "regular_holiday": "不定休",
            "tel": "088-668-1554",
            "lat": "34.04588880",
            "lng": "134.55229372"
        },
        {
            "name": "ラーメン東大　住吉店",
            "address": "徳島市城東町１丁目２－５",
            "time": "11:00～00:00",
            "regular_holiday": "不定休",
            "tel": "088-624-7779",
            "lat": "34.07696608",
            "lng": "134.57355250"
        },
        {
            "name": "イルローザ北佐古店",
            "address": "徳島市北佐古一番町79-3",
            "time": "09:30～20:00",
            "regular_holiday": "その他",
            "tel": "088-633-6003",
            "lat": "34.08194010",
            "lng": "134.53737223"
        },
        {
            "name": "徳島ラーメン　麺王　川内店",
            "address": "徳島市川内町平石夷野２４０－１",
            "time": "11:00～00:00",
            "regular_holiday": "不定休",
            "tel": "088-678-3520",
            "lat": "34.12228314",
            "lng": "134.57843164"
        },
        {
            "name": "徳島ラーメン　麺王　徳島駅前本店",
            "address": "徳島市寺島本町東３－６旭ビル１F",
            "time": "10:00～00:00",
            "regular_holiday": "不定休",
            "tel": "088-623-4116",
            "lat": "34.07319126",
            "lng": "134.55172664"
        },
        {
            "name": "さわらぎ",
            "address": "徳島市一番町3丁目5",
            "time": "11:00～14:00，17:00～22:30",
            "regular_holiday": "不定休",
            "tel": "088-625-2431",
            "lat": "34.07263855",
            "lng": "134.55162387"
        },
        {
            "name": "徳島ラーメン　麺王　上板店",
            "address": "板野郡上板町椎本字椎ノ宮２０９－１１２３上板店駐車場敷地内",
            "time": "11:00～23:00",
            "regular_holiday": "不定休",
            "tel": "088-679-7780",
            "lat": "34.11830672",
            "lng": "134.43615963"
        },
        {
            "name": "朝食レストラン「和み」食・呑み処「和み」",
            "address": "阿南市領家町火屋ヶ原142",
            "time": "06:30~09:00, 18:00~22:00(L.O.21:30)",
            "regular_holiday": "日,祝日 朝無休",
            "tel": "050-5847-7340",
            "lat": "33.92220820",
            "lng": "134.66621984"
        },
        {
            "name": "Turner-Cafe(ターナーカフェ）",
            "address": "鳴門市撫養町小桑島字前浜182",
            "time": "11:30~15:00(月曜,水曜,木曜のみ), 18:00~00:00",
            "regular_holiday": "日",
            "tel": "088-686-9278",
            "lat": "34.18187728",
            "lng": "134.60478907"
        },
        {
            "name": "なつめ",
            "address": "徳島市栄町1丁目37",
            "time": "17:00~23:00",
            "regular_holiday": "無休",
            "tel": "088-623-3015",
            "lat": "34.06507825",
            "lng": "134.54856314"
        },
        {
            "name": "みわ",
            "address": "鳴門市北灘町櫛木字浜田46-1",
            "time": "予約制",
            "regular_holiday": "不定休",
            "tel": "088-688-1771",
            "lat": "34.22074433",
            "lng": "134.56424293"
        },
        {
            "name": "手打ちうどん たの久",
            "address": "小松島市神田瀬町字門田13-2",
            "time": "11:00～15:00，17:00～20:00",
            "regular_holiday": "火",
            "tel": "0885-33-3591",
            "lat": "34.00909603",
            "lng": "134.57923547"
        },
        {
            "name": "グリルレストランひ～こ。",
            "address": "徳島市川内町竹須賀163-1",
            "time": "7:30~23:00",
            "regular_holiday": "その他",
            "tel": "088-665-5307",
            "lat": "34.11018158",
            "lng": "134.57136040"
        },
        {
            "name": "コットンフィールド",
            "address": "名西郡神山町神領字西上角272-1",
            "time": "8:30~20:30",
            "regular_holiday": "不定休",
            "tel": "088-676-0803",
            "lat": "33.96896810",
            "lng": "134.36965785"
        },
        {
            "name": "廻る寿し祭り　脇町店",
            "address": "美馬市脇町猪尻建神社下南202-1",
            "time": "11:00～21:30",
            "regular_holiday": "その他",
            "tel": "0883-53-2566",
            "lat": "34.06336543",
            "lng": "134.16218332"
        },
        {
            "name": "紫乃",
            "address": "小松島市芝生町字宮ノ前27番2",
            "time": "11:00~14:00, 17:00~22:00",
            "regular_holiday": "月",
            "tel": "0885-32-8392",
            "lat": "33.99258437",
            "lng": "134.58488014"
        },
        {
            "name": "奥祖谷",
            "address": "三好市東祖谷京上161‐3",
            "time": "11:00~14:00",
            "regular_holiday": "不定休",
            "tel": "0883-88-2045",
            "lat": "33.86752751",
            "lng": "133.90378509"
        },
        {
            "name": "ひなた",
            "address": "徳島市国府町和田表18-6",
            "time": "11:00~14:00, 18:00~21:00",
            "regular_holiday": "無休",
            "tel": "088-642-0276",
            "lat": "34.07249290",
            "lng": "134.48947733"
        },
        {
            "name": "一鴻　秋田町本店",
            "address": "徳島市仲之町1丁目46アクティアネックス2F",
            "time": "17:00～00:00",
            "regular_holiday": "不定休",
            "tel": "088-623-2311",
            "lat": "34.06678642",
            "lng": "134.55001855"
        },
        {
            "name": "カレーハウスCoCo壱番屋　徳島沖浜店",
            "address": "徳島市沖浜東3丁目65-3",
            "time": "11:00～23:30",
            "regular_holiday": "その他",
            "tel": "088-626-7015",
            "lat": "34.04953286",
            "lng": "134.55316861"
        },
        {
            "name": "小づち寿司",
            "address": "鳴門市撫養町大桑島字濘岩浜19-8",
            "time": "11:30~13:30, 17:00~20:00",
            "regular_holiday": "水",
            "tel": "088-685-6811",
            "lat": "34.18363838",
            "lng": "134.61244367"
        },
        {
            "name": "焼肉 金波",
            "address": "徳島市寺島本町西1-51 宮下ビル1F",
            "time": "11:00~14:00, 17:00~23:00",
            "regular_holiday": "日",
            "tel": "088-676-3395",
            "lat": "34.07451053",
            "lng": "134.54950735"
        },
        {
            "name": "ホテル白い燈台",
            "address": "海部郡美波町日和佐浦455",
            "time": "11:30~13:30",
            "regular_holiday": "不定休",
            "tel": "0884-77-1170",
            "lat": "33.73714112",
            "lng": "134.54468970"
        },
        {
            "name": "一鴻　駅前店",
            "address": "徳島市寺島町東3-12-8 K1ビル1F",
            "time": "17:00～00:00",
            "regular_holiday": "不定休",
            "tel": "088-678-5995",
            "lat": "34.07027500",
            "lng": "134.55486250"
        },
        {
            "name": "徳島グランヴィリオホテル 和洋会席・寿司・鉄板焼 阿波",
            "address": "徳島市万代町3-5-1",
            "time": "11:30~14:00, 18:00~21:00",
            "regular_holiday": "その他",
            "tel": "088-624-1111",
            "lat": "34.06516732",
            "lng": "134.56108158"
        },
        {
            "name": "道の駅 にしいや",
            "address": "三好市西祖谷山村尾井ノ内348－2",
            "time": "09:00~17:00",
            "regular_holiday": "その他",
            "tel": "0883-87-2670",
            "lat": "33.88916869",
            "lng": "133.81131143"
        },
        {
            "name": "中国料理桃季",
            "address": "板野郡藍住町奥野字東中須88-1 ゆめタウン徳島店1F",
            "time": "11:00~21:30",
            "regular_holiday": "その他",
            "tel": "088-678-9666",
            "lat": "34.11910694",
            "lng": "134.50111364"
        },
        {
            "name": "桜や",
            "address": "阿南市富岡町あ石7-8",
            "time": "18:00~00:00",
            "regular_holiday": "日",
            "tel": "0884-22-7363",
            "lat": "33.91935853",
            "lng": "134.66043990"
        },
        {
            "name": "そば処 橋本",
            "address": "鳴門市大津町矢倉字六ノ越7-20",
            "time": "10:00~14:30, 17:00~20:00",
            "regular_holiday": "月",
            "tel": "088-685-1496",
            "lat": "34.15293561",
            "lng": "134.59270746"
        },
        {
            "name": "お好焼みその",
            "address": "徳島市富田町2丁目40-1",
            "time": "18:00~02:00",
            "regular_holiday": "日",
            "tel": "088-623-5456",
            "lat": "34.06771130",
            "lng": "134.54893806"
        },
        {
            "name": "モスバーガー 徳島羽ノ浦店",
            "address": "小松島市大林町字高橋144-7",
            "time": "9:00~22:00",
            "regular_holiday": "不定休",
            "tel": "0885-38-2099",
            "lat": "33.96562249",
            "lng": "134.61985000"
        },
        {
            "name": "手打ちそば遊山",
            "address": "徳島市八万町上長谷102-1",
            "time": "11:30~15:00",
            "regular_holiday": "月,火",
            "tel": "090-4971-5222",
            "lat": "34.05061825",
            "lng": "134.51436965"
        },
        {
            "name": "HOUSE MOTOYAMA",
            "address": "徳島市明神町５丁目25",
            "time": "11:00~16:00",
            "regular_holiday": "月,土,日",
            "tel": "088-622-1741",
            "lat": "34.05962336",
            "lng": "134.55197132"
        },
        {
            "name": "楽屋",
            "address": "徳島市富田町2丁目31",
            "time": "17:00～00:00",
            "regular_holiday": "不定休",
            "tel": "088-624-5522",
            "lat": "34.06781683",
            "lng": "134.54837699"
        },
        {
            "name": "膳屋　蔵本店",
            "address": "徳島市蔵本町2丁目7-1",
            "time": "17:30～00:00",
            "regular_holiday": "その他",
            "tel": "088-634-1350",
            "lat": "34.07794031",
            "lng": "134.51886876"
        },
        {
            "name": "Delicious",
            "address": "徳島市城東町2-7-12新居ビル105",
            "time": "17:30～00:00",
            "regular_holiday": "月",
            "tel": "088-622-7876",
            "lat": "34.07295545",
            "lng": "134.57427473"
        },
        {
            "name": "名もなき料理店",
            "address": "徳島市籠屋町2丁目7-1",
            "time": "12:00~15:00, 18:00~22:00",
            "regular_holiday": "不定休",
            "tel": "088-660-4368",
            "lat": "34.06814457",
            "lng": "134.54838532"
        },
        {
            "name": "cafe Bubo cioccolata",
            "address": "鳴門市撫養町南浜字浜田59-8",
            "time": "11:00~22:00",
            "regular_holiday": "その他",
            "tel": "088-685-5523",
            "lat": "34.17428927",
            "lng": "134.60495857"
        },
        {
            "name": "LOG BAR SKY",
            "address": "徳島市鷹匠町1-33丸平ビル2Ｆ",
            "time": "21:00~05:00",
            "regular_holiday": "火",
            "tel": "088-655-8030",
            "lat": "34.06513935",
            "lng": "134.54831872"
        },
        {
            "name": "THE PACIFIC HARBOR",
            "address": "徳島市中洲町3-5-1",
            "time": "17:30～22:30",
            "regular_holiday": "水，その他",
            "tel": "088-656-3044",
            "lat": "34.06733651",
            "lng": "134.56060936"
        },
        {
            "name": "海鮮活魚潤-uruoi-",
            "address": "吉野川市鴨島町上下島87の1番地 戸井ビル1F",
            "time": "11:00~14:00, 17:00~22:00",
            "regular_holiday": "月",
            "tel": "0883-24-6863",
            "lat": "34.06842050",
            "lng": "134.35457301"
        },
        {
            "name": "餃子の王将 川内店",
            "address": "徳島市川内町平石古田54",
            "time": "11:00~21:30",
            "regular_holiday": "木",
            "tel": "088-665-8380",
            "lat": "34.10945400",
            "lng": "134.57647664"
        },
        {
            "name": "日本料理　志渡",
            "address": "徳島市南庄町2丁目20-7",
            "time": "11:00～16:00，11:00～22:00(金，土，日，祝)",
            "regular_holiday": "不定休",
            "tel": "088-676-2275",
            "lat": "34.07066875",
            "lng": "134.51233069"
        },
        {
            "name": "Cafe des  epices",
            "address": "鳴門市撫養町岡崎字二等道路西46-13",
            "time": "10:00～16:00",
            "regular_holiday": "水，木",
            "tel": "088-679-6669",
            "lat": "34.18358865",
            "lng": "134.62094529"
        },
        {
            "name": "鳴門グランドホテル海月",
            "address": "鳴門市鳴門町土佐泊浦字82-88",
            "time": "11:30～14:00",
            "regular_holiday": "その他",
            "tel": "088-687-1515",
            "lat": "34.19071813",
            "lng": "134.62126470"
        },
        {
            "name": "居酒屋櫂",
            "address": "鳴門市撫養町小桑島字前浜131",
            "time": "17:00～23:00",
            "regular_holiday": "火",
            "tel": "088-684-1740",
            "lat": "34.17926377",
            "lng": "134.60664720"
        },
        {
            "name": "リストランテ岡本",
            "address": "阿南市深瀬町北久保36番地1",
            "time": "11:00～15:00，18:00～21:00",
            "regular_holiday": "月，火，水，木，金",
            "tel": "090-2786-8967",
            "lat": "33.92420399",
            "lng": "134.55017935"
        },
        {
            "name": "花食堂",
            "address": "吉野川市川島町桑村2289-5",
            "time": "11:30~14:00, 17:30~22:00",
            "regular_holiday": "火",
            "tel": "090-9995-1741",
            "lat": "34.06081831",
            "lng": "134.31299403"
        },
        {
            "name": "どちらいか",
            "address": "名西郡神山町神領字北191-1",
            "time": "17:00~23:00",
            "regular_holiday": "不定休",
            "tel": "088-676-0776",
            "lat": "33.96849006",
            "lng": "134.34643327"
        },
        {
            "name": "MINDE KITCHEN",
            "address": "三好市池田町マチ2226-3-1",
            "time": "11:00～18:00",
            "regular_holiday": "火",
            "tel": "090-7629-3000",
            "lat": "34.02931244",
            "lng": "133.80957666"
        },
        {
            "name": "旬彩うおしょう",
            "address": "徳島市国府町日開1117番地4",
            "time": "11:00~14:00, 17:00~23:00",
            "regular_holiday": "水",
            "tel": "088-679-6515",
            "lat": "34.08335754",
            "lng": "134.47522846"
        },
        {
            "name": "モスバーガー阿南店",
            "address": "阿南市才見町荒井ヶ内2-1",
            "time": "10:00～22:00",
            "regular_holiday": "不定休",
            "tel": "0884-24-3103",
            "lat": "33.91620075",
            "lng": "134.66914744"
        },
        {
            "name": "レストラン菩提樹",
            "address": "那賀郡那賀町和食郷字田野62道の駅鷲の里館内",
            "time": "11:30～14:00",
            "regular_holiday": "不定休",
            "tel": "0884-62-3222",
            "lat": "33.86324246",
            "lng": "134.50229014"
        },
        {
            "name": "ぬまた",
            "address": "徳島市国府町中312-7",
            "time": "11:00~19:00",
            "regular_holiday": "金",
            "tel": "088-642-5567",
            "lat": "34.06819859",
            "lng": "134.47610074"
        },
        {
            "name": "ふれあいの宿　遊遊ＮＡＳＡ",
            "address": "海部郡海陽町奥浦字鹿ヶ谷58-3",
            "time": "11:30～13:45，17:30～19:45",
            "regular_holiday": "その他",
            "tel": "0884-73-0300",
            "lat": "33.58803587",
            "lng": "134.35354290"
        },
        {
            "name": "和処　とみます",
            "address": "鳴門市撫養町斎田字大堤322番地",
            "time": "10:00~15:00, 17:00~21:00",
            "regular_holiday": "水",
            "tel": "088-686-0203",
            "lat": "34.17637240",
            "lng": "134.60576678"
        },
        {
            "name": "お好み焼　いか十",
            "address": "徳島市東新町1丁目28-1",
            "time": "12:00~18:00",
            "regular_holiday": "木",
            "tel": "088-622-0257",
            "lat": "34.07031376",
            "lng": "134.54734925"
        },
        {
            "name": "サロン・ド・カフェ珈木",
            "address": "小松島市坂野町松木3-1",
            "time": "08:30~18:00",
            "regular_holiday": "木",
            "tel": "090-1325-9094",
            "lat": "33.97342903",
            "lng": "134.63234578"
        },
        {
            "name": "はやしのお好焼",
            "address": "徳島市南内町１丁目30-1",
            "time": "11:00~20:00",
            "regular_holiday": "日, その他",
            "tel": "088-623-7120",
            "lat": "34.06923339",
            "lng": "134.55214333"
        },
        {
            "name": "お好み焼きつくし",
            "address": "三好市池田町マチ2185-3",
            "time": "11:00~13:30, 17:00~22:00",
            "regular_holiday": "不定休",
            "tel": "0883-72-6389",
            "lat": "34.02883742",
            "lng": "133.80627983"
        },
        {
            "name": "自然派ハム工房　リーベフラウ",
            "address": "名西郡石井町高川原字高川原2268-3",
            "time": "11:00～15:00，16:00～21:00",
            "regular_holiday": "水",
            "tel": "088-637-4567",
            "lat": "34.08313789",
            "lng": "134.44735052"
        },
        {
            "name": "創作料理　花ゆら",
            "address": "板野郡松茂町笹木野八北開拓165-2",
            "time": "17:30~22:30",
            "regular_holiday": "月",
            "tel": "088-699-8911",
            "lat": "34.14215344",
            "lng": "134.59262155"
        },
        {
            "name": "お好み焼き にしかわ",
            "address": "三好市三野芝生1270番地2",
            "time": "11:00~22:00",
            "regular_holiday": "月, 木",
            "tel": "0883-77-3602",
            "lat": "34.02602660",
            "lng": "133.80718260"
        },
        {
            "name": "粟カフェ",
            "address": "名西郡神山町神領字本上角118-1番地",
            "time": "11:30~17:00",
            "regular_holiday": "木,金",
            "tel": "050-2024-2062",
            "lat": "33.97488681",
            "lng": "134.37056630"
        },
        {
            "name": "阿波海鮮料理　ひらい両国",
            "address": "徳島市両国本町1丁目29番地",
            "time": "17:00~00:00",
            "regular_holiday": "その他",
            "tel": "088-678-2620",
            "lat": "34.07082487",
            "lng": "134.55193776"
        },
        {
            "name": "山のせ　石井本店",
            "address": "名西郡石井町石井字石井673-12",
            "time": "11:00～21:00",
            "regular_holiday": "その他",
            "tel": "088-674-3775",
            "lat": "34.06976184",
            "lng": "134.45208353"
        },
        {
            "name": "旬彩 しゅらく",
            "address": "美馬市美馬町字八幡143-1",
            "time": "17:00~23:00",
            "regular_holiday": "水",
            "tel": "090-5273-6074",
            "lat": "34.04633917",
            "lng": "134.01926308"
        },
        {
            "name": "山かつ　国府店",
            "address": "徳島県徳島市国府町井戸字堂裏30-1",
            "time": "11:00～15:00(平日)17:00～21:30(平日のみ)11:00～21:30(土日祝)",
            "regular_holiday": "その他",
            "tel": "088-643-1122",
            "lat": "34.08589667",
            "lng": "134.48540253"
        },
        {
            "name": "ふくろう",
            "address": "美馬市脇町大字猪尻字若宮南46-1",
            "time": "11:30~14:00",
            "regular_holiday": "無休",
            "tel": "0883-53-0238",
            "lat": "34.06671777",
            "lng": "134.15732282"
        },
        {
            "name": "レストラン ブリュージュ",
            "address": "名西郡神山町阿野字歯ノ辻499",
            "time": "10:30~14:00",
            "regular_holiday": "その他",
            "tel": "088-678-0001",
            "lat": "34.03776874",
            "lng": "134.41755901"
        },
        {
            "name": "あめん棒",
            "address": "美馬市穴吹町字東成戸93-2",
            "time": "10:30~17:00",
            "regular_holiday": "月,火",
            "tel": "0883-53-7068",
            "lat": "34.05070326",
            "lng": "134.16979066"
        },
        {
            "name": "あいさいキッチン",
            "address": "小松島市立江町炭屋ヶ谷47-3",
            "time": "11:00~15:00",
            "regular_holiday": "その他",
            "tel": "0885-38-0112",
            "lat": "33.97646751",
            "lng": "134.60180323"
        },
        {
            "name": "リヴァージュテラス　ブランアンジュ",
            "address": "徳島市万代町7丁目1-2",
            "time": "11:00～18:00",
            "regular_holiday": "月，火",
            "tel": "088-611-2200",
            "lat": "34.06122900",
            "lng": "134.56767276"
        },
        {
            "name": "山かつ　藍住店",
            "address": "板野郡藍住町東中富字龍池傍示58-1",
            "time": "11:00～21:30",
            "regular_holiday": "その他",
            "tel": "088-678-2626",
            "lat": "34.12505920",
            "lng": "134.47744153"
        },
        {
            "name": "cafe apron",
            "address": "板野郡上板町椎本字寺ノ前588-9",
            "time": "11:00~18:00",
            "regular_holiday": "木",
            "tel": "088-661-4248",
            "lat": "34.11616818",
            "lng": "134.43575968"
        },
        {
            "name": "フォーシーズンカフェ",
            "address": "徳島市寺島本町西1-54-1ホテル フォーシーズン徳島",
            "time": "11:00～15:00",
            "regular_holiday": "その他",
            "tel": "088-622-2203",
            "lat": "34.07444942",
            "lng": "134.54973234"
        },
        {
            "name": "十割そば",
            "address": "徳島市北島田町１丁目55-1",
            "time": "11:00~14:30, 17:00~20:00（土日祝のみ）",
            "regular_holiday": "その他",
            "tel": "088-633-3668",
            "lat": "34.08383963",
            "lng": "134.51717725"
        },
        {
            "name": "アーロンズ",
            "address": "徳島市幸町2-6-2",
            "time": "10:00~22:00",
            "regular_holiday": "日",
            "tel": "088-624-1270",
            "lat": "34.07066936",
            "lng": "134.55412093"
        },
        {
            "name": "ビストロ アメリ",
            "address": "徳島市住吉５丁目3-55 井内マンションA101",
            "time": "11:30~15:00, 18:00~22:00",
            "regular_holiday": "水, 木",
            "tel": "080-2989-5533",
            "lat": "34.07673280",
            "lng": "134.57501626"
        },
        {
            "name": "モスバーガー鳴門店",
            "address": "鳴門市撫養町黒崎字松島105",
            "time": "09:00～23:00",
            "regular_holiday": "その他",
            "tel": "088-685-4202",
            "lat": "34.18472960",
            "lng": "134.60030346"
        },
        {
            "name": "和洋れすとらん居古奈",
            "address": "阿南市羽ノ浦町岩脇神代地45-7",
            "time": "11:00~14:30, 17:00~21:00",
            "regular_holiday": "月",
            "tel": "0884-44-3053",
            "lat": "33.95117464",
            "lng": "134.62026898"
        },
        {
            "name": "カフェレストラン八番館",
            "address": "三好市池田町ウエノ3158-3",
            "time": "11:00~21:00",
            "regular_holiday": "水",
            "tel": "0883-72-4371",
            "lat": "34.02602660",
            "lng": "133.80718260"
        },
        {
            "name": "徳島らーめんにし利",
            "address": "三好市山城町西宇1468-1",
            "time": "11:00～17:00",
            "regular_holiday": "その他",
            "tel": "090-5272-1052",
            "lat": "33.90565101",
            "lng": "133.75392807"
        },
        {
            "name": "ホーリーホック",
            "address": "阿南市羽ノ浦町宮倉芝生7-7",
            "time": "11:00~15:00(L.O.14:30), 17:30~21:00(L.O.20:30)",
            "regular_holiday": "水",
            "tel": "0884-44-1535",
            "lat": "33.96193971",
            "lng": "134.62223288"
        },
        {
            "name": "おざき",
            "address": "阿南市羽ノ浦町古庄大道ノ西6-1",
            "time": "11:00~14:00, 17:00~21:00",
            "regular_holiday": "不定休",
            "tel": "0884-44-2080",
            "lat": "33.94282290",
            "lng": "134.62304647"
        },
        {
            "name": "にっぱち居酒屋鳥兄弟 羽ノ浦店",
            "address": "小松島市大林町字高橋134-1",
            "time": "17:00~00:00",
            "regular_holiday": "無休",
            "tel": "0885-38-6061",
            "lat": "33.96559193",
            "lng": "134.61878904"
        },
        {
            "name": "にっぱち居酒屋鳥兄弟 沖浜店",
            "address": "徳島市沖浜３丁目63-2",
            "time": "17:00~00:00",
            "regular_holiday": "無休",
            "tel": "088-624-8232",
            "lat": "34.05018827",
            "lng": "134.55053826"
        },
        {
            "name": "阿波の国　昴宿よしの",
            "address": "徳島市一番町3-18",
            "time": "12:00～14:00，18:00～22:00",
            "regular_holiday": "不定休",
            "tel": "088-654-2255",
            "lat": "34.07289962",
            "lng": "134.55075727"
        },
        {
            "name": "紺屋町のだ",
            "address": "徳島市紺屋町26",
            "time": "18:00~00:00",
            "regular_holiday": "月",
            "tel": "088-655-5338",
            "lat": "34.06751963",
            "lng": "134.54773816"
        },
        {
            "name": "井ーツ",
            "address": "徳島市寺町本町西1丁目61番地 徳島駅クレメントプラザ地下1階",
            "time": "11:00~23:00",
            "regular_holiday": "その他",
            "tel": "088-655-3230",
            "lat": "34.07307451",
            "lng": "134.54349120"
        },
        {
            "name": "にっぱち居酒屋鳥兄弟 駅前店",
            "address": "徳島市一番町３丁目7 サンステージ一番町B1",
            "time": "17:00~00:00",
            "regular_holiday": "無休",
            "tel": "088-655-5120",
            "lat": "34.07270243",
            "lng": "134.55155166"
        },
        {
            "name": "味の城",
            "address": "徳島市両国本町2丁目26-2",
            "time": "17:00~23:30",
            "regular_holiday": "不定休",
            "tel": "088-625-5202",
            "lat": "34.06989720",
            "lng": "134.55136838"
        },
        {
            "name": "山かつ　山城店",
            "address": "徳島市山城西3丁目42-1",
            "time": "11:00～21:30",
            "regular_holiday": "その他",
            "tel": "088-654-8686",
            "lat": "34.04892466",
            "lng": "134.55582395"
        },
        {
            "name": "しゃぶしゃぶ剛　脇町店",
            "address": "美馬市脇町西赤谷20-1",
            "time": "11:00~15:00, 17:00~23:00",
            "regular_holiday": "不定休",
            "tel": "088-353-5959",
            "lat": "34.06670659",
            "lng": "134.18370869"
        },
        {
            "name": "花盛り",
            "address": "徳島市富田町２丁目30",
            "time": "17:00~23:00",
            "regular_holiday": "月",
            "tel": "088-652-4930",
            "lat": "34.06765574",
            "lng": "134.54836311"
        },
        {
            "name": "田舎屋にしかわ",
            "address": "徳島市中吉野町1丁目9-7",
            "time": "17:00～23:00",
            "regular_holiday": "不定休",
            "tel": "088-656-0188",
            "lat": "34.08366507",
            "lng": "134.55673997"
        },
        {
            "name": "Bar 鴻 Kohno",
            "address": "徳島市栄町1丁目67-2 橘ビル3F",
            "time": "18:00~01:00",
            "regular_holiday": "不定休",
            "tel": "088-624-0067",
            "lat": "34.06679473",
            "lng": "134.54876309"
        },
        {
            "name": "喫茶丸の内",
            "address": "阿南市富岡町今福寺59-5",
            "time": "7:00~19:00",
            "regular_holiday": "日",
            "tel": "0884-22-0667",
            "lat": "33.91949741",
            "lng": "134.66155645"
        },
        {
            "name": "まいどおおきに食堂徳島鴨島食堂",
            "address": "吉野川市鴨島町中島字大止467-1",
            "time": "11:00~21:00",
            "regular_holiday": "無休",
            "tel": "0883-22-1016",
            "lat": "34.06999261",
            "lng": "134.36194195"
        },
        {
            "name": "やきとりの扇屋徳島藍住店",
            "address": "板野郡藍住町奥野字和田122-1",
            "time": "17:00～00:00",
            "regular_holiday": "その他",
            "tel": "088-693-4053",
            "lat": "34.12071300",
            "lng": "134.49496759"
        },
        {
            "name": "台湾料理　大宝",
            "address": "板野郡北島町鯛浜字大西68-1",
            "time": "11:00~15:00, 17:00~23:00",
            "regular_holiday": "不定休",
            "tel": "088-697-0102",
            "lat": "34.11513619",
            "lng": "134.54270157"
        },
        {
            "name": "土柱ランド新温泉",
            "address": "阿波市阿波町桜ノ岡165番地",
            "time": "11:00~14:00, 17:00~21:00",
            "regular_holiday": "不定休",
            "tel": "0883-35-3431",
            "lat": "34.09132413",
            "lng": "134.20607489"
        },
        {
            "name": "はなまるうどん徳島羽ノ浦店",
            "address": "阿南市羽ﾉ浦町宮倉字芝生6-1",
            "time": "10:00～21:00",
            "regular_holiday": "その他",
            "tel": "0884-26-9870",
            "lat": "33.96192856",
            "lng": "134.62306612"
        },
        {
            "name": "しゃぶしゃぶすきやき はづき",
            "address": "徳島市両国橋34 はっとり両国橋ビル2F",
            "time": "17:00~00:00",
            "regular_holiday": "日, その他",
            "tel": "088-656-2033",
            "lat": "34.06817237",
            "lng": "134.54997408"
        },
        {
            "name": "珈琲所　コメダ珈琲店　徳島北島店",
            "address": "板野郡北島町江尻字柳池9-2",
            "time": "07:00~23:00",
            "regular_holiday": "その他",
            "tel": "088-679-1610",
            "lat": "34.12289912",
            "lng": "134.54782296"
        },
        {
            "name": "福田珈琲店",
            "address": "徳島市国府町日開671-1",
            "time": "8:00~21:00",
            "regular_holiday": "無休",
            "tel": "088-679-8073",
            "lat": "34.08307119",
            "lng": "134.47002614"
        },
        {
            "name": "旬菜 しなり",
            "address": "徳島市栄町１丁目8-1 丸山ビル1F",
            "time": "18:00~23:00",
            "regular_holiday": "日, 月",
            "tel": "088-624-3595",
            "lat": "34.06659754",
            "lng": "134.54922139"
        },
        {
            "name": "焼肉 牛膳",
            "address": "徳島市栄町１丁目44-1",
            "time": "18:00~05:00",
            "regular_holiday": "不定休",
            "tel": "088-657-1022",
            "lat": "34.06550876",
            "lng": "134.54866313"
        },
        {
            "name": "レストラン スピナッチ",
            "address": "徳島市新浜本町２丁目3-51",
            "time": "11:00~15:00, 17:00~22:00",
            "regular_holiday": "木",
            "tel": "088-663-1873",
            "lat": "34.04286730",
            "lng": "134.56785076"
        },
        {
            "name": "ラーメン くるまや 蔵本店",
            "address": "徳島市蔵本町３丁目15",
            "time": "11:00~03:30",
            "regular_holiday": "無休",
            "tel": "088-631-4850",
            "lat": "34.07728478",
            "lng": "134.51701620"
        },
        {
            "name": "しゅう",
            "address": "徳島市助任橋４丁目4-1",
            "time": "11:30~14:00, 17:30~22:30",
            "regular_holiday": "日",
            "tel": "088-679-9248",
            "lat": "34.08094043",
            "lng": "134.55992863"
        },
        {
            "name": "やきとりの扇屋徳島南昭和町店",
            "address": "徳島市南昭和町5-69-1",
            "time": "17:00～23:00",
            "regular_holiday": "その他",
            "tel": "088-611-6687",
            "lat": "34.05581846",
            "lng": "134.56305104"
        },
        {
            "name": "炭七輪のはな牛徳島店",
            "address": "徳島市八万町大野144-1",
            "time": "17:00~23:00",
            "regular_holiday": "水",
            "tel": "088-669-0231",
            "lat": "34.04320025",
            "lng": "134.55320198"
        },
        {
            "name": "地鶏料理 無玄",
            "address": "徳島市鷹匠町１丁目33 丸平ビル1F",
            "time": "17:00~00:00",
            "regular_holiday": "月, その他, 第３月・火は連休",
            "tel": "088-679-6848",
            "lat": "34.06513935",
            "lng": "134.54831872"
        },
        {
            "name": "有限会社　濱喜久",
            "address": "徳島市籠屋町2-15-2",
            "time": "12:00~14:00, 18:00~22:00",
            "regular_holiday": "日",
            "tel": "088-655-6188",
            "lat": "34.06743354",
            "lng": "134.54823257"
        },
        {
            "name": "あじの家",
            "address": "鳴門市撫養町小桑島前組132 岡ビル1F",
            "time": "17:30~23:00",
            "regular_holiday": "日, 月",
            "tel": "088-686-6077",
            "lat": "34.18168023",
            "lng": "134.61006067"
        },
        {
            "name": "めんそーれ",
            "address": "徳島市鷹匠町1-9 鷹匠ビル",
            "time": "18:00~01:00",
            "regular_holiday": "不定休",
            "tel": "088-624-7839",
            "lat": "34.06664751",
            "lng": "134.54789094"
        },
        {
            "name": "焼肉つる松",
            "address": "美馬市脇町大字猪尻字道太52-1",
            "time": "17:00~21:30",
            "regular_holiday": "火",
            "tel": "0883-52-4888",
            "lat": "34.06848417",
            "lng": "134.15012372"
        },
        {
            "name": "Tokutoku Cafe",
            "address": "板野郡松茂町中喜来字前原東四番越14-1徳島とくとくターミナル",
            "time": "10:00～17:00",
            "regular_holiday": "月，火",
            "tel": "088-699-7001",
            "lat": "34.14246418",
            "lng": "134.57719508"
        },
        {
            "name": "阿波郷土料理　彩",
            "address": "鳴門市鳴門町土佐泊浦字大毛16-45",
            "time": "11:30～14:30，17:30～21:00",
            "regular_holiday": "その他",
            "tel": "088-687-2913",
            "lat": "34.22020844",
            "lng": "134.63309118"
        },
        {
            "name": "レストランデネブ",
            "address": "三好市池田町ウエノ3159の2",
            "time": "07:00~20:00",
            "regular_holiday": "火",
            "tel": "0883-72-6898",
            "lat": "34.02602660",
            "lng": "133.80718260"
        },
        {
            "name": "日本料理　味扇",
            "address": "徳島市南内町1-27-1",
            "time": "11:30~14:30, 17:30~22:00",
            "regular_holiday": "水",
            "tel": "088-624-0005",
            "lat": "34.06937226",
            "lng": "134.55178225"
        },
        {
            "name": "和食 やわらぎ",
            "address": "徳島市秋田町１丁目30 松本ビル1F",
            "time": "18:00~23:00",
            "regular_holiday": "月",
            "tel": "088-652-5430",
            "lat": "34.06509492",
            "lng": "134.54923809"
        },
        {
            "name": "新宿バインミー",
            "address": "徳島市秋田町1-22味園ビル一階",
            "time": "11:00～15:00，20:00～02:00",
            "regular_holiday": "日，祝日",
            "tel": "088-624-8103",
            "lat": "34.06554210",
            "lng": "134.54968527"
        },
        {
            "name": "中華工房チャイナ",
            "address": "徳島市沖浜東一丁目64-2",
            "time": "11:00~16:30, 18:00~21:00",
            "regular_holiday": "木",
            "tel": "088-653-6433",
            "lat": "34.05329637",
            "lng": "134.55523785"
        },
        {
            "name": "味一 阿讃",
            "address": "三好市池田町州津滝端1314-3",
            "time": "11:00~21:00",
            "regular_holiday": "水",
            "tel": "0883-72-2163",
            "lat": "34.03534586",
            "lng": "133.83536248"
        },
        {
            "name": "サン・プリンセス",
            "address": "阿南市宝田町平岡852-12",
            "time": "11:00~22:30",
            "regular_holiday": "木",
            "tel": "0884-23-4616",
            "lat": "33.92929379",
            "lng": "134.63442324"
        },
        {
            "name": "中華そば　やまきょう",
            "address": "徳島市北矢三町3丁目7-11",
            "time": "11:00～17:00",
            "regular_holiday": "水",
            "tel": "088-633-9872",
            "lat": "34.09069725",
            "lng": "134.52000181"
        },
        {
            "name": "ジェラテリア スプーンティーノ",
            "address": "鳴門市大麻町姫田字先達29-1",
            "time": "11:00~18:00",
            "regular_holiday": "月, 火, 水",
            "tel": "088-685-5001",
            "lat": "34.16299258",
            "lng": "134.56292966"
        },
        {
            "name": "タリーズコーヒーフジグラン北島店",
            "address": "板野郡北島町鯛浜西ノ須174フジグラン北島2F",
            "time": "09:00～21:00",
            "regular_holiday": "不定休",
            "tel": "088-697-2581",
            "lat": "34.11191990",
            "lng": "134.54718460"
        },
        {
            "name": "和遊食 肴菜や",
            "address": "徳島市南昭和町４丁目56-4 浜の前マンション103",
            "time": "17:00~23:00",
            "regular_holiday": "水",
            "tel": "088-624-5378",
            "lat": "34.05681274",
            "lng": "134.56005961"
        },
        {
            "name": "魚と酒の味処　まるた",
            "address": "徳島市栄町1丁目32-1 松原ビル1階",
            "time": "18:00~00:00",
            "regular_holiday": "日",
            "tel": "088-679-7525",
            "lat": "34.06515325",
            "lng": "134.54899922"
        },
        {
            "name": "かがやき",
            "address": "徳島県徳島市南佐古六番町4-1",
            "time": "11:30～14:00,17:00～23：00",
            "regular_holiday": "不定休",
            "tel": "088-622-8397",
            "lat": "34.07366314",
            "lng": "134.52903150"
        },
        {
            "name": "焼肉の牛若丸",
            "address": "徳島市住吉6-6-6",
            "time": "17:00~22:00",
            "regular_holiday": "不定休",
            "tel": "088-656-9090",
            "lat": "34.07837984",
            "lng": "134.57622446"
        },
        {
            "name": "うだつの縁が和 ぜにや",
            "address": "美馬市脇町大字脇町170",
            "time": "11:00~21:00",
            "regular_holiday": "不定休",
            "tel": "0883-52-8655",
            "lat": "34.06836196",
            "lng": "134.14900719"
        },
        {
            "name": "カフェ・レストラン　わんすとっぷ",
            "address": "阿南市那賀川町原260-1",
            "time": "09:30～15:00",
            "regular_holiday": "土，日，祝日",
            "tel": "0884-49-5818",
            "lat": "33.94966009",
            "lng": "134.64684684"
        },
        {
            "name": "リストランテ　ボナセーラ",
            "address": "徳島市川内町平石若宮191-3",
            "time": "11:30～14:00,18:30～21:00",
            "regular_holiday": "水",
            "tel": "088-666-0121",
            "lat": "34.10412707",
            "lng": "134.58765078"
        },
        {
            "name": "新町の洋食屋MIRO",
            "address": "徳島市東船場１丁目19-1 高畠ビル1F",
            "time": "11:00~15:00（ﾗｽﾄｵｰﾀﾞｰ14:30）, 17:00~20:00（ﾗｽﾄｵｰﾀﾞｰ19:30）",
            "regular_holiday": "木",
            "tel": "088-653-0221",
            "lat": "34.06993327",
            "lng": "134.54862137"
        },
        {
            "name": "花篝",
            "address": "徳島市栄町1丁目15 TKBビル1F",
            "time": "18:30~02:30",
            "regular_holiday": "月, 日, 不定休",
            "tel": "088-653-9335",
            "lat": "34.06607537",
            "lng": "134.54895476"
        },
        {
            "name": "土柱どんどん",
            "address": "阿波市阿波町桜の岡163-3",
            "time": "09:00~14:00, 17:00~21:00",
            "regular_holiday": "不定休",
            "tel": "0883-35-3808",
            "lat": "34.09090749",
            "lng": "134.20581660"
        },
        {
            "name": "男前カラアゲ",
            "address": "徳島市寺島本町西１丁目61 徳島駅クレメントプラザ地下１F",
            "time": "11:00~23:00",
            "regular_holiday": "その他",
            "tel": "088-679-6710",
            "lat": "34.07493548",
            "lng": "134.55000453"
        },
        {
            "name": "とば作小松島店",
            "address": "小松島市小松島町中筋8-10",
            "time": "09:30~21:00",
            "regular_holiday": "不定休",
            "tel": "0885-32-1839",
            "lat": "34.00490480",
            "lng": "134.58904019"
        },
        {
            "name": "炭火焼　海風",
            "address": "鳴門市鳴門町土佐泊浦字大毛16-45",
            "time": "17:30～21:30",
            "regular_holiday": "その他",
            "tel": "088-687-2913",
            "lat": "34.22020844",
            "lng": "134.63309118"
        },
        {
            "name": "居恋",
            "address": "那賀郡那賀町大久保字西納野9-3",
            "time": "08:30~14:00, 17:00~22:00",
            "regular_holiday": "日",
            "tel": "0884-62-2888",
            "lat": "33.79804163",
            "lng": "134.44598913"
        },
        {
            "name": "LOVING  CAFE",
            "address": "美馬市脇町字東赤谷名249",
            "time": "11:00~21:00",
            "regular_holiday": "水",
            "tel": "0883-53-0105",
            "lat": "34.10896086",
            "lng": "134.17718603"
        },
        {
            "name": "ミスタードーナツ フジグラン石井ショップ",
            "address": "名西郡石井町高川原字天神544-1 フジグラン石井1F",
            "time": "09:00~21:00",
            "regular_holiday": "その他",
            "tel": "088-674-8575",
            "lat": "34.08274926",
            "lng": "134.44147610"
        },
        {
            "name": "阿波牛鉄板やきにく酒場路地庵",
            "address": "徳島市秋田町1丁目8-2 川村ビル1F奥",
            "time": "18:00~00:00",
            "regular_holiday": "不定休",
            "tel": "088-622-1889",
            "lat": "34.06648089",
            "lng": "134.54989079"
        },
        {
            "name": "NORTHSHORE徳島店",
            "address": "徳島市万代町５丁目71-4",
            "time": "11:00~19:00",
            "regular_holiday": "その他",
            "tel": "088-679-8888",
            "lat": "34.06407307",
            "lng": "134.56586175"
        },
        {
            "name": "テラスカフェオーゲ",
            "address": "鳴門市鳴門町土佐泊浦字大毛16-45",
            "time": "10:00～23:00",
            "regular_holiday": "その他",
            "tel": "088-687-2913",
            "lat": "34.22020844",
            "lng": "134.63309118"
        },
        {
            "name": "和寛",
            "address": "徳島市栄町1丁目30　J’Sビル1階",
            "time": "18:00～00:00",
            "regular_holiday": "日",
            "tel": "088-623-0229",
            "lat": "34.06531434",
            "lng": "134.54890200"
        },
        {
            "name": "株式会社貞光ゆうゆう館",
            "address": "美馬郡つるぎ町貞光字大須賀11-1",
            "time": null,
            "regular_holiday": "水",
            "tel": null,
            "lat": "34.04262578",
            "lng": "134.06002942"
        },
        {
            "name": "吉や",
            "address": "徳島市秋田町4丁目20番地 コスモスハイツ1F",
            "time": "11:30~14:00, 17:00~18:30",
            "regular_holiday": "不定休",
            "tel": "088-652-0778",
            "lat": "34.06117036",
            "lng": "134.54946315"
        },
        {
            "name": "相恋茶屋",
            "address": "徳島市寺島本町東3丁目12-8 K1ビル7F",
            "time": "19:00~02:00",
            "regular_holiday": "月,火,水,日,不定休,祝日",
            "tel": "088-635-4165",
            "lat": "34.07356345",
            "lng": "134.55244880"
        },
        {
            "name": "ドトールコーヒーショップ フジグラン石井店",
            "address": "名西郡石井町高川原字天神544-1 フジグラン石井1F",
            "time": "09:00~20:00",
            "regular_holiday": "その他",
            "tel": "088-675-0004",
            "lat": "34.08274926",
            "lng": "134.44147610"
        },
        {
            "name": "麺処料理茶屋洒楽",
            "address": "海部郡海陽町奥浦字一宇谷25-15",
            "time": "11:00～14:00，17:30～",
            "regular_holiday": "日",
            "tel": "0884-70-1456",
            "lat": "33.59358797",
            "lng": "134.35166542"
        },
        {
            "name": "ガーデンタイムこのむ",
            "address": "勝浦郡勝浦町大字殿光13-1",
            "time": "10:00~19:00",
            "regular_holiday": "水, その他",
            "tel": "0885-42-1003",
            "lat": "33.93168560",
            "lng": "134.51118970"
        },
        {
            "name": "じゃんじゃか石井店",
            "address": "名西郡石井町高川原字天神544-1 フジグラン石井1F",
            "time": "11:30~14:00, 17:00~22:30",
            "regular_holiday": "その他",
            "tel": "088-675-2689",
            "lat": "34.08274926",
            "lng": "134.44147610"
        },
        {
            "name": "阿波地美獲あおき",
            "address": "勝浦郡勝浦町中角大薮30-1",
            "time": "11:30~17:00, 夜 予約",
            "regular_holiday": "火",
            "tel": "0885-42-3008",
            "lat": "33.93710975",
            "lng": "134.53095447"
        },
        {
            "name": "やきとりの扇屋南田宮店",
            "address": "徳島市南田宮1-3-1",
            "time": "17:00～23:00",
            "regular_holiday": "その他",
            "tel": "088-634-0302",
            "lat": "34.08653408",
            "lng": "134.54610474"
        },
        {
            "name": "セルフうどん和ぁさん",
            "address": "美馬市脇町木ノ内3718",
            "time": "11:00~14:00",
            "regular_holiday": "その他",
            "tel": "0883-53-1308",
            "lat": "34.05793279",
            "lng": "134.10447884"
        },
        {
            "name": "太陽軒",
            "address": "徳島市城東町１丁目6-20",
            "time": "11:00～19:00",
            "regular_holiday": "水,その他",
            "tel": "088-654-5424",
            "lat": "34.07351649",
            "lng": "134.57350257"
        },
        {
            "name": "じゃんじゃか沖浜店",
            "address": "徳島市沖浜東３丁目64",
            "time": "17:00~22:30",
            "regular_holiday": "不定休",
            "tel": "088-678-7875",
            "lat": "34.04970228",
            "lng": "134.55293807"
        },
        {
            "name": "さぬき手打ちうどん丸亀",
            "address": "鳴門市撫養町黒崎字松島372",
            "time": "11:00~15:00(土,日,祝日は11:00~20:00), 17:00~20:00",
            "regular_holiday": "木",
            "tel": "088-685-7344",
            "lat": "34.19074553",
            "lng": "134.60066729"
        },
        {
            "name": "点心バルやすなが",
            "address": "徳島市寺島本町西1-61徳島駅クレメントプラザB1",
            "time": "11:00～23:00",
            "regular_holiday": "その他",
            "tel": "088-676-2084",
            "lat": "34.07493548",
            "lng": "134.55000453"
        },
        {
            "name": "鮨肴　いさみ",
            "address": "徳島市富田町2丁目30",
            "time": "18:00～0:00",
            "regular_holiday": "日",
            "tel": "088-602-4802",
            "lat": "34.06765574",
            "lng": "134.54836311"
        },
        {
            "name": "じゃんじゃか炎蔵北島店",
            "address": "板野郡北島町鯛浜字西ノ須174 フジグラン北島2F",
            "time": "11:30~14:00, 17:00~22:30",
            "regular_holiday": "その他",
            "tel": "088-697-0721",
            "lat": "34.11191990",
            "lng": "134.54718460"
        },
        {
            "name": "喜楽",
            "address": "徳島市南常三島町3丁目7-4",
            "time": "17:30~21:00",
            "regular_holiday": "火, 水, 不定休",
            "tel": "088-625-4275",
            "lat": "34.07761032",
            "lng": "134.56365058"
        },
        {
            "name": "肉問屋　じゅわっち",
            "address": "鳴門市撫養町斎田字大堤342",
            "time": "17:00～0:00",
            "regular_holiday": "その他",
            "tel": "088-683-0830",
            "lat": "34.17591688",
            "lng": "134.60531961"
        },
        {
            "name": "豚太郎空港店",
            "address": "板野郡松茂町笹木野字八北開拓207-1",
            "time": "11:00~14:30, 17:00~22:00",
            "regular_holiday": "木",
            "tel": "088-699-5391",
            "lat": "34.13933982",
            "lng": "134.59062734"
        },